# Time (s),Altitude (m),Vertical velocity (m/s),Vertical acceleration (m/s²),Total velocity (m/s),Total acceleration (m/s²),Position East of launch (m),Position North of launch (m),Lateral distance (m),Lateral direction (°),Lateral velocity (m/s),Lateral acceleration (m/s²),Latitude (°),Longitude (°),Gravitational acceleration (m/s²),Angle of attack (°),Roll rate (°/s),Pitch rate (°/s),Yaw rate (°/s),Mass (g),Propellant mass (g),Longitudinal moment of inertia (kg·m²),Rotational moment of inertia (kg·m²),CP location (cm),CG location (cm),Stability margin calibers (?),Mach number (?),Reynolds number (?),Thrust (N),Drag force (N),Drag coefficient (?),Axial drag coefficient (?),Friction drag coefficient (?),Pressure drag coefficient (?),Base drag coefficient (?),Normal force coefficient (?),Pitch moment coefficient (?),Yaw moment coefficient (?),Side force coefficient (?),Roll moment coefficient (?),Roll forcing coefficient (?),Roll damping coefficient (?),Pitch damping coefficient (?),Coriolis acceleration (m/s²),Reference length (cm),Reference area (cm²),Vertical orientation (zenith) (°),Lateral orientation (azimuth) (°),Wind velocity (m/s),Air temperature (°C),Air pressure (mbar),Speed of sound (m/s),Simulation time step (s),Computation time (s),Dynamic Pressure (mbar)
0,0,0,-0.070937,0,0.070937,0,0,0,0,0,0,45,0,9.8062,90,0,0,0,20544,3776.9,17.596,0.027774,NaN,176.68,NaN,0.021507,1427090,200,0,0.81276,0,0.5083,0.18439,0.12006,NaN,NaN,NaN,NaN,NaN,NaN,NaN,NaN,0,10.4,84.949,90,0,NaN,15,1013.2,340.39,0.01,0.011379,0
0.01,0,0,19.4,0,19.4,0,0,0,0,0,0,45,0,9.8062,90,0,0,0,20544,3776.9,17.596,0.027774,NaN,176.68,NaN,0.021501,1426645,600,0,0.81279,0,0.50833,0.18439,0.12006,NaN,NaN,NaN,NaN,NaN,NaN,NaN,NaN,0,10.4,84.949,90,0,NaN,15,1013.2,340.39,0.01,0.015483,0
0.02,9.70E-04,0.19402,34.616,0.19402,34.616,0,0,0,0,0,0,45,0,9.8062,88.481,0,0,0,20542,3774.7,17.594,0.027773,NaN,176.67,NaN,0.021502,1426702,912.5,1.04E-05,0.81278,3.75E-05,0.50833,0.18439,0.12006,NaN,NaN,NaN,NaN,NaN,NaN,NaN,NaN,2.00E-05,10.4,84.949,90,0,NaN,15,1013.2,340.39,0.01,0.018882,4.61E-04
0.03,0.0046414,0.54025,45.58,0.54025,45.58,0,0,0,0,0,0,45,0,9.8062,85.776,0,0,0,20538,3770.7,17.592,0.02777,NaN,176.66,NaN,0.021546,1429640,1137.5,2.19E-04,0.81258,7.83E-04,0.50813,0.18439,0.12006,NaN,NaN,NaN,NaN,NaN,NaN,NaN,NaN,5.57E-05,10.4,84.949,90,0,NaN,15,1013.2,340.39,0.01,0.021679,0.0035754
0.04,0.012323,0.99618,57.771,0.99618,57.771,0,0,0,0,0,0,45,0,9.8062,82.242,0,0,0,20532,3765,17.589,0.027766,NaN,176.64,NaN,0.021679,1438478,1387.5,0.0013216,0.81198,0.0046646,0.50753,0.18439,0.12006,NaN,NaN,NaN,NaN,NaN,NaN,NaN,NaN,1.03E-04,10.4,84.949,90,0,NaN,15,1013.2,340.39,0.01,0.025541,0.012157
0.05,0.025174,1.5741,71.192,1.5741,71.192,0,0,0,0,0,0,45,0,9.8062,77.847,0,0,0,20525,3758,17.584,0.027761,NaN,176.61,NaN,0.021966,1457529,1662.5,0.0049515,0.81071,0.017022,0.50625,0.18439,0.12006,NaN,NaN,NaN,NaN,NaN,NaN,NaN,NaN,1.62E-04,10.4,84.949,90,0,NaN,15,1013.2,340.39,0.01,0.030018,0.030352
0.06,0.044476,2.2863,85.238,2.2863,85.238,0,0,0,0,0,0,45,0,9.8062,72.738,0,0,0,20517,3749.5,17.579,0.027755,NaN,176.58,NaN,0.022635,1501905,1950,0.014112,0.80782,0.04569,0.50336,0.1844,0.12007,NaN,NaN,NaN,NaN,NaN,NaN,NaN,NaN,2.36E-04,10.4,84.949,90,0,NaN,15,1013.2,340.39,0.01,0.033673,0.064032
0.07,0.071602,3.139,99.914,3.139,99.914,0,0,0,0,0,0,45,0,9.8062,67.03,0,0,0,20506,3739.5,17.573,0.027748,NaN,176.55,NaN,0.023631,1567977,2250,0.033488,0.80372,0.099477,0.49925,0.1844,0.12007,NaN,NaN,NaN,NaN,NaN,NaN,NaN,NaN,3.24E-04,10.4,84.949,90,0,NaN,15,1013.2,340.39,0.01,0.037296,0.12071
0.08,0.10799,4.1387,106.11,4.1387,106.11,0,0,0,0,0,0,45,0,9.8062,60.96,0,0,0,20495,3727.9,17.566,0.02774,NaN,176.51,NaN,0.025048,1661987,2375.7,0.069348,0.79826,0.18335,0.49377,0.1844,0.12008,NaN,NaN,NaN,NaN,NaN,NaN,NaN,NaN,4.27E-04,10.4,84.949,90,0,NaN,14.999,1013.2,340.39,0.01,0.041047,0.20983
0.09,0.15469,5.2003,103.8,5.2003,103.8,0,0,0,0,0,0,45,0,9.8062,55.272,0,0,0,20483,3715.9,17.559,0.027731,NaN,176.46,NaN,0.026818,1779413,2327.1,0.12365,0.79197,0.28519,0.48746,0.18441,0.12009,NaN,NaN,NaN,NaN,NaN,NaN,NaN,NaN,5.36E-04,10.4,84.949,90,0,NaN,14.999,1013.2,340.39,0.01,0.044771,0.33128
0.1,0.21188,6.2389,101.49,6.2389,101.49,0,0,0,0,0,0,45,0,9.8062,50.433,0,0,0,20470,3703.5,17.552,0.027723,NaN,176.42,NaN,0.028775,1909263,2278.6,0.19269,0.7856,0.38605,0.48108,0.18442,0.12011,NaN,NaN,NaN,NaN,NaN,NaN,NaN,NaN,6.43E-04,10.4,84.949,90,0,NaN,14.999,1013.2,340.39,0.01,0.047491,0.47681
0.11,0.27935,7.2544,99.183,7.2544,99.183,0,0,0,0,0,0,45,0,9.8062,46.35,0,0,0,20458,3691.2,17.545,0.027714,NaN,176.37,NaN,0.030876,2048669,2230,0.27463,0.77936,0.47786,0.47482,0.18442,0.12012,NaN,NaN,NaN,NaN,NaN,NaN,NaN,NaN,7.48E-04,10.4,84.949,90,0,NaN,14.998,1013.2,340.39,0.01,0.050829,0.64466
0.12,0.35685,8.2468,96.869,8.2468,96.869,0,0,0,0,0,0,45,0,9.8062,42.883,0,0,0,20446,3678.8,17.537,0.027705,NaN,176.33,NaN,0.033064,2193823,2181.4,0.36769,0.77342,0.55793,0.46885,0.18443,0.12014,NaN,NaN,NaN,NaN,NaN,NaN,NaN,NaN,8.50E-04,10.4,84.949,90,0,NaN,14.998,1013.2,340.39,0.01,0.057945,0.83309
0.13,0.44416,9.216,94.552,9.216,94.552,0,0,0,0,0,0,45,0,9.8062,39.926,0,0,0,20433,3666.4,17.53,0.027697,NaN,176.28,NaN,0.035305,2342536,2132.9,0.47016,0.76784,0.62571,0.46323,0.18444,0.12016,NaN,NaN,NaN,NaN,NaN,NaN,NaN,NaN,9.50E-04,10.4,84.949,90,0,NaN,14.997,1013.2,340.39,0.01,0.060729,1.0404
0.14,0.54105,10.162,92.231,10.162,92.231,0,0,0,0,0,0,45,0,9.8062,37.391,0,0,0,20421,3654.1,17.522,0.027688,NaN,176.24,NaN,0.037576,2493139,2084.3,0.58051,0.76263,0.68204,0.45799,0.18445,0.12018,NaN,NaN,NaN,NaN,NaN,NaN,NaN,NaN,0.001048,10.4,84.949,90,0,NaN,14.996,1013.2,340.39,0.01,0.064662,1.265
0.15,0.64729,11.085,90.803,11.085,90.803,0,0,0,0,0,0,45,0,9.8062,35.205,0,0,0,20409,3641.7,17.515,0.027679,NaN,176.19,NaN,0.039855,2644358,2054,0.69738,0.75779,0.72832,0.45311,0.18446,0.12021,NaN,NaN,NaN,NaN,NaN,NaN,NaN,NaN,0.0011431,10.4,84.949,90,0,NaN,14.996,1013.2,340.39,0.01,0.0677,1.5051
0.16,0.76268,11.993,90.267,11.993,90.267,0,0,0,0,0,0,45,0,9.8062,33.316,0,0,0,20397,3629.9,17.508,0.027671,NaN,176.15,NaN,0.042164,2797524,2042,0.82071,0.75323,0.76583,0.44852,0.18448,0.12023,NaN,NaN,NaN,NaN,NaN,NaN,NaN,NaN,0.0012368,10.4,84.949,90,0,NaN,14.995,1013.2,340.39,0.01,0.07221,1.7619
0.17,0.88712,12.896,89.727,12.896,89.727,0,0,0,0,0,0,45,0,9.8062,31.636,0,0,0,20386,3618.7,17.501,0.027663,NaN,176.11,NaN,0.0445,2952514,2030,0.9512,0.74894,0.79685,0.44419,0.18449,0.12026,NaN,NaN,NaN,NaN,NaN,NaN,NaN,NaN,0.0013299,10.4,84.949,90,0,NaN,14.994,1013.1,340.39,0.01,0.076474,2.0372
0.18,1.0206,13.794,89.186,13.794,89.186,0,0,0,0,0,0,45,0,9.8062,30.134,0,0,0,20374,3607.4,17.494,0.027655,NaN,176.07,NaN,0.046858,3108874,2018,1.0884,0.7449,0.82235,0.44011,0.1845,0.12029,NaN,NaN,NaN,NaN,NaN,NaN,NaN,NaN,0.0014225,10.4,84.949,90,0,NaN,14.993,1013.1,340.38,0.01,0.079626,2.3307
0.19,1.163,14.686,88.644,14.686,88.644,0,0,0,0,0,0,45,0,9.8062,28.786,0,0,0,20363,3596.2,17.488,0.027647,NaN,176.03,NaN,0.04923,3266234,2006,1.2318,0.74108,0.8432,0.43625,0.18452,0.12032,NaN,NaN,NaN,NaN,NaN,NaN,NaN,NaN,0.0015145,10.4,84.949,90,0,NaN,14.992,1013.1,340.38,0.01,0.082535,2.6419
0.2,1.3143,15.573,88.561,15.573,88.561,0,0,0,0,0,0,45,0,9.8062,27.571,0,0,0,20352,3584.9,17.481,0.027639,NaN,175.99,NaN,0.051613,3424294,2003.3,1.3811,0.73748,0.86013,0.4326,0.18453,0.12035,NaN,NaN,NaN,NaN,NaN,NaN,NaN,NaN,0.001606,10.4,84.949,90,0,NaN,14.991,1013.1,340.38,0.01,0.10678,2.9706
0.21,1.4744,16.459,88.935,16.459,88.935,0,0,0,0,0,0,45,0,9.8062,26.92,0,0,0,20341,3573.6,17.474,0.027631,NaN,175.94,NaN,0.054231,3597962,2010,1.5358,0.73376,0.86638,0.42883,0.18455,0.12038,NaN,NaN,NaN,NaN,NaN,NaN,NaN,NaN,0.0016974,10.4,84.949,90,0,NaN,14.99,1013.1,340.38,0.01,0.11171,3.3182
0.22,1.6435,17.349,89.31,17.349,89.31,0,0,0,0,0,0,45,0,9.8062,26.324,0,0,0,20329,3562.3,17.467,0.027623,NaN,175.9,NaN,0.056866,3772700,2016.7,1.6986,0.73025,0.87147,0.42526,0.18457,0.12042,NaN,NaN,NaN,NaN,NaN,NaN,NaN,NaN,0.0017891,10.4,84.949,90,0,NaN,14.989,1013.1,340.38,0.01,0.11461,3.6866
0.23,1.8214,18.243,89.686,18.243,89.686,0,0,0,0,0,0,45,0,9.8062,25.776,0,0,0,20318,3550.9,17.46,0.027615,NaN,175.86,NaN,0.059516,3948461,2023.3,1.8694,0.72692,0.87559,0.42187,0.18459,0.12046,NaN,NaN,NaN,NaN,NaN,NaN,NaN,NaN,0.0018813,10.4,84.949,90,0,NaN,14.988,1013,340.38,0.01,0.11972,4.076
0.24,2.0083,19.14,90.061,19.14,90.061,0,0,0,0,0,0,45,0,9.8062,25.271,0,0,0,20307,3539.6,17.453,0.027607,NaN,175.82,NaN,0.062181,4125206,2030,2.0482,0.72376,0.87891,0.41865,0.18461,0.1205,NaN,NaN,NaN,NaN,NaN,NaN,NaN,NaN,0.0019738,10.4,84.949,90,0,NaN,14.987,1013,340.38,0.01,0.12396,4.4868
0.25,2.2042,20.041,90.436,20.041,90.436,0,0,0,0,0,0,45,0,9.8062,24.803,0,0,0,20295,3528.2,17.446,0.027599,NaN,175.78,NaN,0.064861,4302901,2036.7,2.2352,0.72076,0.88154,0.41558,0.18463,0.12055,NaN,NaN,NaN,NaN,NaN,NaN,NaN,NaN,0.0020667,10.4,84.949,90,0,NaN,14.986,1013,340.38,0.01,0.12667,4.9191
0.26,2.4092,20.946,90.811,20.946,90.811,0,0,0,0,0,0,45,0,9.8062,23.628,0,0,0,20284,3516.9,17.44,0.027591,NaN,175.74,NaN,0.067167,4455801,2043.3,2.428,0.71831,0.89301,0.41307,0.18465,0.12059,NaN,NaN,NaN,NaN,NaN,NaN,NaN,NaN,0.00216,10.4,84.949,90,0,NaN,14.984,1013,340.38,0.01,0.13155,5.3731
0.27,2.6232,21.854,91.187,21.854,91.187,0,0,0,0,0,0,45,0,9.8062,22.528,0,0,0,20272,3505.5,17.433,0.027583,NaN,175.69,NaN,0.069509,4611119,2050,2.6259,0.71592,0.90182,0.41062,0.18467,0.12063,NaN,NaN,NaN,NaN,NaN,NaN,NaN,NaN,0.0022537,10.4,84.949,90,0,NaN,14.983,1012.9,340.38,0.01,0.13497,5.8493
0.28,2.8463,22.766,91.562,22.766,91.562,0,0,0,0,0,0,45,0,9.8062,21.497,0,0,0,20261,3494.1,17.426,0.027576,NaN,175.65,NaN,0.071886,4768698,2056.7,2.8286,0.71361,0.90826,0.40824,0.18469,0.12067,NaN,NaN,NaN,NaN,NaN,NaN,NaN,NaN,0.0023478,10.4,84.949,90,0,NaN,14.981,1012.9,340.38,0.01,0.14118,6.3477
0.29,3.0785,23.682,91.938,23.682,91.938,0,0,0,0,0,0,45,0,9.8062,20.529,0,0,0,20250,3482.8,17.419,0.027568,NaN,175.61,NaN,0.074295,4928400,2063.3,3.0358,0.71136,0.91262,0.40593,0.18472,0.12072,NaN,NaN,NaN,NaN,NaN,NaN,NaN,NaN,0.0024423,10.4,84.949,90,0,NaN,14.98,1012.9,340.38,0.01,0.14381,6.8686
0.3,3.3199,24.602,92.314,24.602,92.314,0,0,0,0,0,0,45,0,9.8062,19.619,0,0,0,20238,3471.4,17.412,0.02756,NaN,175.57,NaN,0.076734,5090101,2070,3.2473,0.70918,0.91515,0.40368,0.18474,0.12077,NaN,NaN,NaN,NaN,NaN,NaN,NaN,NaN,0.0025371,10.4,84.949,90,0,NaN,14.978,1012.9,340.38,0.01,0.14736,7.4123
0.31,3.5706,25.526,92.69,25.526,92.69,0,0,0,0,0,0,45,0,9.8062,19.181,0,0,0,20227,3460.1,17.405,0.027552,NaN,175.53,NaN,0.079401,5266881,2076.7,3.4733,0.7069,0.91424,0.40132,0.18477,0.12082,NaN,NaN,NaN,NaN,NaN,NaN,NaN,NaN,0.0026324,10.4,84.949,90,0,NaN,14.977,1012.8,340.37,0.01,0.14991,7.9791
0.32,3.8305,26.453,93.066,26.453,93.066,0,0,0,0,0,0,45,0,9.8062,18.769,0,0,0,20216,3448.7,17.398,0.027544,NaN,175.48,NaN,0.082083,5444632,2083.3,3.7067,0.70471,0.913,0.39904,0.18479,0.12088,NaN,NaN,NaN,NaN,NaN,NaN,NaN,NaN,0.002728,10.4,84.949,90,0,NaN,14.975,1012.8,340.37,0.01,0.15277,8.5692
0.33,4.0997,27.384,93.442,27.384,93.442,0,0,0,0,0,0,45,0,9.8062,18.38,0,0,0,20204,3437.3,17.391,0.027536,NaN,175.44,NaN,0.084779,5623331,2090,3.9475,0.7026,0.91147,0.39684,0.18482,0.12093,NaN,NaN,NaN,NaN,NaN,NaN,NaN,NaN,0.002824,10.4,84.949,90,0,NaN,14.973,1012.8,340.37,0.01,0.15609,9.1828
0.34,4.3782,28.319,93.818,28.319,93.818,0,0,0,0,0,0,45,0,9.8062,18.014,0,0,0,20193,3426,17.384,0.027528,NaN,175.4,NaN,0.087489,5802958,2096.7,4.1956,0.70057,0.9097,0.39472,0.18485,0.121,NaN,NaN,NaN,NaN,NaN,NaN,NaN,NaN,0.0029204,10.4,84.949,90,0,NaN,14.972,1012.7,340.37,0.01,0.15871,9.8202
0.35,4.6661,29.258,93.83,29.258,93.83,0,0,0,0,0,0,45,0,9.8062,17.667,0,0,0,20182,3414.6,17.377,0.02752,NaN,175.36,NaN,0.090213,5983494,2096,4.4512,0.69861,0.90774,0.39266,0.18488,0.12106,NaN,NaN,NaN,NaN,NaN,NaN,NaN,NaN,0.0030172,10.4,84.949,90,0,NaN,14.97,1012.7,340.37,0.01,0.16149,10.482
0.36,4.9633,30.196,93.479,30.196,93.479,0,0,0,0,0,0,45,0,9.8062,17.112,0,0,0,20170,3403.4,17.37,0.027512,NaN,175.31,NaN,0.092826,6156634,2088,4.7027,0.6968,0.90583,0.39077,0.18491,0.12112,NaN,NaN,NaN,NaN,NaN,NaN,NaN,NaN,0.003114,10.4,84.949,90,0,NaN,14.968,1012.7,340.37,0.01,0.16887,11.165
0.37,5.27,31.132,93.127,31.132,93.127,0,0,0,0,0,0,45,0,9.8062,16.589,0,0,0,20159,3392.2,17.363,0.027504,NaN,175.27,NaN,0.095437,6329650,2080,4.9565,0.69506,0.90322,0.38893,0.18495,0.12118,NaN,NaN,NaN,NaN,NaN,NaN,NaN,NaN,0.0032105,10.4,84.949,90,0,NaN,14.966,1012.6,340.37,0.01,0.17404,11.867
0.38,5.5859,32.063,92.774,32.063,92.786,0,0,0,0,0,1.4804,45,0,9.8062,16.096,0,0,0,20148,3381,17.357,0.027496,173.08,175.23,-0.20647,0.098046,6502492,2070,5.2106,0.69339,0.89971,0.38716,0.18498,0.12125,5.1387,-1.0606,-2.04E-04,0,0,0,0,0,0.0033066,10.4,84.949,90,0,NaN,14.964,1012.6,340.37,0.015,0.17877,12.587
0.395,6.0773,33.454,92.132,33.454,92.144,-1.67E-04,0,1.67E-04,-180,0.022313,1.494,45,0,9.8062,15.371,0,-0.027548,2.11E-06,20134,3367,17.348,0.027486,173.57,175.18,-0.15502,0.10194,6760221,2055,5.5898,0.69101,0.89296,0.38463,0.18503,0.12135,4.793,-0.74268,-3.97E-04,0,0,0,0,-1.76E-06,0.00345,10.4,84.949,90,-179.99,NaN,14.96,1012.5,340.36,0.0225,0.19074,13.703
0.4175,6.8534,35.526,91.164,35.526,91.177,-0.0010518,0,0.0010518,-180,0.056577,1.5594,45,-1.34E-08,9.8062,14.646,0,-0.056351,3.00E-06,20113,3346,17.335,0.027471,174.08,175.1,-0.098178,0.10788,7154098,2032.5,6.1913,0.68759,0.8831,0.38097,0.18511,0.12151,4.457,-0.43726,2.33E-04,0,0,0,0,-6.58E-06,0.0036637,10.4,84.949,89.999,-179.99,NaN,14.955,1012.4,340.36,0.03375,0.19358,15.451
0.45125,8.1043,38.6,89.707,38.601,89.722,-0.0038725,-9.69E-09,0.0038725,-180,0.11121,1.673,45,-4.93E-08,9.8062,13.774,0,-0.077783,-4.10E-07,20082,3314.5,17.316,0.027449,174.74,174.98,-0.023552,0.11677,7742439,1999,7.1321,0.68296,0.86851,0.37595,0.18524,0.12177,4.0666,-0.096225,3.14E-06,0,0,0,0,-1.07E-05,0.0039807,10.4,84.949,89.996,180,NaN,14.947,1012.3,340.36,0.05,0.1965,18.239
0.50125,10.146,43.08,87.557,43.081,87.572,-0.011494,-4.78E-08,0.011494,-180,0.193,1.5973,45,-1.46E-07,9.8062,11.583,0,-0.032552,3.30E-05,20035,3267.7,17.287,0.027416,176.61,174.81,0.17372,0.12921,8565615,1959,8.3644,0.67759,0.8321,0.36999,0.18543,0.12217,3.152,0.54744,-1.76E-04,0,0,0,0,-1.53E-06,0.0044428,10.4,84.949,89.993,-179.99,NaN,14.934,1012.1,340.35,0.05,0.19934,22.714
0.55125,12.41,47.468,86.453,47.468,86.469,-0.023174,-1.38E-07,0.023174,-180,0.27476,1.6628,45,-2.95E-07,9.8062,10.46,0,0.10392,3.03E-05,19979,3211.7,17.252,0.027377,177.72,174.59,0.30105,0.14183,9400450,1933,9.8614,0.67813,0.81441,0.36986,0.18565,0.12261,2.7209,0.81914,2.07E-04,0,0,0,0,1.29E-05,0.0048953,10.4,84.949,89.995,-179.98,NaN,14.919,1011.8,340.34,0.05,0.20348,27.571
0.60125,14.892,51.8,85.984,51.801,85.996,-0.038903,-3.07E-07,0.038903,-180,0.35263,1.4502,45,-4.95E-07,9.8062,8.5016,0,0.33008,1.30E-05,19924,3157.2,17.218,0.027339,179.96,174.39,0.53565,0.1539,10198383,1919.7,11.125,0.67869,0.78052,0.36973,0.18588,0.12308,2.0318,1.0885,-1.62E-05,0,0,0,0,1.11E-04,0.0053422,10.4,84.949,89.995,-0.034152,NaN,14.903,1011.5,340.33,0.05,0.21452,32.826
0.65125,17.589,56.108,85.489,56.109,85.501,-0.058342,-5.79E-07,0.058342,-180,0.42467,1.4223,45,-7.42E-07,9.8061,7.621,0,0.63609,1.58E-05,19871,3104,17.184,0.027301,181.11,174.18,0.66636,0.16635,11020862,1906.3,12.743,0.67932,0.76547,0.36958,0.18614,0.1236,1.7484,1.1648,-4.56E-04,0,0,0,0,3.53E-04,0.0057865,10.4,84.949,89.971,-0.0067322,NaN,14.886,1011.2,340.32,0.05,0.21807,38.503
0.70125,20.502,60.391,85.251,60.393,85.261,-0.081299,-9.76E-07,0.081299,-180,0.49247,1.2847,45,-1.03E-06,9.8061,6.5959,0,1.0073,6.31E-05,19818,3050.8,17.151,0.027264,182.59,173.98,0.82849,0.17867,11833998,1898.2,14.366,0.67999,0.74828,0.36943,0.18641,0.12415,1.4394,1.1921,-3.65E-04,0,0,0,0,7.66E-04,0.0062283,10.4,84.949,89.93,-0.004922,NaN,14.867,1010.8,340.31,0.05,0.22212,44.594
0.75125,23.628,64.661,85.225,64.664,85.235,-0.10755,-1.52E-06,0.10755,-180,0.55805,1.3263,45,-1.37E-06,9.8061,6.3929,0,1.4414,1.33E-04,19765,2998.4,17.117,0.027227,182.92,173.77,0.87894,0.19125,12664220,1894.7,16.397,0.68072,0.74564,0.36925,0.18671,0.12476,1.3811,1.2128,2.20E-05,0,0,0,0,0.0013696,0.0066688,10.4,84.949,89.869,-0.0047771,NaN,14.846,1010.5,340.3,0.05,0.22491,51.11
0.80125,26.968,68.931,85.205,68.933,85.212,-0.13702,-2.26E-06,0.13702,-180,0.61841,1.0829,45,-1.74E-06,9.8061,5.4976,0,1.9337,1.37E-04,19714,2946.8,17.084,0.027191,184.38,173.57,1.0394,0.20358,13476524,1891.2,18.227,0.68148,0.7318,0.36907,0.18702,0.12539,1.1337,1.176,-4.23E-04,0,0,0,0,0.0021756,0.0071091,10.4,84.949,89.785,-0.0046819,NaN,14.825,1010.1,340.28,0.05,0.22761,58.064
0.85125,30.521,73.198,85.16,73.202,85.167,-0.1693,-3.24E-06,0.1693,-180,0.67297,1.0873,45,-2.15E-06,9.8061,5.4948,0,2.4867,6.76E-05,19662,2895.1,17.051,0.027154,184.4,173.37,1.0605,0.21623,1.43E+07,1887.7,20.579,0.68232,0.73265,0.36888,0.18736,0.12608,1.1331,1.1989,-4.28E-04,0,0,0,0,0.0031892,0.0075493,10.4,84.949,89.675,-0.0039726,NaN,14.802,1009.7,340.27,0.05,0.23028,65.455
0.90125,34.287,77.464,85.12,77.467,85.124,-0.20422,-4.49E-06,0.20422,-180,0.72197,0.86135,45,-2.60E-06,9.8061,5.037,0,3.1069,7.51E-05,19610,2843.4,17.018,0.027118,185.22,173.17,1.1585,0.22872,15131028,1884.2,22.821,0.68319,0.72651,0.36867,0.18772,0.1268,1.0135,1.1702,2.48E-04,0,0,0,0,0.0044502,0.0079893,10.4,84.949,89.535,-0.0031996,NaN,14.777,1009.2,340.25,0.05,0.23346,73.281
0.95125,38.267,81.728,85.072,81.731,85.074,-0.24129,-6.03E-06,0.24129,-180,0.75847,0.58407,45,-3.07E-06,9.8061,4.6377,0,3.7813,8.94E-05,19559,2791.8,16.984,0.027082,185.97,172.96,1.2503,0.24123,15953028,1880.7,25.202,0.68412,0.72161,0.36845,0.1881,0.12756,0.91288,1.1352,-5.02E-05,0,0,0,0,0.0059265,0.008429,10.4,84.949,89.363,-0.0026778,NaN,14.751,1008.8,340.24,0.05,0.23637,81.538
1.0013,42.46,85.989,85.024,85.992,85.024,-0.27975,-7.90E-06,0.27975,-180,0.77581,0.097288,45,-3.56E-06,9.8061,3.9617,0,4.4884,1.47E-04,19507,2740.1,16.951,0.027045,187.31,172.76,1.3992,0.25363,16767339,1877.2,27.529,0.68508,0.71337,0.36823,0.1885,0.12836,0.75036,1.0421,3.79E-04,0,0,0,0,0.0075539,0.0088684,10.4,84.949,89.157,-0.0024566,NaN,14.724,1008.3,340.22,0.05,0.23979,90.227
1.0513,46.866,90.247,84.968,90.251,84.969,-0.31842,-1.01E-05,0.31842,-180,0.7658,0.5042,45,-4.05E-06,9.8061,3.2397,0,5.1889,2.26E-04,19455,2688.4,16.917,0.027009,188.87,172.55,1.569,0.26603,1.76E+07,1873.7,29.944,0.6861,0.70568,0.36799,0.18891,0.1292,0.58781,0.91263,-2.29E-04,0,0,0,0,0.0091778,0.0093075,10.4,84.949,88.914,-0.0023687,NaN,14.695,1007.8,340.2,0.05,0.24225,99.343
1.1013,51.485,94.503,84.893,94.505,84.899,-0.35587,-1.28E-05,0.35587,-180,0.72825,1.005,45,-4.53E-06,9.806,2.9034,0,5.8823,4.82E-04,19404,2636.8,16.883,0.026973,189.65,172.34,1.6644,0.27857,18401122,1870.2,32.698,0.68717,0.70316,0.36773,0.18935,0.13009,0.5161,0.84844,4.06E-05,0,0,0,0,0.010758,0.0097463,10.4,84.949,88.638,-0.0025775,NaN,14.665,1007.2,340.19,0.05,0.24405,108.88
1.1513,56.316,98.754,84.806,98.756,84.82,-0.39081,-1.59E-05,0.39081,-180,0.66484,1.543,45,-4.97E-06,9.806,2.6406,0,6.5922,6.79E-04,19352,2585.1,16.849,0.026936,190.3,172.14,1.7463,0.29113,19223084,1866.7,35.62,0.6883,0.7017,0.36747,0.18981,0.13102,0.46181,0.79392,1.99E-04,0,0,0,0,0.012371,0.010185,10.4,84.949,88.326,-0.0029476,NaN,14.634,1006.6,340.17,0.05,0.2465,118.84
1.2013,61.36,103,84.712,103,84.746,-0.42176,-1.95E-05,0.42176,-180,0.56587,2.4153,45,-5.36E-06,9.806,1.9059,0,7.2505,6.97E-04,19300,2533.5,16.815,0.0269,192.18,171.93,1.9474,0.30352,20032285,1863.2,38.417,0.68946,0.69668,0.3672,0.19029,0.13198,0.31786,0.60543,-4.07E-04,0,0,0,0,0.013771,0.010622,10.4,84.949,87.979,-0.0031494,NaN,14.601,1006.1,340.15,0.05,0.25069,129.22
1.2513,66.616,107.24,84.597,107.24,84.658,-0.44671,-2.39E-05,0.44671,-180,0.42523,3.2108,45,-5.68E-06,9.806,1.4534,0,7.8045,7.59E-04,19249,2481.8,16.78,0.026864,193.44,171.72,2.0892,0.31601,20846998,1859.7,41.516,0.69068,0.69497,0.36691,0.19079,0.13298,0.23515,0.47604,-2.29E-04,0,0,0,0,0.014721,0.01106,10.4,84.949,87.603,-0.0031607,NaN,14.567,1005.4,340.13,0.05,0.25746,140.01
1.3013,72.084,111.48,84.464,111.48,84.565,-0.46356,-2.90E-05,0.46356,-180,0.24107,4.1451,45,-5.90E-06,9.806,0.86548,0,8.2285,0.0012378,19197,2430.1,16.745,0.026827,195.2,171.5,2.2787,0.32845,21656674,1856.2,44.723,0.69195,0.69351,0.36661,0.19131,0.13402,0.13441,0.29151,1.88E-05,0,0,0,0,0.015151,0.011496,10.4,84.949,87.201,-0.0030889,NaN,14.531,1004.8,340.1,0.05,0.26071,151.21
1.3513,77.764,115.71,84.315,115.71,84.458,-0.47011,-3.49E-05,0.47011,-180,0.014157,4.9198,45,-5.98E-06,9.806,0.6485,0,8.5344,0.0017835,19145,2378.5,16.711,0.026791,195.9,171.29,2.3668,0.341,22473603,1852.7,48.222,0.69328,0.69416,0.3663,0.19186,0.13512,0.099188,0.21925,-1.26E-04,0,0,0,0,0.015122,0.011932,10.4,84.949,86.782,-0.0030347,NaN,14.495,1004.1,340.08,0.05,0.26409,162.81
1.4013,83.654,119.93,84.151,119.93,84.343,-0.46434,-4.17E-05,0.46434,-179.99,0.25132,5.688,45,-5.91E-06,9.8059,0.49865,0,8.7869,0.0027194,19094,2326.8,16.676,0.026755,196.41,171.08,2.4361,0.35359,23290959,1849.2,51.888,0.69466,0.69518,0.36598,0.19243,0.13625,0.075467,0.16937,1.62E-04,0,0,0,0,0.014911,0.012368,10.4,84.949,86.349,-0.0030455,NaN,14.456,1003.4,340.06,0.05,0.26823,174.81
1.4513,89.756,124.14,83.96,124.14,84.224,-0.44424,-4.93E-05,0.44424,-179.99,0.56072,6.6658,45,-5.65E-06,9.8059,0.054997,0,8.9075,0.021844,19042,2275.1,16.64,0.026718,197.93,170.86,2.6028,0.36603,24097668,1845.7,55.636,0.69607,0.69608,0.36565,0.19301,0.13742,0.0080551,0.0065544,3.63E-04,0,0,0,0,0.014301,0.012802,10.4,84.949,85.905,-0.0029315,NaN,14.417,1002.7,340.04,0.05,0.27411,187.2
1.5013,96.068,128.34,83.753,128.34,84.096,-0.40748,-5.79E-05,0.40748,-179.99,0.91766,7.588,45,-5.18E-06,9.8059,0.25947,0,-8.8277,0.0045246,18990,2223.5,16.605,0.026682,197.25,170.64,2.5588,0.37851,24905444,1842.2,59.587,0.69754,0.69768,0.3653,0.19361,0.13863,0.038613,0.11155,3.51E-04,0,0,0,0,-0.013137,0.013236,10.4,84.949,85.461,-0.0025484,NaN,14.376,1002,340.01,0.05,0.27789,199.97
1.5513,102.59,132.53,83.523,132.54,83.96,-0.35169,-6.73E-05,0.35169,-179.99,1.3219,8.5539,45,-4.47E-06,9.8059,0.6036,0,-8.5467,0.0016597,18939,2171.8,16.57,0.026646,196.15,170.43,2.4735,0.39095,25708970,1838.7,63.714,0.69905,0.69983,0.36495,0.19424,0.13987,0.092183,0.23963,-1.80E-04,0,0,0,0,-0.011544,0.013669,10.4,84.949,85.026,-0.0021504,NaN,14.333,1001.2,339.98,0.05,0.28079,213.12
1.6013,109.32,136.71,83.251,136.72,83.817,-0.27439,-7.73E-05,0.27439,-179.98,1.78,9.7284,45,-3.49E-06,9.8059,1.1782,0,-7.9563,7.26E-04,18887,2120.1,16.534,0.026609,194.41,170.21,2.3274,0.40322,2.65E+07,1835.2,68.077,0.70059,0.70348,0.36458,0.19487,0.14114,0.18756,0.44574,-7.52E-05,0,0,0,0,-0.0094062,0.014101,10.4,84.949,84.612,-0.001854,NaN,14.289,1000.4,339.96,0.05,0.28362,226.65
1.6513,116.26,140.87,83.013,140.89,83.663,-0.17293,-8.78E-05,0.17293,-179.97,2.2846,10.407,45,-2.20E-06,9.8058,1.1989,0,-7.1421,1.05E-04,18835,2068.5,16.498,0.026573,194.38,169.99,2.3454,0.41574,27306235,1831.7,72.488,0.70222,0.70521,0.3642,0.19554,0.14247,0.19124,0.45527,-3.40E-05,0,0,0,0,-0.0071313,0.014532,10.4,84.949,84.234,-0.0017694,NaN,14.244,999.61,339.93,0.05,0.28958,240.53
1.7013,123.41,145.03,82.648,145.05,83.409,-0.045306,-9.86E-05,0.045306,-179.88,2.8273,11.238,45,-5.76E-07,9.8058,1.4499,0,-6.1763,2.01E-05,18784,2016.8,16.462,0.026537,193.68,169.77,2.2998,0.42808,28099038,1826.4,77.117,0.70387,0.70821,0.36382,0.19622,0.14382,0.23543,0.54688,1.46E-04,0,0,0,0,-0.0050307,0.014962,10.4,84.949,83.9,-0.0019123,NaN,14.198,998.78,339.9,0.05,0.29336,254.78
1.7513,130.76,149.16,82.18,149.2,83.055,0.11048,-1.10E-04,0.11048,-0.056904,3.4109,12.021,45,1.41E-06,9.8058,1.7128,0,-4.9612,9.33E-05,18733,1966.5,16.427,0.026501,192.98,169.55,2.253,0.44033,28884335,1819.5,81.909,0.70555,0.71156,0.36342,0.19692,0.14521,0.28327,0.6416,-2.91E-04,0,0,0,0,-0.0030684,0.01539,10.4,84.949,83.621,-0.0019773,NaN,14.15,997.91,339.87,0.05,0.29646,269.36
1.8013,138.32,153.27,81.726,153.32,82.686,0.29633,-1.21E-04,0.29633,-0.023439,4.028,12.564,45,3.77E-06,9.8058,1.8332,0,-3.5231,2.85E-04,18684,1917.3,16.392,0.026467,192.68,169.33,2.2449,0.45257,29667031,1812.6,86.761,0.70728,0.71415,0.36302,0.19764,0.14663,0.3058,0.68831,1.52E-05,0,0,0,0,-0.001465,0.015817,10.4,84.949,83.408,-0.0019821,NaN,14.101,997.03,339.84,0.05,0.29963,284.26
1.8513,146.09,157.36,81.313,157.43,82.305,0.51356,-1.33E-04,0.51356,-0.014833,4.6629,12.737,45,6.53E-06,9.8057,1.743,0,-1.981,5.74E-04,18635,1868.1,16.357,0.026432,192.96,169.12,2.292,0.46484,30450602,1805.8,91.596,0.70907,0.71532,0.3626,0.19838,0.14809,0.28915,0.66351,3.42E-04,0,0,0,0,-4.39E-04,0.016242,10.4,84.949,83.27,-0.0018302,NaN,14.05,996.12,339.81,0.05,0.3027,299.46
1.9013,154.06,161.43,80.881,161.52,81.917,0.76279,-1.45E-04,0.76279,-0.01087,5.3086,12.987,45,9.70E-06,9.8057,1.8144,0,-0.3422,0.0010975,18586,1818.9,16.322,0.026398,192.8,168.91,2.2971,0.47689,31217965,1798.9,96.629,0.71087,0.71764,0.36218,0.19912,0.14957,0.30261,0.69469,4.77E-04,0,0,0,0,-1.25E-05,0.016666,10.4,84.949,83.211,-0.0015623,NaN,13.999,995.18,339.78,0.05,0.30637,314.97
1.9513,162.23,165.48,80.474,165.58,81.52,1.0445,-1.56E-04,1.0445,-0.0085647,5.9616,13.016,45,1.33E-05,9.8057,1.8169,0,1.4357,9.56E-04,18537,1769.8,16.287,0.026363,192.82,168.69,2.3204,0.48887,31978953,1792,101.71,0.71271,0.71951,0.36175,0.19989,0.15107,0.30322,0.70321,3.84E-04,0,0,0,0,2.09E-04,0.017087,10.4,84.949,83.238,-0.0011796,NaN,13.945,994.22,339.75,0.05,0.30931,330.77
2.0013,170.61,169.5,80.138,169.63,81.106,1.3587,-1.67E-04,1.3587,-0.0070333,6.602,12.491,45,1.73E-05,9.8057,1.5333,0,3.1856,3.65E-04,18488,1720.6,16.252,0.026328,193.64,168.47,2.4197,0.50095,32744649,1785.1,106.7,0.71461,0.71952,0.36131,0.20067,0.15262,0.25119,0.60663,-4.82E-04,0,0,0,0,9.78E-04,0.017507,10.4,84.949,83.354,-8.87E-04,NaN,13.891,993.24,339.72,0.05,0.31227,346.87
2.0513,179.18,173.52,79.824,173.67,80.68,1.7042,-1.76E-04,1.7042,-0.0059262,7.2098,11.722,45,2.17E-05,9.8056,1.1875,0,4.7106,4.00E-04,18438,1671.4,16.216,0.026294,194.67,168.25,2.5398,0.51298,33505267,1778.3,111.77,0.71655,0.71955,0.36086,0.20148,0.15421,0.19009,0.48107,-4.37E-04,0,0,0,0,0.0020405,0.017925,10.4,84.949,83.553,-6.86E-04,NaN,13.835,992.23,339.68,0.05,0.31522,363.27
2.1013,187.96,177.51,79.505,177.68,80.246,2.079,-1.84E-04,2.079,-0.0050768,7.7771,10.878,45,2.64E-05,9.8056,0.88052,3.71E-07,5.953,1.48E-04,18389,1622.3,16.18,0.026259,195.63,168.03,2.6533,0.52488,34255788,1771.4,117,0.71851,0.72019,0.3604,0.2023,0.15581,0.13802,0.36292,-3.36E-04,0,0,0,0,0.0031134,0.018341,10.4,84.949,83.821,-4.98E-04,NaN,13.778,991.21,339.65,0.05,0.31839,379.95
2.1513,196.93,181.49,79.187,181.68,79.801,2.4811,-1.90E-04,2.4811,-0.0043965,8.2981,9.8763,45,3.16E-05,9.8056,0.53768,4.51E-07,6.8613,-5.43E-04,18340,1573.1,16.144,0.026225,196.75,167.81,2.7823,0.53672,35000705,1764.5,122.37,0.72051,0.72115,0.35993,0.20313,0.15745,0.082278,0.22468,4.48E-04,0,0,0,0,0.0039562,0.018756,10.4,84.949,84.143,-5.09E-04,NaN,13.72,990.15,339.61,0.05,0.33306,396.91
2.2013,206.11,185.46,78.88,185.67,79.338,2.9078,-1.95E-04,2.9078,-0.0038365,8.759,8.5108,45,3.70E-05,9.8056,0.0096848,3.96E-07,-7.2059,-0.043073,18291,1523.9,16.108,0.02619,198.57,167.59,2.9785,0.54868,35751233,1757.6,128,0.72258,0.72258,0.35945,0.20399,0.15914,0.001426,0.0083206,3.71E-04,0,0,0,0,-0.0041763,0.019168,10.4,84.949,84.497,-8.35E-04,NaN,13.66,989.08,339.58,0.05,0.33676,414.13
2.2513,215.48,189.41,78.517,189.63,78.876,3.356,-1.97E-04,3.356,-0.0033684,9.1611,7.5197,45,4.27E-05,9.8055,0.27214,3.98E-07,-6.9831,-0.0023866,18242,1474.7,16.072,0.026156,197.7,167.37,2.9169,0.56034,3.65E+07,1750.8,133.76,0.72464,0.72481,0.35897,0.20485,0.16082,0.040894,0.12263,2.22E-04,0,0,0,0,-0.0037614,0.019578,10.4,84.949,84.854,-0.0010558,NaN,13.599,987.98,339.54,0.05,0.34055,431.61
2.3013,225.05,193.34,78.143,193.57,78.399,3.823,-1.98E-04,3.823,-0.0029702,9.508,6.3325,45,4.86E-05,9.8055,0.64299,3.81E-07,-6.2573,-7.78E-04,18193,1425.6,16.036,0.026121,196.52,167.14,2.8252,0.57206,37211379,1743.9,139.8,0.72676,0.72767,0.35848,0.20573,0.16254,0.099345,0.28335,-1.97E-04,0,0,0,0,-0.0028982,0.019986,10.4,84.949,85.187,-0.0010649,NaN,13.537,986.86,339.5,0.05,0.34301,449.33
2.3513,234.81,197.25,77.718,197.49,77.932,4.306,-1.97E-04,4.306,-0.0026257,9.8108,5.7641,45,5.48E-05,9.8055,0.66937,0,-5.19,-1.76E-05,18143,1376.4,15.999,0.026086,196.48,166.92,2.8426,0.58345,37918890,1737,145.69,0.72886,0.72985,0.35799,0.20661,0.16425,0.10369,0.29625,1.04E-04,0,0,0,0,-0.0019172,0.020392,10.4,84.949,85.474,-0.0013987,NaN,13.474,985.71,339.46,0.05,0.34479,467.28
2.4012,244.77,201.14,77.272,201.39,77.457,4.8036,-1.95E-04,4.8036,-0.0023243,10.089,5.3621,45,6.11E-05,9.8054,0.65061,0,-4.0701,-7.66E-04,18094,1327.2,15.962,0.026052,196.58,166.69,2.874,0.59479,38621220,1730.1,151.66,0.73099,0.73193,0.3575,0.2075,0.16599,0.10071,0.29047,-4.80E-04,0,0,0,0,-0.0011348,0.020794,10.4,84.949,85.705,-0.0018679,NaN,13.409,984.54,339.42,0.05,0.34755,485.44
2.4512,254.92,205,76.828,205.26,76.961,5.3144,-1.91E-04,5.3144,-0.0020598,10.337,4.5295,45,6.76E-05,9.8054,0.89977,4.35E-07,-2.6869,-2.12E-04,18045,1278.1,15.925,0.026017,195.84,166.46,2.8249,0.60637,39336878,1723.3,158.09,0.73322,0.735,0.35698,0.20843,0.1678,0.14188,0.40133,-9.24E-05,0,0,0,0,-4.76E-04,0.021195,10.4,84.949,85.876,-0.0023351,NaN,13.343,983.35,339.38,0.05,0.3506,503.8
2.5012,265.27,208.84,76.275,209.11,76.38,5.8367,-1.86E-04,5.8367,-0.0018272,10.55,4.0132,45,7.42E-05,9.8054,1.0283,4.22E-07,-0.89766,-4.28E-04,17996,1228.9,15.888,0.025983,195.49,166.23,2.8133,0.61785,40044047,1714.9,164.55,0.73546,0.73779,0.35646,0.20938,0.16963,0.16374,0.4607,-4.59E-04,0,0,0,0,-5.12E-05,0.021592,10.4,84.949,85.967,-0.0024668,NaN,13.276,982.14,339.34,0.05,0.35762,522.34
2.5512,275.81,212.66,75.616,212.93,75.71,6.3691,-1.80E-04,6.3691,-0.0016207,10.744,3.7755,45,8.10E-05,9.8054,1.0821,8.71E-07,1.1518,-4.04E-04,17949,1181.8,15.852,0.02595,195.37,166.01,2.8231,0.62927,40745368,1705.3,171.06,0.73774,0.74032,0.35594,0.21033,0.17148,0.17307,0.48898,2.51E-04,0,0,0,0,8.12E-05,0.021987,10.4,84.949,85.962,-0.0023875,NaN,13.207,980.9,339.3,0.05,0.3605,541.05
2.6012,286.54,216.44,74.912,216.72,75.032,6.9112,-1.73E-04,6.9112,-0.0014348,10.944,4.2342,45,8.79E-05,9.8053,0.89225,1.08E-06,3.1565,-8.50E-04,17903,1136.5,15.818,0.025918,195.99,165.8,2.9034,0.64045,41429378,1695.6,177.32,0.74002,0.74179,0.35541,0.21129,0.17332,0.14092,0.40883,3.20E-04,0,0,0,0,5.89E-04,0.022378,10.4,84.949,85.853,-0.0015163,NaN,13.138,979.64,339.26,0.05,0.36748,559.87
2.6512,297.45,220.18,74.189,220.47,74.343,7.4639,-1.64E-04,7.4639,-0.0012617,11.17,4.7882,45,9.49E-05,9.8053,0.72754,1.13E-06,4.884,-0.002373,17858,1091.2,15.783,0.025886,196.55,165.58,2.9778,0.65165,42112231,1686,183.76,0.74234,0.74353,0.35487,0.21226,0.1752,0.11366,0.33744,-8.93E-05,0,0,0,0,0.001363,0.022765,10.4,84.949,85.651,7.87E-05,NaN,13.067,978.36,339.22,0.05,0.37181,578.81
2.7012,308.55,223.89,73.433,224.18,73.649,8.0287,-1.53E-04,8.0287,-0.0010919,11.43,5.6333,45,1.02E-04,9.8052,0.49062,9.46E-07,6.2477,-0.0029128,17813,1045.9,15.748,0.025854,197.36,165.36,3.0762,0.66276,42786609,1676.3,190.26,0.74468,0.74523,0.35433,0.21325,0.1771,0.07541,0.2303,1.03E-04,0,0,0,0,0.0021569,0.023149,10.4,84.949,85.37,0.0014676,NaN,12.994,977.06,339.17,0.05,0.37488,597.84
2.7512,319.84,227.56,72.622,227.86,72.961,8.6079,-1.38E-04,8.6079,-9.18E-04,11.748,7.0247,45,1.09E-04,9.8052,0.048651,1.00E-06,6.8645,-0.027296,17768,1000.6,15.713,0.025822,198.9,165.15,3.2452,0.67359,43441357,1666.6,196.73,0.747,0.74701,0.3538,0.21423,0.17898,0.0072439,0.020957,-1.83E-04,0,0,0,0,0.0025214,0.02353,10.4,84.949,85.038,0.0029544,NaN,12.921,975.74,339.13,0.05,0.37915,616.95
2.8012,331.31,231.19,71.819,231.51,72.254,9.2045,-1.18E-04,9.2045,-7.34E-04,12.123,7.9179,45,1.17E-04,9.8052,0.15788,9.87E-07,-6.711,-0.01019,17722,955.29,15.678,0.02579,198.57,164.93,3.2343,0.68456,44102966,1657,203.58,0.7494,0.74946,0.35324,0.21523,0.18092,0.023719,0.078917,1.89E-04,0,0,0,0,-0.0023339,0.023907,10.4,84.949,84.697,0.0044588,NaN,12.846,974.39,339.08,0.05,0.38225,636.12
2.8512,342.96,234.78,71.016,235.11,71.535,9.8209,-9.18E-05,9.8209,-5.36E-04,12.538,8.6054,45,1.25E-04,9.8051,0.27684,8.83E-07,-6.1394,-0.0064785,17677,910,15.642,0.025759,198.21,164.71,3.2211,0.69551,4.48E+07,1647.3,210.55,0.75183,0.752,0.35268,0.21626,0.18289,0.041992,0.13763,1.97E-04,0,0,0,0,-0.0018927,0.024281,10.4,84.949,84.374,0.0053298,NaN,12.771,973.03,339.04,0.05,0.385,655.34
2.9012,354.79,238.32,70.175,238.68,70.822,10.459,-5.84E-05,10.459,-3.20E-04,12.995,9.5503,45,1.33E-04,9.8051,0.51123,8.23E-07,-5.0702,-0.0025317,17632,864.71,15.607,0.025727,197.48,164.49,3.1721,0.70617,45397407,1637.7,217.56,0.75423,0.75483,0.35213,0.21727,0.18483,0.078944,0.25186,-4.22E-04,0,0,0,0,-0.0012525,0.02465,10.4,84.949,84.091,0.0059363,NaN,12.694,971.64,338.99,0.05,0.39212,674.59
2.9512,366.79,241.83,69.324,242.2,70.109,11.121,-1.68E-05,11.121,-8.63E-05,13.498,10.464,45,1.41E-04,9.8051,0.75158,1.23E-06,-3.3062,-3.10E-04,17586,819.42,15.571,0.025695,196.76,164.27,3.1239,0.71662,46018609,1628,224.64,0.75662,0.75792,0.35158,0.21829,0.18676,0.11817,0.36946,3.57E-04,0,0,0,0,-5.17E-04,0.025016,10.4,84.949,83.879,0.0065647,NaN,12.616,970.23,338.94,0.05,0.39553,693.86
3.0012,378.97,245.29,68.518,245.69,69.384,11.809,3.40E-05,11.809,1.65E-04,14.037,10.932,45,1.50E-04,9.805,0.86873,1.12E-06,-0.97237,-4.93E-04,17541,774.12,15.535,0.025663,196.44,164.05,3.1147,0.72697,46631374,1618.3,231.7,0.75903,0.76076,0.35102,0.21931,0.1887,0.13783,0.42942,-4.85E-04,0,0,0,0,-4.35E-05,0.025378,10.4,84.949,83.77,0.0067125,NaN,12.537,968.8,338.9,0.05,0.39937,713.13
3.0512,391.32,248.72,67.772,249.14,68.643,12.525,9.42E-05,12.525,4.31E-04,14.587,10.898,45,1.59E-04,9.805,0.86793,1.40E-06,1.6238,2.07E-04,17496,728.83,15.499,0.025631,196.49,163.82,3.1412,0.73721,47234238,1608.7,238.67,0.76145,0.76318,0.35047,0.22033,0.19065,0.1378,0.43276,-3.82E-04,0,0,0,0,1.18E-04,0.025737,10.4,84.949,83.786,0.0067355,NaN,12.456,967.36,338.85,0.05,0.40748,732.41
3.1012,403.84,252.1,67.124,252.56,67.868,13.268,1.64E-04,13.268,7.07E-04,15.114,10.018,45,1.69E-04,9.805,0.64345,1.52E-06,3.9668,0.0010653,17451,683.54,15.462,0.025599,197.25,163.6,3.2358,0.74747,47836142,1599,245.53,0.76391,0.76487,0.3499,0.22137,0.19263,0.10063,0.32499,4.38E-04,0,0,0,0,6.85E-04,0.026092,10.4,84.949,83.929,0.0065754,NaN,12.375,965.89,338.8,0.05,0.41072,751.7
3.1512,416.53,255.46,66.497,255.94,67.087,14.036,2.42E-04,14.036,9.88E-04,15.59,8.8798,45,1.79E-04,9.8049,0.38248,1.64E-06,5.6215,2.80E-04,17405,638.24,15.426,0.025567,198.15,163.37,3.3445,0.75755,48425075,1589.4,252.41,0.76636,0.7667,0.34934,0.22241,0.19461,0.058754,0.19563,-1.13E-04,0,0,0,0,0.0013399,0.026443,10.4,84.949,84.171,0.0057421,NaN,12.293,964.4,338.75,0.05,0.41281,770.99
3.2012,429.38,258.79,65.87,259.28,66.301,14.826,3.28E-04,14.826,0.001267,16.003,7.5439,45,1.89E-04,9.8049,0.085657,1.87E-06,6.3985,-0.0010066,17360,592.95,15.389,0.025536,199.22,163.14,3.4685,0.76752,49004013,1579.7,259.41,0.76882,0.76883,0.34878,0.22346,0.19658,0.012886,0.043419,-1.97E-04,0,0,0,0,0.0016916,0.026789,10.4,84.949,84.476,0.0044292,NaN,12.209,962.89,338.7,0.05,0.41507,790.27
3.2512,442.4,262.08,65.216,262.59,65.515,15.635,4.20E-04,15.635,0.0015376,16.349,6.2521,45,1.99E-04,9.8048,0.18262,1.84E-06,-6.2153,-0.0021207,17315,547.66,15.352,0.025504,198.93,162.91,3.4632,0.77735,49571314,1570,266.54,0.77127,0.77135,0.34822,0.2245,0.19855,0.027693,0.097831,3.81E-04,0,0,0,0,-0.0015565,0.027132,10.4,84.949,84.795,0.0030105,NaN,12.124,961.36,338.65,0.05,0.41758,809.53
3.3012,455.59,265.34,64.553,265.86,64.722,16.459,5.16E-04,16.459,0.0017946,16.623,4.6816,45,2.09E-04,9.8048,0.52945,2.21E-06,-4.8978,-3.68E-04,17269,502.37,15.315,0.025472,197.82,162.68,3.3788,0.78723,5.01E+07,1560.4,274.01,0.77377,0.77443,0.34764,0.22557,0.20056,0.082404,0.27943,3.22E-04,0,0,0,0,-9.43E-04,0.027471,10.4,84.949,85.078,0.0021288,NaN,12.039,959.82,338.59,0.05,0.42099,828.74
3.3512,468.94,268.57,63.363,269.1,63.486,17.296,6.14E-04,17.296,0.0020354,16.839,3.9389,45,2.20E-04,9.8048,0.63095,1.67E-06,-2.7234,2.79E-04,17224,457.07,15.278,0.02544,197.55,162.45,3.3744,0.7968,50686774,1542.9,281.24,0.77623,0.77717,0.34708,0.22661,0.20254,0.098999,0.33452,-1.65E-05,0,0,0,0,-2.85E-04,0.027805,10.4,84.949,85.27,0.0013967,NaN,11.952,958.25,338.54,0.05,0.42382,847.9
3.4012,482.45,271.74,58.388,272.27,58.459,18.142,7.16E-04,18.142,0.0022598,17.016,2.875,45,2.31E-04,9.8047,0.77435,1.07E-06,-0.0019872,-1.08E-04,17182,414.84,15.243,0.02541,197.14,162.24,3.3564,0.80642,51233976,1460.6,288.7,0.77873,0.78014,0.34651,0.22768,0.20454,0.12284,0.41249,8.21E-05,0,0,0,0,0,0.028133,10.4,84.949,85.341,9.62E-04,NaN,11.864,956.67,338.49,0.05,0.42793,866.83
3.4512,496.11,274.65,52.509,275.19,52.572,18.997,8.18E-04,18.997,0.0024685,17.161,2.5586,45,2.42E-04,9.8047,0.7358,1.63E-06,3.0093,0.0012416,17147,379.81,15.214,0.025386,197.32,162.06,3.3903,0.81525,51728996,1363.9,295.39,0.78105,0.78233,0.34598,0.22867,0.2064,0.1165,0.395,-2.38E-04,0,0,0,0,3.32E-04,0.028434,10.4,84.949,85.266,0.0011298,NaN,11.775,955.07,338.43,0.05,0.43099,884.31
3.5012,509.9,277.27,46.554,277.81,46.687,19.859,9.23E-04,19.859,0.0026631,17.323,3.52,45,2.53E-04,9.8046,0.38226,1.57E-06,5.2922,0.0015714,17116,348.92,15.189,0.025364,198.51,161.9,3.5205,0.82297,52154201,1267.3,300.94,0.78311,0.78346,0.34551,0.22955,0.20805,0.059059,0.20659,6.47E-05,0,0,0,0,0.0010084,0.028705,10.4,84.949,85.052,0.0016057,NaN,11.686,953.5,338.38,0.05,0.43994,900.07
3.5512,523.83,279.59,40.581,280.14,40.84,20.73,0.00103,20.73,0.0028469,17.539,4.5927,45,2.64E-04,9.8046,5.89E-04,1.50E-06,-5.8952,1.482,17085,318.04,15.163,0.025342,199.86,161.74,3.6659,0.82987,52527101,1170.6,306.09,0.78496,0.78496,0.34509,0.23034,0.20953,8.85E-05,0.0016422,3.69E-05,0,0,0,0,-0.001231,0.028946,10.4,84.949,84.762,0.0032918,NaN,11.595,951.95,338.33,0.05,0.44349,914.02
3.6012,537.86,281.62,34.63,282.18,35.033,21.613,0.0011411,21.613,0.0030249,17.8,5.2988,45,2.75E-04,9.8045,0.2866,1.41E-06,-5.4372,0.0042017,17054,287.15,15.137,0.025321,198.91,161.58,3.5897,0.83602,52850933,1073.9,310.87,0.78662,0.78682,0.34471,0.23106,0.21086,0.044028,0.15871,-4.41E-04,0,0,0,0,-0.0010321,0.029158,10.4,84.949,84.469,0.0053765,NaN,11.504,950.38,338.27,0.05,0.44748,926.12
3.6512,551.98,283.34,28.725,283.92,29.263,22.51,0.0012584,22.51,0.003203,18.088,5.5862,45,2.86E-04,9.8045,0.46976,1.54E-06,-3.7629,0.0014016,17023,256.26,15.111,0.025299,198.33,161.42,3.5494,0.84135,53121611,977.25,315.04,0.78808,0.78861,0.34438,0.23168,0.21202,0.073162,0.2603,7.25E-05,0,0,0,0,-4.88E-04,0.029339,10.4,84.949,84.235,0.007604,NaN,11.412,948.8,338.21,0.05,0.45124,936.33
3.7012,566.18,284.77,22.847,285.37,23.582,23.422,0.0013842,23.422,0.003386,18.391,5.8407,45,2.98E-04,9.8045,0.6639,1.38E-06,-1.2182,0.0025989,16992,225.37,15.085,0.025277,197.72,161.25,3.5068,0.84565,53326072,880.58,318.42,0.78926,0.79031,0.34411,0.23218,0.21297,0.10488,0.36829,-2.94E-05,0,0,0,0,-5.07E-05,0.02949,10.4,84.949,84.107,0.0092378,NaN,11.32,947.21,338.16,0.05,0.46653,944.63
3.7512,580.45,285.92,17.101,286.52,17.861,24.349,0.00152,24.349,0.0035768,18.684,5.153,45,3.10E-04,9.8044,0.63607,1.78E-06,1.7309,0.0038461,16961,194.49,15.059,0.025255,197.84,161.09,3.5331,0.8492,53482134,783.92,320.92,0.79024,0.79121,0.34388,0.2326,0.21375,0.10032,0.35412,2.38E-04,0,0,0,0,1.01E-04,0.029611,10.4,84.949,84.121,0.010794,NaN,11.227,945.62,338.1,0.05,0.47193,951.02
3.8012,594.77,286.77,11.761,287.4,12.292,25.289,0.0016671,25.289,0.0037771,18.917,3.5712,45,3.22E-04,9.8044,0.38322,1.55E-06,4.0722,0.004241,16931,163.6,15.033,0.025234,198.68,160.93,3.6302,0.85203,53592116,692,322.58,0.79102,0.79138,0.34371,0.23294,0.21437,0.059376,0.21512,-4.79E-04,0,0,0,0,5.58E-04,0.029702,10.4,84.949,84.27,0.011397,NaN,11.134,944.02,338.05,0.05,0.47503,955.5
3.8512,609.12,287.36,8.7724,288,8.9445,26.239,0.0018252,26.239,0.0039855,19.058,1.7458,45,3.34E-04,9.8043,0.0034512,1.31E-06,-4.908,0.56828,16903,135.71,15.009,0.025214,200,160.78,3.7712,0.85415,53656731,639.19,323.73,0.79161,0.79161,0.34357,0.23319,0.21484,5.20E-04,0.0028935,-1.35E-04,0,0,0,0,-8.07E-04,0.029764,10.4,84.949,84.503,0.010874,NaN,11.041,942.42,337.99,0.05,0.47767,958.18
3.9012,623.5,287.8,6.2343,288.44,6.2604,27.193,0.0019925,27.193,0.004198,19.121,0.57059,45,3.46E-04,9.8043,0.2346,1.56E-06,-4.3676,0.0070669,16882,114.89,14.991,0.025199,199.21,160.67,3.7055,0.85559,53678512,595.07,324.49,0.79201,0.79215,0.34348,0.23337,0.21517,0.035972,0.13392,3.46E-04,0,0,0,0,-6.37E-04,0.029811,10.4,84.949,84.74,0.0092589,NaN,10.947,940.81,337.93,0.05,0.48048,959.81
3.9512,637.9,288.12,3.6677,288.75,3.674,28.15,0.0021668,28.15,0.0044103,19.135,0.21505,45,3.58E-04,9.8042,0.36583,2.28E-06,-2.9524,0.0029785,16865,98.131,14.977,0.025188,198.77,160.58,3.672,0.85659,53671836,550.95,324.88,0.79229,0.79261,0.34342,0.23349,0.21539,0.056635,0.20824,-3.60E-04,0,0,0,0,-2.91E-04,0.029843,10.4,84.949,84.925,0.0075167,NaN,10.854,939.2,337.88,0.05,0.48362,960.57
4.0012,652.31,288.3,0.84957,288.94,1.6342,29.106,0.0023461,29.106,0.0046183,19.099,1.396,45,3.70E-04,9.8042,0.5968,2.00E-06,-0.66321,0.0023378,16848,81.489,14.962,0.025176,198.01,160.49,3.6078,0.85748,53658316,502.18,325.32,0.79254,0.7934,0.34336,0.23359,0.21559,0.093937,0.33867,4.87E-04,0,0,0,0,-1.46E-05,0.029861,10.4,84.949,85.02,0.0056504,NaN,10.76,937.59,337.82,0.05,0.48856,960.45
4.0512,666.73,288.35,-2.2677,288.97,2.7443,30.059,0.0025286,30.059,0.0048197,19.03,1.5456,45,3.82E-04,9.8041,0.56764,2.56E-06,2.0944,0.0016315,16837,69.556,14.952,0.025168,198.11,160.43,3.6233,0.85777,53606523,449.18,324.97,0.79262,0.7934,0.34334,0.23363,0.21565,0.089166,0.32243,4.52E-04,0,0,0,0,1.46E-04,0.029865,10.4,84.949,84.984,0.0047216,NaN,10.666,935.98,337.76,0.05,0.49262,959.38
4.1012,681.14,288.23,-5.4262,288.86,5.4796,31.009,0.0027132,31.009,0.0050133,18.978,0.76285,45,3.94E-04,9.8041,0.30081,2.26E-06,4.1426,0.0035755,16829,62.215,14.946,0.025162,198.99,160.39,3.712,0.85742,53515260,396.18,323.88,0.79252,0.79274,0.34336,0.23358,0.21557,0.046356,0.1715,2.75E-04,0,0,0,0,5.72E-04,0.029853,10.4,84.949,84.823,0.0046775,NaN,10.573,934.37,337.71,0.05,0.49583,957.27
4.1512,695.54,287.96,-8.5667,288.59,8.5688,31.957,0.0029001,31.957,0.0051995,18.961,0.18648,45,4.06E-04,9.8041,0.074389,1.89E-06,5.0226,0.014954,16822,54.874,14.94,0.025157,199.77,160.35,3.7902,0.85677,53405000,343.18,322.67,0.79234,0.79235,0.34341,0.23351,0.21543,0.011275,0.042313,2.28E-05,0,0,0,0,8.42E-04,0.029824,10.4,84.949,84.589,0.0052128,NaN,10.479,932.76,337.65,0.05,0.50005,954.14
4.2012,709.93,287.53,-11.677,288.16,11.677,32.906,0.0030897,32.906,0.0053799,18.967,0.1056,45,4.19E-04,9.804,0.087241,1.90E-06,-4.9901,0.010566,16815,47.533,14.933,0.025152,199.72,160.31,3.7891,0.85577,53273522,290.18,321.25,0.79206,0.79208,0.34347,0.23339,0.2152,0.013234,0.050947,-3.86E-04,0,0,0,0,-8.33E-04,0.029781,10.4,84.949,84.336,0.0064447,NaN,10.385,931.15,337.59,0.05,0.50654,949.99
4.2512,724.29,286.95,-14.817,287.58,14.843,33.854,0.0032832,33.854,0.0055565,19.001,0.88249,45,4.31E-04,9.804,0.38234,2.33E-06,-3.872,0.0033049,16807,40.192,14.927,0.025147,198.7,160.27,3.695,0.85408,53098913,237.18,319.37,0.79159,0.79194,0.34358,0.23318,0.21483,0.059246,0.21912,-4.86E-04,0,0,0,0,-5.04E-04,0.029721,10.4,84.949,84.109,0.0083115,NaN,10.292,929.55,337.54,0.05,0.50964,944.85
4.3012,738.62,286.21,-17.907,286.84,17.954,34.806,0.0034822,34.806,0.0057323,19.065,1.2999,45,4.43E-04,9.8039,0.58008,2.84E-06,-1.6124,0.0038857,16800,32.851,14.921,0.025142,198.03,160.23,3.6348,0.85194,52896869,184.18,317.17,0.79099,0.7918,0.34371,0.23293,0.21435,0.091148,0.33115,-3.49E-04,0,0,0,0,-8.78E-05,0.029646,10.4,84.949,83.968,0.010561,NaN,10.199,927.95,337.48,0.05,0.51251,938.72
4.3512,752.91,285.32,-20.88,285.96,20.899,35.761,0.0036887,35.761,0.00591,19.13,0.88018,45,4.55E-04,9.8039,0.55772,2.20E-06,1.0281,0.0039438,16792,25.51,14.914,0.025137,198.09,160.19,3.6442,0.84948,52675515,131.18,314.5,0.79031,0.79106,0.34387,0.23264,0.21381,0.087475,0.31888,-1.49E-04,0,0,0,0,3.59E-05,0.029555,10.4,84.949,83.954,0.012519,NaN,10.106,926.35,337.42,0.05,0.5157,931.64
4.4012,767.15,284.28,-23.778,284.93,23.778,36.718,0.0039038,36.718,0.0060916,19.162,0.013021,45,4.67E-04,9.8038,0.40807,1.93E-06,3.2477,0.0049712,16785,18.169,14.908,0.025131,198.57,160.15,3.6937,0.84658,52427910,78.175,311.37,0.78951,0.78992,0.34405,0.23229,0.21317,0.063305,0.23323,3.49E-04,0,0,0,0,3.61E-04,0.029449,10.4,84.949,84.064,0.013774,NaN,10.014,924.76,337.37,0.05,0.5185,923.63
4.4512,781.34,283.1,-26.667,283.74,26.677,37.676,0.0041279,37.676,0.0062775,19.154,0.71342,45,4.79E-04,9.8038,0.28068,1.64E-06,4.8275,0.0076019,16778,10.828,14.902,0.025126,198.97,160.11,3.7366,0.84309,52143988,25.192,307.82,0.78855,0.78875,0.34427,0.23188,0.2124,0.04313,0.16059,1.74E-04,0,0,0,0,8.05E-04,0.029328,10.4,84.949,84.268,0.014041,NaN,9.9213,923.18,337.31,0.05,0.52179,914.72
4.5012,795.46,281.77,-27.829,282.42,27.908,38.633,0.0043602,38.633,0.0064666,19.087,2.0966,45,4.91E-04,9.8038,0.097093,1.47E-06,-5.2309,0.022439,16771,3.5788,14.895,0.025121,199.58,160.07,3.7989,0.83945,51851768,0,304.2,0.78756,0.78758,0.34449,0.23146,0.21161,0.014715,0.056586,4.51E-04,0,0,0,0,-9.53E-04,0.029191,10.4,84.949,84.526,0.013947,NaN,9.8295,921.6,337.26,0.05,0.52534,904.93
4.5512,809.51,280.39,-27.54,281.03,27.693,39.584,0.0045996,39.584,0.0066578,18.961,2.9057,45,5.03E-04,9.8037,0.35468,1.75E-06,-4.2033,0.0062236,16767,0,14.892,0.025119,198.68,160.05,3.7138,0.83549,5.15E+07,0,300.51,0.78648,0.78678,0.34474,0.23099,0.21075,0.054753,0.20391,-6.17E-05,0,0,0,0,-6.22E-04,0.029047,10.4,84.949,84.767,0.01306,NaN,9.7382,920.03,337.2,0.05,0.52822,894.81
4.6012,823.5,279.02,-27.291,279.65,27.484,40.528,0.0048447,40.528,0.0068492,18.806,3.2463,45,5.15E-04,9.8037,0.47373,1.17E-06,-2.3679,0.0045867,16767,0,14.892,0.025119,198.26,160.05,3.6734,0.83147,51226766,0,296.8,0.78539,0.78593,0.34499,0.23053,0.20988,0.073732,0.27089,3.34E-04,0,0,0,0,-1.99E-04,0.028904,10.4,84.949,84.933,0.011092,NaN,9.6473,918.47,337.15,0.05,0.53128,884.83
4.6512,837.41,277.66,-27.069,278.28,27.266,41.464,0.0050937,41.464,0.0070386,18.641,3.2696,45,5.27E-04,9.8036,0.49664,9.06E-07,-0.24332,0.0026892,16767,0,14.892,0.025119,198.16,160.05,3.6639,0.8275,50916488,0,293.09,0.78432,0.78491,0.34523,0.23007,0.20902,0.077396,0.2834,1.57E-04,0,0,0,0,-2.12E-06,0.028762,10.4,84.949,84.999,0.0092499,NaN,9.5568,916.91,337.09,0.05,0.5341,875
4.7012,851.26,276.31,-26.899,276.93,27.014,42.393,0.0053451,42.393,0.0072242,18.497,2.4831,45,5.39E-04,9.8036,0.27994,4.74E-07,1.4183,0.003584,16767,0,14.892,0.025119,198.86,160.05,3.7311,0.82336,50597103,0,289.12,0.78321,0.7834,0.34549,0.2296,0.20813,0.042933,0.1606,2.66E-04,0,0,0,0,7.29E-05,0.028622,10.4,84.949,84.965,0.0077685,NaN,9.4668,915.36,337.04,0.05,0.53952,865.31
4.7512,865.04,274.97,-26.681,275.58,26.812,43.314,0.0055978,43.314,0.0074048,18.367,2.6468,45,5.51E-04,9.8035,0.32736,0,2.7223,0.0030444,16767,0,14.892,0.025119,198.68,160.05,3.7137,0.81971,50308126,0,285.74,0.78224,0.78249,0.34571,0.22918,0.20735,0.050361,0.18679,2.90E-04,0,0,0,0,2.71E-04,0.028482,10.4,84.949,84.863,0.0071744,NaN,9.3772,913.82,336.98,0.05,0.54241,855.76
4.8012,878.76,273.64,-26.528,274.25,26.595,44.23,0.0058515,44.23,0.0075802,18.254,1.8867,45,5.63E-04,9.8035,0.093973,0,3.6074,0.008182,16767,0,14.892,0.025119,199.45,160.05,3.7883,0.81578,50003170,0,282.07,0.78119,0.78121,0.34595,0.22873,0.20651,0.014207,0.053478,-4.47E-04,0,0,0,0,4.81E-04,0.028344,10.4,84.949,84.7,0.008197,NaN,9.2881,912.29,336.93,0.05,0.54739,846.33
4.8512,892.41,272.32,-26.389,272.92,26.413,45.14,0.0061069,45.14,0.0077514,18.179,1.1384,45,5.74E-04,9.8035,0.14818,3.40E-07,-3.4833,0.0083192,16767,0,14.892,0.025119,199.24,160.05,3.7681,0.81188,49701260,0,278.56,0.78016,0.78022,0.34618,0.22829,0.20569,0.022484,0.084868,2.72E-04,0,0,0,0,-4.53E-04,0.028207,10.4,84.949,84.519,0.010067,NaN,9.1993,910.77,336.87,0.05,0.55326,837.04
4.9012,905.99,271,-26.215,271.61,26.231,46.048,0.0063654,46.048,0.0079202,18.128,0.89856,45,5.86E-04,9.8034,0.23187,6.37E-07,-2.6939,0.0031462,16767,0,14.892,0.025119,198.93,160.05,3.7384,0.80818,49412321,0,275.25,0.77919,0.77932,0.3464,0.22788,0.20491,0.035387,0.13238,8.03E-05,0,0,0,0,-2.73E-04,0.028072,10.4,84.949,84.363,0.012411,NaN,9.1111,909.25,336.82,0.05,0.55826,827.86
4.9512,919.51,269.7,-26.017,270.3,26.035,46.953,0.0066287,46.953,0.0080888,18.082,0.9562,45,5.97E-04,9.8034,0.22034,6.23E-07,-1.7795,0.002332,16767,0,14.892,0.025119,198.95,160.05,3.7403,0.80458,4.91E+07,0,272.01,0.77825,0.77837,0.34662,0.22748,0.20416,0.033588,0.12581,1.93E-04,0,0,0,0,-1.20E-04,0.027937,10.4,84.949,84.252,0.014587,NaN,9.0232,907.74,336.77,0.05,0.56145,818.81
5.0012,932.96,268.4,-25.873,269.01,25.877,47.856,0.0068983,47.856,0.0082589,18.049,0.40857,45,6.09E-04,9.8033,0.3923,8.28E-07,-0.53787,0.0016673,16767,0,14.892,0.025119,198.35,160.05,3.6824,0.80069,48830746,0,268.68,0.77724,0.7776,0.34685,0.22704,0.20334,0.060531,0.22256,-2.54E-04,0,0,0,0,-1.11E-05,0.027803,10.4,84.949,84.191,0.016319,NaN,8.9358,906.24,336.71,0.05,0.56527,809.89
5.0512,946.35,267.11,-25.632,267.72,25.648,48.758,0.0071752,48.758,0.0084316,18.017,0.90671,45,6.20E-04,9.8033,0.23327,7.19E-07,0.70024,0.00102,16767,0,14.892,0.025119,198.87,160.05,3.732,0.79718,48555498,0,265.49,0.77633,0.77646,0.34706,0.22665,0.20261,0.035569,0.1329,1.20E-04,0,0,0,0,1.90E-05,0.027671,10.4,84.949,84.198,0.016944,NaN,8.8487,904.74,336.66,0.05,0.56838,801.08
5.1012,959.67,265.83,-25.421,266.44,25.444,49.658,0.0074595,49.658,0.0086068,17.967,1.0756,45,6.32E-04,9.8032,0.17013,9.44E-07,1.4893,0.0017691,16767,0,14.892,0.025119,199.06,160.05,3.7509,0.7935,48271126,0,262.28,0.77538,0.77545,0.34728,0.22625,0.20185,0.025813,0.096865,2.98E-04,0,0,0,0,8.68E-05,0.027539,10.4,84.949,84.253,0.016427,NaN,8.7621,903.25,336.61,0.05,0.57409,792.39
5.1512,972.93,264.57,-25.238,265.17,25.256,50.555,0.0077504,50.555,0.0087838,17.918,0.93126,45,6.43E-04,9.8032,0.20477,9.89E-07,2.2226,-0.0015934,16767,0,14.892,0.025119,198.92,160.05,3.7374,0.78967,47978354,0,259.01,0.7744,0.7745,0.3475,0.22583,0.20107,0.031136,0.11643,-4.41E-04,0,0,0,0,1.95E-04,0.027408,10.4,84.949,84.346,0.015194,NaN,8.6759,901.77,336.56,0.05,0.57803,783.83
5.2012,986.13,263.31,-25.008,263.92,25.046,51.449,0.0080467,51.449,0.0089611,17.86,1.3844,45,6.54E-04,9.8032,0.038441,1.03E-06,2.6841,9.88E-04,16767,0,14.892,0.025119,199.48,160.05,3.791,0.7861,47701750,0,255.91,0.77349,0.77349,0.34771,0.22544,0.20033,0.005772,0.021987,5.29E-05,0,0,0,0,2.87E-04,0.027278,10.4,84.949,84.471,0.013891,NaN,8.5902,900.3,336.5,0.05,0.58664,775.38
5.2512,999.26,262.07,-24.806,262.67,24.854,52.34,0.008347,52.34,0.0091373,17.787,1.5487,45,6.66E-04,9.8031,0.03582,1.03E-06,-2.6942,-0.0049571,16767,0,14.892,0.025119,199.47,160.05,3.7899,0.78242,4.74E+07,0,252.8,0.77255,0.77256,0.34792,0.22505,0.19958,0.0053758,0.020205,6.69E-05,0,0,0,0,-2.92E-04,0.02715,10.4,84.949,84.607,0.013035,NaN,8.5048,898.83,336.45,0.05,0.58887,767.05
5.3012,1012.3,260.83,-24.579,261.43,24.675,53.228,0.0086505,53.228,0.0093117,17.693,2.1771,45,6.77E-04,9.8031,0.26608,1.08E-06,-2.12,-5.41E-04,16767,0,14.892,0.025119,198.66,160.05,3.7118,0.77899,47156902,0,249.98,0.77169,0.77185,0.34812,0.22468,0.19889,0.040603,0.15104,2.15E-05,0,0,0,0,-1.83E-04,0.027021,10.4,84.949,84.73,0.012721,NaN,8.4198,897.43,336.4,0.05,0.59132,758.88
5.3512,1025.3,259.61,-24.397,260.2,24.5,54.109,0.0089566,54.109,0.009484,17.582,2.2423,45,6.88E-04,9.803,0.30334,1.40E-06,-1.0658,3.36E-04,16767,0,14.892,0.025119,198.51,160.05,3.6978,0.7754,46884992,0,247.02,0.77078,0.771,0.34833,0.22429,0.19816,0.0464,0.17156,-4.91E-04,0,0,0,0,-4.66E-05,0.026894,10.4,84.949,84.811,0.012518,NaN,8.3352,896.05,336.35,0.05,0.5944,750.83
5.4012,1038.3,258.39,-24.224,258.98,24.327,54.986,0.0092648,54.986,0.009654,17.469,2.2384,45,6.99E-04,9.803,0.3128,1.40E-06,0.061392,0.0011063,16767,0,14.892,0.025119,198.46,160.05,3.6929,0.77187,46617470,0,244.12,0.7699,0.77013,0.34853,0.22392,0.19745,0.047866,0.17649,-7.96E-05,0,0,0,0,1.56E-07,0.026768,10.4,84.949,84.836,0.011738,NaN,8.2511,894.67,336.3,0.05,0.59719,742.88
5.4512,1051.2,257.19,-24.067,257.77,24.154,55.856,0.0095746,55.856,0.0098213,17.362,2.0511,45,7.10E-04,9.803,0.25455,1.24E-06,1.0775,5.16E-04,16767,0,14.892,0.025119,198.64,160.05,3.7101,0.76834,46351032,0,241.22,0.76902,0.76917,0.34873,0.22354,0.19674,0.038776,0.14388,4.56E-04,0,0,0,0,4.86E-05,0.026642,10.4,84.949,84.806,0.011537,NaN,8.1673,893.3,336.25,0.05,0.60033,735.04
5.5012,1064,255.99,-23.874,256.57,24.004,56.722,0.009886,56.722,0.009986,17.247,2.4928,45,7.21E-04,9.8029,0.40755,1.39E-06,2.278,7.66E-04,16767,0,14.892,0.025119,198.11,160.05,3.6591,0.76518,46107429,0,238.7,0.76824,0.76863,0.34891,0.22321,0.19611,0.062759,0.22915,-4.19E-04,0,0,0,0,2.19E-04,0.026518,10.4,84.949,84.725,0.012043,NaN,8.0839,891.94,336.2,0.05,0.64739,727.3
5.5512,1076.8,254.8,-23.803,255.37,23.833,57.582,0.010199,57.582,0.010148,17.155,1.205,45,7.32E-04,9.8029,0.053372,1.31E-06,-2.8862,0.014893,16767,0,14.892,0.025119,199.3,160.05,3.7733,0.76131,45821943,0,235.53,0.76728,0.76729,0.34913,0.2228,0.19535,0.0080054,0.030746,2.24E-04,0,0,0,0,-3.55E-04,0.026394,10.4,84.949,84.589,0.012404,NaN,8.0009,890.58,336.15,0.05,0.65092,719.65
5.6012,1089.5,253.61,-23.655,254.18,23.681,58.438,0.010514,58.438,0.010309,17.098,1.099,45,7.43E-04,9.8028,0.099602,1.30E-06,-2.6166,0.0060565,16767,0,14.892,0.025119,199.12,160.05,3.7561,0.758,4.56E+07,0,232.88,0.76647,0.76649,0.34932,0.22246,0.19469,0.014987,0.0564,2.56E-04,0,0,0,0,-2.95E-04,0.026272,10.4,84.949,84.451,0.013214,NaN,7.9183,889.23,336.1,0.05,0.65429,712.1
5.6512,1102.1,252.43,-23.52,253,23.536,59.292,0.010832,59.292,0.010467,17.049,0.86281,45,7.54E-04,9.8028,0.19223,1.21E-06,-2.1096,0.0028945,16767,0,14.892,0.025119,198.78,160.05,3.7237,0.75462,45315411,0,230.23,0.76564,0.76573,0.34951,0.22211,0.19403,0.029114,0.10901,7.25E-05,0,0,0,0,-1.93E-04,0.02615,10.4,84.949,84.331,0.014134,NaN,7.836,887.88,336.05,0.05,0.65717,704.64
5.7012,1114.7,251.26,-23.382,251.83,23.392,60.143,0.011153,60.143,0.010625,17.011,0.67701,45,7.65E-04,9.8028,0.26427,1.35E-06,-1.3263,0.0016677,16767,0,14.892,0.025119,198.52,160.05,3.6985,0.75124,45061474,0,227.61,0.76482,0.76499,0.34969,0.22176,0.19337,0.040227,0.14891,3.13E-04,0,0,0,0,-7.71E-05,0.026029,10.4,84.949,84.244,0.015032,NaN,7.7542,886.54,336,0.05,0.65981,697.28
5.7512,1127.3,250.09,-23.233,250.67,23.241,60.993,0.011478,60.993,0.010782,16.979,0.62557,45,7.76E-04,9.8027,0.28399,1.64E-06,-0.39628,0.0012464,16767,0,14.892,0.025119,198.43,160.05,3.6904,0.74789,4.48E+07,0,225.02,0.76401,0.7642,0.34988,0.22142,0.19272,0.043279,0.15956,2.72E-05,0,0,0,0,-6.95E-06,0.025909,10.4,84.949,84.201,0.015553,NaN,7.6727,885.21,335.95,0.05,0.66147,690
5.8012,1139.7,248.93,-23.045,249.51,23.066,61.841,0.011807,61.841,0.010939,16.939,0.99877,45,7.87E-04,9.8027,0.14103,1.48E-06,0.31073,0.0015405,16767,0,14.892,0.025119,198.91,160.05,3.7359,0.74473,4.46E+07,0,222.51,0.76325,0.76329,0.35006,0.22109,0.1921,0.021262,0.079889,-1.69E-04,0,0,0,0,4.31E-06,0.02579,10.4,84.949,84.201,0.016266,NaN,7.5916,883.88,335.9,0.05,0.66381,682.82
5.8512,1152.2,247.79,-22.877,248.36,22.907,62.686,0.01214,62.686,0.011096,16.884,1.1657,45,7.97E-04,9.8027,0.070051,1.47E-06,0.65919,0.0030424,16767,0,14.892,0.025119,199.14,160.05,3.758,0.74146,44324279,0,220,0.76246,0.76248,0.35024,0.22076,0.19147,0.010503,0.03955,-1.36E-04,0,0,0,0,1.96E-05,0.025671,10.4,84.949,84.226,0.016957,NaN,7.5109,882.56,335.85,0.05,0.66727,675.73
5.9012,1164.5,246.65,-22.722,247.22,22.754,63.529,0.012477,63.529,0.011253,16.825,1.1968,45,8.08E-04,9.8026,0.049239,1.46E-06,0.85173,0.0032465,16767,0,14.892,0.025119,199.19,160.05,3.7634,0.73813,44075887,0,217.47,0.76167,0.76168,0.35042,0.22042,0.19083,0.0073689,0.027743,-4.14E-04,0,0,0,0,3.30E-05,0.025553,10.4,84.949,84.264,0.017521,NaN,7.4306,881.24,335.8,0.05,0.67058,668.72
5.9512,1176.8,245.51,-22.583,246.09,22.608,64.369,0.012819,64.369,0.011411,16.769,1.0684,45,8.19E-04,9.8026,0.09037,1.48E-06,1.0795,0.0010015,16767,0,14.892,0.025119,199.03,160.05,3.748,0.73474,43823965,0,214.93,0.76086,0.76088,0.3506,0.22008,0.19018,0.013562,0.050431,-2.72E-04,0,0,0,0,5.35E-05,0.025436,10.4,84.949,84.312,0.017659,NaN,7.3506,879.94,335.75,0.05,0.67335,661.81
6.0012,1189.1,244.39,-22.423,244.96,22.455,65.206,0.013166,65.206,0.011568,16.712,1.1975,45,8.29E-04,9.8025,0.028497,1.43E-06,1.2687,0.0039603,16767,0,14.892,0.025119,199.23,160.05,3.7672,0.73148,43580852,0,212.49,0.76009,0.76009,0.35078,0.21975,0.18956,0.0042558,0.016041,-6.73E-05,0,0,0,0,7.45E-05,0.02532,10.4,84.949,84.372,0.017559,NaN,7.271,878.63,335.71,0.05,0.67612,654.98
6.0512,1201.3,243.27,-22.275,243.84,22.308,66.04,0.013516,66.04,0.011726,16.652,1.2244,45,8.40E-04,9.8025,0.0061998,1.44E-06,1.3285,0.0123,16767,0,14.892,0.025119,199.3,160.05,3.7732,0.72818,43336295,0,210.06,0.75932,0.75932,0.35096,0.21943,0.18893,9.24E-04,0.0029135,-9.90E-05,0,0,0,0,8.25E-05,0.025204,10.4,84.949,84.437,0.017646,NaN,7.1917,877.34,335.66,0.05,0.67803,648.23
6.1012,1213.4,242.16,-22.102,242.73,22.16,66.871,0.01387,66.871,0.011884,16.581,1.6098,45,8.50E-04,9.8025,0.16189,1.38E-06,-1.0795,3.25E-04,16767,0,14.892,0.025119,198.74,160.05,3.7197,0.7251,43104715,0,207.79,0.75859,0.75866,0.35113,0.21912,0.18835,0.024405,0.090772,8.13E-05,0,0,0,0,-5.49E-05,0.025089,10.4,84.949,84.499,0.017584,NaN,7.1129,876.05,335.61,0.05,0.67976,641.57
6.1512,1225.5,241.06,-21.963,241.62,22.02,67.698,0.014227,67.698,0.012041,16.501,1.587,45,8.61E-04,9.8024,0.16346,1.37E-06,-0.57589,-0.0010403,16767,0,14.892,0.025119,198.72,160.05,3.7177,0.72185,42864241,0,205.43,0.75784,0.7579,0.3513,0.2188,0.18774,0.024639,0.091431,2.13E-04,0,0,0,0,-1.58E-05,0.024975,10.4,84.949,84.541,0.018065,NaN,7.0343,874.76,335.56,0.05,0.68141,634.99
6.2012,1237.5,239.97,-21.83,240.53,21.882,68.521,0.014588,68.521,0.012198,16.423,1.5108,45,8.71E-04,9.8024,0.14075,1.41E-06,-0.11494,8.69E-05,16767,0,14.892,0.025119,198.78,160.05,3.7237,0.71863,42625556,0,203.09,0.75709,0.75714,0.35147,0.21848,0.18713,0.021174,0.078845,2.68E-04,0,0,0,0,-6.35E-07,0.024862,10.4,84.949,84.557,0.018438,NaN,6.9562,873.48,335.51,0.05,0.68465,628.49
6.2512,1249.5,238.88,-21.682,239.44,21.748,69.34,0.014952,69.34,0.012355,16.343,1.6895,45,8.82E-04,9.8024,0.22088,1.44E-06,0.43322,-2.72E-04,16767,0,14.892,0.025119,198.49,160.05,3.6959,0.71558,42397899,0,200.91,0.75638,0.7565,0.35163,0.21818,0.18657,0.033419,0.12331,-4.04E-04,0,0,0,0,9.09E-06,0.024749,10.4,84.949,84.55,0.018461,NaN,6.8784,872.21,335.47,0.05,0.68806,622.07
6.3012,1261.4,237.8,-21.556,238.35,21.615,70.155,0.01532,70.155,0.012512,16.26,1.6042,45,8.92E-04,9.8023,0.18969,1.55E-06,1.0442,-2.34E-04,16767,0,14.892,0.025119,198.58,160.05,3.7048,0.71244,42166028,0,198.67,0.75566,0.75575,0.3518,0.21788,0.18599,0.028626,0.10625,3.21E-04,0,0,0,0,5.33E-05,0.024637,10.4,84.949,84.513,0.018342,NaN,6.8009,870.94,335.42,0.05,0.69114,615.72
6.3512,1273.3,236.72,-21.421,237.27,21.486,70.966,0.015691,70.966,0.012668,16.178,1.6698,45,9.03E-04,9.8023,0.2187,1.54E-06,1.6471,-0.0024691,16767,0,14.892,0.025119,198.47,160.05,3.6939,0.70944,41942410,0,196.54,0.75498,0.75509,0.35196,0.21759,0.18543,0.033068,0.12162,2.88E-04,0,0,0,0,1.34E-04,0.024525,10.4,84.949,84.446,0.018796,NaN,6.7238,869.68,335.37,0.05,0.69455,609.45
6.4012,1285.1,235.65,-21.285,236.2,21.361,71.773,0.016065,71.773,0.012825,16.091,1.7967,45,9.13E-04,9.8022,0.27119,1.67E-06,2.3631,-0.0031001,16767,0,14.892,0.025119,198.28,160.05,3.6755,0.70653,41724759,0,194.49,0.75431,0.75449,0.35211,0.21731,0.18489,0.041153,0.15092,1.18E-04,0,0,0,0,2.78E-04,0.024414,10.4,84.949,84.346,0.019589,NaN,6.647,868.42,335.33,0.05,0.69711,603.26
6.4512,1296.8,234.59,-21.164,235.14,21.236,72.575,0.016443,72.575,0.012981,16.002,1.7528,45,9.23E-04,9.8022,0.24874,1.76E-06,3.115,-0.0031601,16767,0,14.892,0.025119,198.34,160.05,3.6815,0.7036,41506043,0,192.43,0.75365,0.75379,0.35226,0.21703,0.18436,0.037675,0.13858,1.70E-04,0,0,0,0,4.87E-04,0.024304,10.4,84.949,84.209,0.019968,NaN,6.5706,867.17,335.28,0.05,0.7019,597.13
