# Time (s),Altitude (m),Vertical velocity (m/s),Vertical acceleration (m/s²),Total velocity (m/s),Total acceleration (m/s²),Position East of launch (m),Position North of launch (m),Lateral distance (m),Lateral direction (°),Lateral velocity (m/s),Lateral acceleration (m/s²),Latitude (°),Longitude (°),Gravitational acceleration (m/s²),Angle of attack (°),Roll rate (°/s),Pitch rate (°/s),Yaw rate (°/s),Mass (g),Propellant mass (g),Longitudinal moment of inertia (kg·m²),Rotational moment of inertia (kg·m²),CP location (cm),CG location (cm),Stability margin calibers (?),Mach number (?),Reynolds number (?),Thrust (N),Drag force (N),Drag coefficient (?),Axial drag coefficient (?),Friction drag coefficient (?),Pressure drag coefficient (?),Base drag coefficient (?),Normal force coefficient (?),Pitch moment coefficient (?),Yaw moment coefficient (?),Side force coefficient (?),Roll moment coefficient (?),Roll forcing coefficient (?),Roll damping coefficient (?),Pitch damping coefficient (?),Coriolis acceleration (m/s²),Reference length (cm),Reference area (cm²),Vertical orientation (zenith) (°),Lateral orientation (azimuth) (°),Wind velocity (m/s),Air temperature (°C),Air pressure (mbar),Speed of sound (m/s),Simulation time step (s),Computation time (s),Dynamic Pressure (mbar)
0,0,0,25.393,0,25.393,0,0,0,0,0,0,28.61,-80.6,9.7884,90,0,0,0,18166,2663.3,13.153,0.028562,NaN,158.95,NaN,0.0059244,332098,639.11,0,0.81944,0,0.59469,0.10474,0.12,NaN,NaN,NaN,NaN,NaN,NaN,NaN,NaN,0,10.3,83.323,90,0,NaN,23.957,995.71,345.82,0.01,0.0043066,0
0.01,0.0012697,0.25393,93.967,0.25393,93.967,0,0,0,0,0,0,28.61,-80.6,9.7884,82.975,0,0,0,18166,2663.3,13.153,0.028562,NaN,158.95,NaN,0.0060041,336567,1884.8,7.37E-05,0.81767,0.0035156,0.59293,0.10474,0.12,NaN,NaN,NaN,NaN,NaN,NaN,NaN,NaN,3.25E-05,10.3,83.323,90,0,NaN,23.957,995.71,345.82,0.01,0.010904,7.53E-04
0.02,0.0085085,1.1939,103.88,1.1939,103.88,0,0,0,0,0,0,28.61,-80.6,9.7884,60.058,0,0,0,18160,2657.3,13.15,0.028558,NaN,158.93,NaN,0.0069168,387733,2064.3,0.0055272,0.79944,0.19861,0.5747,0.10474,0.12001,NaN,NaN,NaN,NaN,NaN,NaN,NaN,NaN,1.53E-04,10.3,83.323,90,0,NaN,23.957,995.7,345.82,0.01,0.012411,0.016641
0.03,0.025643,2.2331,97.966,2.2331,97.966,0,0,0,0,0,0,28.61,-80.6,9.7884,43.031,0,0,0,18152,2649.1,13.146,0.028552,NaN,158.9,NaN,0.0088341,495206,1956,0.025047,0.76986,0.55175,0.54511,0.10474,0.12001,NaN,NaN,NaN,NaN,NaN,NaN,NaN,NaN,2.86E-04,10.3,83.323,90,0,NaN,23.957,995.7,345.82,0.01,0.013935,0.058223
0.04,0.052875,3.2133,98.266,3.2133,98.266,0,0,0,0,0,0,28.61,-80.6,9.7884,33.125,0,0,0,18142,2639.4,13.141,0.028545,NaN,158.87,NaN,0.011095,621941,1960.4,0.05448,0.74431,0.76086,0.51955,0.10474,0.12002,NaN,NaN,NaN,NaN,NaN,NaN,NaN,NaN,4.11E-04,10.3,83.323,90,0,NaN,23.956,995.7,345.82,0.01,0.015414,0.12055
0.05,0.089923,4.1964,98.564,4.1964,98.564,0,0,0,0,0,0,28.61,-80.6,9.7884,26.679,0,0,0,18133,2629.9,13.137,0.028538,NaN,158.83,NaN,0.013581,761276,1964.8,0.091999,0.72313,0.85756,0.49836,0.10475,0.12002,NaN,NaN,NaN,NaN,NaN,NaN,NaN,NaN,5.37E-04,10.3,83.323,90,0,NaN,23.956,995.7,345.82,0.01,0.017226,0.20559
0.06,0.13682,5.1825,98.862,5.1825,98.862,0,0,0,0,0,0,28.61,-80.6,9.7884,22.18,0,0,0,18123,2620.4,13.132,0.028532,NaN,158.79,NaN,0.016184,907199,1969.2,0.13595,0.70578,0.89235,0.481,0.10475,0.12003,NaN,NaN,NaN,NaN,NaN,NaN,NaN,NaN,6.64E-04,10.3,83.323,90,0,NaN,23.956,995.7,345.82,0.01,0.018816,0.31357
0.07,0.19359,6.1716,99.16,6.1716,99.16,0,0,0,0,0,0,28.61,-80.6,9.7884,18.933,0,0,0,18114,2611,13.127,0.028525,NaN,158.76,NaN,0.018867,1057613,1973.6,0.18534,0.69135,0.89511,0.46655,0.10475,0.12005,NaN,NaN,NaN,NaN,NaN,NaN,NaN,NaN,7.90E-04,10.3,83.323,90,0,NaN,23.956,995.69,345.82,0.01,0.020398,0.44468
0.08,0.26026,7.1636,99.457,7.1636,99.457,0,0,0,0,0,0,28.61,-80.6,9.7884,16.494,0,0,0,18104,2601.5,13.123,0.028518,NaN,158.72,NaN,0.021604,1211035,1978,0.23955,0.67914,0.88235,0.45432,0.10476,0.12006,NaN,NaN,NaN,NaN,NaN,NaN,NaN,NaN,9.17E-04,10.3,83.323,90,0,NaN,23.956,995.69,345.82,0.01,0.02206,0.59913
0.09,0.33687,8.1587,99.756,8.1587,99.756,0,0,0,0,0,0,28.61,-80.6,9.7884,14.601,0,0,0,18095,2592.1,13.118,0.028512,NaN,158.69,NaN,0.02438,1366624,1982.5,0.29677,0.66865,0.85839,0.44381,0.10477,0.12008,NaN,NaN,NaN,NaN,NaN,NaN,NaN,NaN,0.0010446,10.3,83.323,90,0,NaN,23.955,995.69,345.82,0.01,0.023614,0.77713
0.1,0.42345,9.1567,100.05,9.1567,100.05,0,0,0,0,0,0,28.61,-80.6,9.7884,13.092,0,0,0,18085,2582.6,13.113,0.028505,NaN,158.65,NaN,0.027185,1523869,1986.9,0.35714,0.65952,0.83081,0.43465,0.10477,0.1201,NaN,NaN,NaN,NaN,NaN,NaN,NaN,NaN,0.0011724,10.3,83.323,90,0,NaN,23.955,995.68,345.82,0.01,0.025251,0.97888
0.11,0.52002,10.158,100.35,10.158,100.35,0,0,0,0,0,0,28.61,-80.6,9.7884,11.848,0,0,0,18076,2573.2,13.109,0.028499,NaN,158.62,NaN,0.030013,1682356,1991.3,0.42121,0.65146,0.80394,0.42657,0.10478,0.12012,NaN,NaN,NaN,NaN,NaN,NaN,NaN,NaN,0.0013005,10.3,83.323,90,0,NaN,23.954,995.67,345.82,0.01,0.026806,1.2046
0.12,0.62662,11.162,100.65,11.162,100.65,0,0,0,0,0,0,28.61,-80.6,9.7884,10.816,0,0,0,18066,2563.7,13.104,0.028492,NaN,158.58,NaN,0.03286,1841973,1995.7,0.48955,0.64429,0.77946,0.41936,0.10479,0.12014,NaN,NaN,NaN,NaN,NaN,NaN,NaN,NaN,0.0014291,10.3,83.323,90,0,NaN,23.954,995.67,345.82,0.01,0.028544,1.4545
0.13,0.74327,12.169,100.95,12.169,100.95,0,0,0,0,0,0,28.61,-80.6,9.7884,9.9468,0,0,0,18057,2554.3,13.099,0.028485,NaN,158.55,NaN,0.035725,2002567,2000.1,0.56248,0.63783,0.7577,0.41287,0.1048,0.12017,NaN,NaN,NaN,NaN,NaN,NaN,NaN,NaN,0.001558,10.3,83.323,90,0,NaN,23.954,995.66,345.81,0.01,0.030394,1.7287
0.14,0.87,13.179,101.25,13.179,101.25,0,0,0,0,0,0,28.61,-80.6,9.7884,9.2045,0,0,0,18047,2544.8,13.094,0.028479,NaN,158.51,NaN,0.038606,2164029,2004.6,0.64024,0.63198,0.73854,0.40698,0.10481,0.12019,NaN,NaN,NaN,NaN,NaN,NaN,NaN,NaN,0.0016873,10.3,83.323,90,0,NaN,23.953,995.65,345.81,0.01,0.032032,2.0276
0.15,1.0069,14.192,101.52,14.192,101.52,0,0,0,0,0,0,28.61,-80.6,9.7884,8.5636,0,0,0,18038,2535.4,13.09,0.028472,NaN,158.47,NaN,0.041501,2326280,2008.6,0.72297,0.62665,0.7217,0.40161,0.10482,0.12022,NaN,NaN,NaN,NaN,NaN,NaN,NaN,NaN,0.001817,10.3,83.323,90,0,NaN,23.952,995.65,345.81,0.01,0.033705,2.3512
0.16,1.1538,15.207,101.67,15.207,101.67,0,0,0,0,0,0,28.61,-80.6,9.7884,8.0166,0,0,0,18028,2525.8,13.085,0.028465,NaN,158.44,NaN,0.044409,2489298,2010.2,0.81106,0.62175,0.70706,0.39666,0.10483,0.12026,NaN,NaN,NaN,NaN,NaN,NaN,NaN,NaN,0.0019471,10.3,83.323,90,0,NaN,23.952,995.64,345.81,0.01,0.035797,2.6998
0.17,1.311,16.224,101.79,16.224,101.79,0,0,0,0,0,0,28.61,-80.6,9.7884,7.5362,0,0,0,18019,2516.1,13.08,0.028458,NaN,158.4,NaN,0.047325,2652741,2011.3,0.90424,0.61723,0.69414,0.3921,0.10484,0.12029,NaN,NaN,NaN,NaN,NaN,NaN,NaN,NaN,0.0020773,10.3,83.323,90,0,NaN,23.951,995.63,345.81,0.01,0.037428,3.0731
0.18,1.4783,17.243,101.91,17.243,101.91,0,0,0,0,0,0,28.61,-80.6,9.7884,7.1111,0,0,0,18009,2506.2,13.075,0.028451,NaN,158.36,NaN,0.050248,2816541,2012.5,1.0025,0.61306,0.68268,0.38788,0.10485,0.12033,NaN,NaN,NaN,NaN,NaN,NaN,NaN,NaN,0.0022077,10.3,83.323,90,0,NaN,23.95,995.62,345.81,0.01,0.038842,3.4709
0.19,1.6559,18.262,102.03,18.262,102.03,0,0,0,0,0,0,28.61,-80.6,9.7884,6.7324,0,0,0,17999,2496.3,13.07,0.028445,NaN,158.33,NaN,0.053176,2980671,2013.7,1.106,0.60918,0.67246,0.38394,0.10487,0.12037,NaN,NaN,NaN,NaN,NaN,NaN,NaN,NaN,0.0023382,10.3,83.323,90,0,NaN,23.95,995.61,345.81,0.01,0.040428,3.8935
0.2,1.8436,19.283,102.15,19.283,102.15,0,0,0,0,0,0,28.61,-80.6,9.7884,6.3928,0,0,0,17989,2486.5,13.065,0.028438,NaN,158.29,NaN,0.05611,3145108,2014.8,1.2146,0.60556,0.6633,0.38027,0.10488,0.12041,NaN,NaN,NaN,NaN,NaN,NaN,NaN,NaN,0.0024689,10.3,83.323,90,0,NaN,23.949,995.6,345.81,0.01,0.042352,4.3408
0.21,2.0415,20.305,102.27,20.305,102.27,0,0,0,0,0,0,28.61,-80.6,9.7884,6.066,0,0,0,17979,2476.6,13.06,0.028431,NaN,158.25,NaN,0.059047,3309710,2016,1.3277,0.60217,0.65476,0.37682,0.10489,0.12045,NaN,NaN,NaN,NaN,NaN,NaN,NaN,NaN,0.0025997,10.3,83.323,90,0,NaN,23.948,995.59,345.81,0.01,0.043965,4.8131
0.22,2.2497,21.328,102.39,21.328,102.39,0,0,0,0,0,0,28.61,-80.6,9.7884,5.7699,0,0,0,17969,2466.8,13.055,0.028424,NaN,158.21,NaN,0.06199,3474599,2017.2,1.4461,0.59899,0.64704,0.37358,0.10491,0.1205,NaN,NaN,NaN,NaN,NaN,NaN,NaN,NaN,0.0027307,10.3,83.323,90,0,NaN,23.947,995.57,345.81,0.01,0.045005,5.3103
0.23,2.4681,22.352,102.51,22.352,102.51,0,0,0,0,0,0,28.61,-80.6,9.7883,5.5004,0,0,0,17960,2456.9,13.051,0.028417,NaN,158.18,NaN,0.064937,3639763,2018.4,1.5697,0.596,0.64004,0.37052,0.10493,0.12055,NaN,NaN,NaN,NaN,NaN,NaN,NaN,NaN,0.0028619,10.3,83.323,90,0,NaN,23.946,995.56,345.81,0.01,0.046,5.8326
0.24,2.6967,23.378,102.63,23.378,102.63,0,0,0,0,0,0,28.61,-80.6,9.7883,5.254,0,0,0,17950,2447.1,13.046,0.02841,NaN,158.14,NaN,0.067889,3805191,2019.5,1.6985,0.59318,0.63366,0.36763,0.10494,0.1206,NaN,NaN,NaN,NaN,NaN,NaN,NaN,NaN,0.0029932,10.3,83.323,90,0,NaN,23.945,995.55,345.81,0.01,0.047286,6.3801
0.25,2.9357,24.405,102.75,24.405,102.75,0,0,0,0,0,0,28.61,-80.6,9.7883,5.0278,0,0,0,17940,2437.2,13.041,0.028403,NaN,158.1,NaN,0.070846,3970873,2020.7,1.8326,0.5905,0.62782,0.36489,0.10496,0.12065,NaN,NaN,NaN,NaN,NaN,NaN,NaN,NaN,0.0031247,10.3,83.323,90,0,NaN,23.944,995.53,345.81,0.01,0.048849,6.9527
0.26,3.1848,25.433,102.87,25.433,102.87,0,0,0,0,0,0,28.61,-80.6,9.7883,4.8417,0,0,0,17930,2427.4,13.036,0.028396,NaN,158.06,NaN,0.073809,4136936,2021.9,1.973,0.58797,0.62274,0.36228,0.10498,0.12071,NaN,NaN,NaN,NaN,NaN,NaN,NaN,NaN,0.0032563,10.3,83.323,90,0,NaN,23.943,995.52,345.81,0.01,0.050293,7.5507
0.27,3.4443,26.462,102.99,26.462,102.99,0,0,0,0,0,0,28.61,-80.6,9.7883,4.6698,0,0,0,17920,2417.5,13.031,0.028389,NaN,158.02,NaN,0.076777,4303228,2023.1,2.1187,0.58556,0.61804,0.35979,0.105,0.12077,NaN,NaN,NaN,NaN,NaN,NaN,NaN,NaN,0.003388,10.3,83.323,90,0,NaN,23.942,995.5,345.81,0.01,0.051923,8.174
0.28,3.7141,27.492,103.11,27.492,103.11,0,0,0,0,0,0,28.61,-80.6,9.7883,4.5105,0,0,0,17910,2407.6,13.026,0.028382,NaN,157.99,NaN,0.079749,4469744,2024.2,2.2698,0.58327,0.61369,0.35742,0.10502,0.12083,NaN,NaN,NaN,NaN,NaN,NaN,NaN,NaN,0.00352,10.3,83.323,90,0,NaN,23.941,995.49,345.81,0.01,0.053493,8.8229
0.29,3.9942,28.524,103.22,28.524,103.22,0,0,0,0,0,0,28.61,-80.6,9.7883,4.3624,0,0,0,17900,2397.8,13.021,0.028375,NaN,157.95,NaN,0.082725,4636481,2025.4,2.4261,0.58109,0.60963,0.35515,0.10504,0.12089,NaN,NaN,NaN,NaN,NaN,NaN,NaN,NaN,0.003652,10.3,83.323,90,0,NaN,23.94,995.47,345.81,0.01,0.054963,9.4972
0.3,4.2846,29.557,103.34,29.557,103.34,0,0,0,0,0,0,28.61,-80.6,9.7883,4.2244,0,0,0,17891,2387.9,13.016,0.028368,NaN,157.91,NaN,0.085704,4803433,2026.6,2.5879,0.579,0.60585,0.35298,0.10507,0.12095,NaN,NaN,NaN,NaN,NaN,NaN,NaN,NaN,0.0037843,10.3,83.323,90,0,NaN,23.938,995.45,345.81,0.01,0.056099,10.197
0.31,4.5853,30.59,103.46,30.59,103.46,0,0,0,0,0,0,28.61,-80.6,9.7883,4.0484,0,0,0,17881,2378.1,13.011,0.028361,NaN,157.87,NaN,0.088683,4970308,2027.8,2.7522,0.57701,0.60179,0.3509,0.10509,0.12102,NaN,NaN,NaN,NaN,NaN,NaN,NaN,NaN,0.0039166,10.3,83.323,90,0,NaN,23.937,995.44,345.8,0.01,0.057336,10.923
0.32,4.8964,31.626,103.58,31.626,103.58,0,0,0,0,0,0,28.61,-80.6,9.7883,3.8837,0,0,0,17871,2368.2,13.006,0.028354,NaN,157.84,NaN,0.091666,5137413,2028.9,2.922,0.57511,0.59801,0.34891,0.10511,0.12109,NaN,NaN,NaN,NaN,NaN,NaN,NaN,NaN,0.0040492,10.3,83.323,90,0,NaN,23.936,995.42,345.8,0.01,0.058971,11.675
0.33,5.2178,32.662,103.7,32.662,103.7,0,0,0,0,0,0,28.61,-80.6,9.7883,3.7293,0,0,0,17861,2358.4,13.001,0.028348,NaN,157.8,NaN,0.094652,5304745,2030.1,3.0971,0.57329,0.59449,0.34699,0.10514,0.12116,NaN,NaN,NaN,NaN,NaN,NaN,NaN,NaN,0.0041818,10.3,83.323,90,0,NaN,23.934,995.4,345.8,0.01,0.060662,12.452
0.34,5.5496,33.699,103.82,33.699,103.82,0,0,0,0,0,0.20597,28.61,-80.6,9.7883,3.5841,0,0,0,17851,2348.5,12.996,0.028341,179.49,157.76,2.1101,0.097643,5472298,2031.6,3.2776,0.57154,0.59119,0.34514,0.10517,0.12124,0.64931,1.3705,1.11E-04,0,0,0,0,0,0.0043147,10.3,83.323,90,0,NaN,23.933,995.38,345.8,0.015,0.06247,13.255
0.355,6.0668,35.258,104,35.258,104,-2.33E-05,0,2.33E-05,-180,0.0031239,0.21165,28.61,-80.6,9.7883,3.4077,0,0.053015,4.20E-06,17839,2336.2,12.989,0.028332,179.9,157.71,2.1546,0.10214,5724179,2033.8,3.5601,0.56905,0.58687,0.34248,0.10521,0.12136,0.61143,1.3172,-1.73E-04,0,0,0,0,3.97E-06,0.0045142,10.3,83.323,90,-0.0063353,NaN,23.931,995.35,345.8,0.0225,0.064735,14.509
0.3775,6.8864,37.6,104.26,37.6,104.26,-1.48E-04,0,1.48E-04,-180,0.0080325,0.22393,28.61,-80.6,9.7883,3.2554,0,0.13883,-4.80E-06,17820,2317.7,12.98,0.028319,180.27,157.64,2.1969,0.10891,6103361,2037.1,4.0128,0.56556,0.58184,0.33875,0.10527,0.12154,0.57923,1.2727,-2.10E-04,0,0,0,0,2.39E-05,0.0048141,10.3,83.323,89.997,-4.46E-04,NaN,23.927,995.3,345.8,0.03375,0.066513,16.501
0.41125,8.2149,41.124,104.66,41.124,104.66,-5.50E-04,0,5.50E-04,-180,0.015805,0.2343,28.61,-80.6,9.7883,3.0453,0,0.28304,7.22E-06,17793,2290,12.966,0.028299,180.78,157.53,2.2571,0.1191,6673821,2042,4.7426,0.56086,0.57512,0.33364,0.10537,0.12184,0.53557,1.2083,-4.96E-04,0,0,0,0,8.31E-05,0.0052653,10.3,83.323,89.99,-1.36E-04,NaN,23.921,995.22,345.8,0.05,0.067598,19.738
0.46125,10.402,46.369,105.24,46.369,105.24,-0.001633,-5.97E-09,0.001633,-180,0.027476,0.22782,28.61,-80.6,9.7883,2.7576,0,0.53057,-3.63E-05,17751,2248.7,12.945,0.02827,181.51,157.37,2.3431,0.13425,7522598,2047.9,5.9361,0.55483,0.56655,0.32694,0.10554,0.12234,0.47719,1.1176,-4.13E-04,0,0,0,0,2.30E-04,0.0059368,10.3,83.323,89.97,1.43E-05,NaN,23.912,995.09,345.79,0.05,0.06862,25.09
0.51125,12.852,51.642,105.82,51.642,105.82,-0.0032808,-1.59E-08,0.0032808,-180,0.038125,0.19032,28.61,-80.6,9.7883,2.4907,0,0.81865,-1.66E-05,17702,2199.5,12.919,0.028236,182.2,157.18,2.4294,0.1495,8375881,2053.7,7.2654,0.54972,0.5593,0.32107,0.10574,0.12291,0.42451,1.0312,3.18E-04,0,0,0,0,4.41E-04,0.006612,10.3,83.323,89.937,8.75E-04,NaN,23.902,994.95,345.78,0.05,0.070214,31.119
0.56125,15.567,56.945,106.39,56.945,106.39,-0.0053951,-2.75E-08,0.0053951,-180,0.045732,0.10439,28.61,-80.6,9.7883,2.1698,0,1.1398,-6.52E-05,17653,2150.2,12.894,0.028201,183.07,156.98,2.5323,0.16482,9233184,2059.6,8.7244,0.54534,0.55266,0.31586,0.10595,0.12353,0.36299,0.91854,4.73E-04,0,0,0,0,7.04E-04,0.0072909,10.3,83.323,89.888,0.0019298,NaN,23.89,994.79,345.78,0.05,0.07325,37.832
0.61125,18.547,62.275,106.96,62.275,106.96,-0.007759,-2.55E-08,0.007759,-180,0.047659,0.036596,28.61,-80.6,9.7883,1.8078,0,1.4776,-9.44E-05,17604,2100.9,12.868,0.028166,184.08,156.79,2.65,0.18022,10094604,2065.5,10.316,0.54158,0.5467,0.31116,0.10619,0.12422,0.29601,0.78333,-4.34E-05,0,0,0,0,9.90E-04,0.0079734,10.3,83.323,89.822,0.0026534,NaN,23.877,994.61,345.77,0.05,0.07658,45.241
0.66125,21.795,67.635,107.52,67.635,107.52,-0.010022,1.55E-08,0.010022,180,0.041277,0.22688,28.61,-80.6,9.7883,1.4599,0,1.8142,-1.88E-04,17554,2051.6,12.842,0.028132,185.11,156.59,2.7683,0.1957,1.10E+07,2071.3,12.052,0.53832,0.54169,0.30689,0.10645,0.12498,0.23407,0.64631,3.97E-05,0,0,0,0,0.0012654,0.0086596,10.3,83.323,89.74,0.0030637,NaN,23.863,994.42,345.76,0.05,0.078683,53.355
0.71125,25.312,73.022,108.08,73.022,108.08,-0.01171,1.30E-07,0.01171,180,0.02438,0.45364,28.61,-80.6,9.7883,1.1787,0,2.1382,-1.34E-04,17505,2002.3,12.816,0.028097,185.97,156.4,2.8714,0.21127,11831047,2077.2,13.94,0.53551,0.53772,0.30297,0.10674,0.1258,0.18577,0.53226,2.16E-04,0,0,0,0,0.0015082,0.0093493,10.3,83.323,89.641,0.003266,NaN,23.848,994.22,345.75,0.05,0.080586,62.183
0.76125,29.098,78.437,108.63,78.437,108.63,-0.012263,3.55E-07,0.012263,180,0.0043354,0.70527,28.61,-80.6,9.7883,0.98805,0,2.4556,-1.52E-04,17456,1953.1,12.79,0.028063,186.58,156.2,2.95,0.22694,12706335,2083.1,15.989,0.53309,0.53465,0.29935,0.10705,0.1267,0.1539,0.45225,-2.28E-05,0,0,0,0,0.0017241,0.010043,10.3,83.323,89.526,0.0031588,NaN,23.832,993.99,345.74,0.05,0.082151,71.735
0.81125,33.156,83.879,109.17,83.879,109.18,-0.011043,7.34E-07,0.011043,180,0.04688,0.99827,28.61,-80.6,9.7883,0.81044,0,2.7584,-1.94E-04,17406,1903.8,12.764,0.028028,187.17,156,3.0262,0.24269,13585843,2089,18.192,0.53101,0.53207,0.29598,0.10738,0.12766,0.12486,0.37572,3.86E-05,0,0,0,0,0.0019025,0.010739,10.3,83.323,89.396,0.0028255,NaN,23.814,993.75,345.73,0.05,0.083658,82.021
0.86125,37.486,89.348,109.71,89.348,109.72,-0.0073316,1.30E-06,0.0073316,179.99,0.10406,1.3019,28.61,-80.6,9.7882,0.72994,0,3.0643,-2.51E-04,17357,1854.5,12.738,0.027993,187.45,155.8,3.0733,0.25853,1.45E+07,2094.8,20.563,0.52925,0.5301,0.29283,0.10773,0.12869,0.11192,0.34209,-2.04E-04,0,0,0,0,0.0020691,0.01144,10.3,83.323,89.25,0.0027781,NaN,23.796,993.5,345.72,0.05,0.08513,93.048
0.91125,42.091,94.844,110.24,94.844,110.25,-3.53E-04,2.11E-06,3.53E-04,179.66,0.17816,1.6753,28.61,-80.6,9.7882,0.57316,0,3.3598,-4.61E-04,17308,1805.2,12.711,0.027959,187.99,155.59,3.1453,0.27444,15357785,2100.7,23.087,0.52777,0.5283,0.28986,0.10812,0.12979,0.087029,0.27184,5.29E-05,0,0,0,0,0.0022074,0.012143,10.3,83.323,89.09,0.0027978,NaN,23.776,993.23,345.71,0.05,0.086732,104.83
0.96125,46.971,100.37,110.76,100.37,110.78,0.010826,3.20E-06,0.010826,0.016961,0.2726,2.1151,28.61,-80.6,9.7882,0.36351,0,3.6009,-6.15E-04,17259,1756,12.685,0.027924,188.72,155.39,3.236,0.29043,16249082,2106.6,25.772,0.52656,0.52677,0.28707,0.10852,0.13097,0.054467,0.1744,3.06E-04,0,0,0,0,0.0022643,0.01285,10.3,83.323,88.915,0.0030723,NaN,23.755,992.94,345.69,0.05,0.087848,117.36
1.0113,52.128,105.91,111.27,105.91,111.3,0.027303,4.71E-06,0.027303,0.0098851,0.39044,2.6024,28.61,-80.6,9.7882,0.13932,0,3.7419,-0.0013278,17209,1706.7,12.658,0.027889,189.53,155.19,3.3339,0.30649,17144048,2112.4,28.63,0.52558,0.52561,0.28442,0.10895,0.13221,0.020576,0.065933,1.16E-04,0,0,0,0,0.0021958,0.013561,10.3,83.323,88.731,0.0029626,NaN,23.733,992.64,345.68,0.05,0.088875,130.67
1.0613,57.563,111.49,111.77,111.49,111.81,0.05028,6.67E-06,0.05028,0.007606,0.53275,3.1026,28.61,-80.6,9.7882,0.048236,0,-3.7721,-0.0038867,17160,1657.4,12.631,0.027855,189.88,154.98,3.3881,0.32263,18042925,2118.3,31.667,0.52483,0.52484,0.28189,0.10941,0.13353,0.0070843,0.025676,3.53E-04,0,0,0,0,-0.0020138,0.014274,10.3,83.323,88.543,0.0030574,NaN,23.71,992.32,345.67,0.05,0.089832,144.75
1.1113,63.278,117.09,111.8,117.09,111.85,0.081025,9.21E-06,0.081025,0.0065122,0.70142,3.6248,28.61,-80.6,9.7882,0.26189,0,-3.6456,-6.60E-04,17111,1608.1,12.604,0.02782,189.16,154.77,3.3386,0.33884,18945083,2116.2,34.889,0.5243,0.52441,0.27948,0.1099,0.13493,0.039045,0.13191,3.61E-04,0,0,0,0,-0.0017055,0.014991,10.3,83.323,88.357,0.0032043,NaN,23.685,991.98,345.65,0.05,0.090924,159.61
1.1613,69.272,122.68,111.36,122.69,111.43,0.12083,1.25E-05,0.12083,0.0059052,0.89457,4.0754,28.61,-80.6,9.7881,0.3771,0,-3.3829,-6.76E-04,17061,1558.6,12.577,0.027785,188.8,154.57,3.3239,0.35507,19847628,2106.3,38.282,0.52397,0.5242,0.27718,0.11041,0.13639,0.056688,0.19015,3.03E-04,0,0,0,0,-0.0013375,0.015708,10.3,83.323,88.181,0.0029949,NaN,23.659,991.63,345.64,0.05,0.092552,175.19
1.2113,75.546,128.26,110.91,128.27,111,0.17085,1.65E-05,0.17085,0.0055189,1.1101,4.5086,28.61,-80.6,9.7881,0.49756,0,-2.9832,-2.67E-04,17011,1508.8,12.549,0.02775,188.43,154.35,3.3084,0.37123,20745900,2096.5,41.834,0.52383,0.52423,0.27498,0.11094,0.13792,0.075444,0.25061,2.51E-04,0,0,0,0,-9.52E-04,0.016423,10.3,83.323,88.021,0.0025863,NaN,23.632,991.26,345.62,0.05,0.095089,191.43
1.2613,82.097,133.82,110.45,133.82,110.55,0.23217,2.12E-05,0.23217,0.0052386,1.3459,4.8898,28.61,-80.6,9.7881,0.59516,0,-2.4431,-5.43E-04,16962,1459,12.521,0.027715,188.14,154.14,3.3012,0.38733,2.16E+07,2086.6,45.542,0.52387,0.52444,0.27288,0.11149,0.1395,0.090883,0.3005,-2.18E-04,0,0,0,0,-5.86E-04,0.017134,10.3,83.323,87.885,0.0021951,NaN,23.604,990.88,345.6,0.05,0.096616,208.32
1.3113,88.927,139.35,109.97,139.36,110.1,0.30574,2.67E-05,0.30574,0.0050067,1.6002,5.233,28.61,-80.6,9.7881,0.70771,0,-1.7328,-2.73E-04,16912,1409.1,12.493,0.02768,187.81,153.93,3.2899,0.40336,22529189,2076.7,49.411,0.52408,0.52488,0.27087,0.11206,0.14115,0.10894,0.3587,1.31E-04,0,0,0,0,-2.72E-04,0.017843,10.3,83.323,87.779,0.0017704,NaN,23.575,990.47,345.59,0.05,0.097659,225.83
1.3613,96.032,144.85,109.49,144.87,109.63,0.39241,3.29E-05,0.39241,0.0048014,1.8689,5.4666,28.61,-80.6,9.7881,0.77485,0,-0.85517,-7.93E-04,16862,1359.3,12.465,0.027645,187.64,153.71,3.2935,0.41933,23414010,2066.9,53.43,0.52445,0.52541,0.26894,0.11266,0.14286,0.11988,0.39441,1.75E-04,0,0,0,0,-6.13E-05,0.018548,10.3,83.323,87.714,0.0010453,NaN,23.544,990.06,345.57,0.05,0.098633,243.97
1.4113,103.41,150.34,109,150.35,109.15,0.49277,3.96E-05,0.49277,0.0046009,2.1464,5.5624,28.61,-80.6,9.788,0.79435,0,0.16259,-0.0010259,16812,1309.5,12.437,0.02761,187.61,153.5,3.3125,0.43522,24294282,2056.9,57.594,0.52497,0.52597,0.26707,0.11328,0.14462,0.12315,0.40825,-2.09E-04,0,0,0,0,2.06E-06,0.019251,10.3,83.323,87.696,-2.18E-04,NaN,23.513,989.62,345.55,0.05,0.09967,262.71
1.4613,111.06,155.8,108.33,155.82,108.47,0.60703,4.64E-05,0.60703,0.0043836,2.4231,5.434,28.61,-80.6,9.788,0.71422,0,1.2222,-7.66E-04,16763,1259.9,12.409,0.027575,187.92,153.28,3.3629,0.45106,2.52E+07,2044,61.89,0.52564,0.52645,0.26527,0.11392,0.14645,0.11024,0.37043,3.72E-04,0,0,0,0,1.08E-04,0.01995,10.3,83.323,87.731,-0.0012156,NaN,23.48,989.17,345.53,0.05,0.10059,282.04
1.5113,118.99,161.22,107.56,161.24,107.68,0.73489,5.32E-05,0.73489,0.0041499,2.6886,5.1107,28.61,-80.6,9.788,0.57096,0,2.2027,-0.0014226,16714,1211.2,12.381,0.027541,188.43,153.06,3.4336,0.46681,26040693,2029.5,66.319,0.52644,0.52696,0.26353,0.11457,0.14833,0.087391,0.29993,-4.73E-04,0,0,0,0,3.28E-04,0.020646,10.3,83.323,87.817,-0.0024062,NaN,23.446,988.71,345.51,0.05,0.10148,301.93
1.5613,127.19,166.61,106.78,166.63,106.87,0.87553,5.96E-05,0.87553,0.0039018,2.9333,4.6062,28.61,-80.6,9.788,0.36974,0,2.9817,-0.0018719,16666,1163.4,12.353,0.027507,189.15,152.85,3.5243,0.48245,26904173,2015.1,70.886,0.52736,0.52758,0.26185,0.11525,0.15026,0.055901,0.19677,2.70E-04,0,0,0,0,5.63E-04,0.021336,10.3,83.323,87.948,-0.0033751,NaN,23.411,988.22,345.49,0.05,0.10236,322.33
1.6113,135.65,171.95,105.98,171.98,106.05,1.0277,6.54E-05,1.0277,0.0036433,3.1489,3.9847,28.61,-80.6,9.7879,0.1446,0,3.4237,-0.0046167,16618,1115.5,12.325,0.027474,189.98,152.64,3.625,0.49798,27760556,2000.6,75.608,0.52841,0.52844,0.26022,0.11595,0.15224,0.021558,0.077732,2.07E-04,0,0,0,0,6.97E-04,0.022021,10.3,83.323,88.11,-0.0043209,NaN,23.374,987.73,345.46,0.05,0.10325,343.23
1.6613,144.38,177.26,105.17,177.29,105.22,1.1899,7.04E-05,1.1899,0.0033875,3.3346,3.4059,28.61,-80.6,9.7879,0.0096333,0,-3.5495,-0.066716,16570,1067.6,12.297,0.02744,190.51,152.43,3.697,0.51337,28608483,1986.2,80.483,0.52957,0.52957,0.25864,0.11666,0.15426,0.0014246,0.0056173,-4.68E-04,0,0,0,0,-7.05E-04,0.022701,10.3,83.323,88.285,-0.0050074,NaN,23.337,987.21,345.44,0.05,0.10417,364.6
1.7113,153.37,182.52,104.34,182.56,104.37,1.3607,7.46E-05,1.3607,0.0031406,3.491,2.822,28.61,-80.6,9.7879,0.15354,0,-3.3741,-0.0036143,16522,1019.7,12.269,0.027406,190.05,152.21,3.6738,0.52865,29448867,1971.7,85.508,0.53083,0.53087,0.25711,0.11739,0.15633,0.022949,0.084799,-1.55E-04,0,0,0,0,-6.01E-04,0.023375,10.3,83.323,88.459,-0.004852,NaN,23.298,986.68,345.42,0.05,0.10517,386.43
1.7613,162.63,187.75,103.47,187.78,103.5,1.5385,7.83E-05,1.5385,0.0029141,3.6191,2.2779,28.61,-80.6,9.7879,0.27658,0,-2.897,-0.001603,16475,971.88,12.241,0.027373,189.68,151.99,3.6591,0.5438,30281623,1957,90.679,0.5322,0.53233,0.25562,0.11813,0.15844,0.041717,0.15284,9.56E-05,0,0,0,0,-4.19E-04,0.024044,10.3,83.323,88.617,-0.005296,NaN,23.258,986.14,345.39,0.05,0.10608,408.69
1.8113,172.15,192.93,102.52,192.96,102.53,1.7221,8.14E-05,1.7221,0.0027082,3.7211,1.8108,28.61,-80.6,9.7878,0.37694,0,-2.1105,-0.0012666,16428,925.26,12.213,0.02734,189.4,151.78,3.6525,0.55884,31106627,1941.1,95.99,0.53367,0.5339,0.25417,0.1189,0.1606,0.057288,0.20935,1.74E-04,0,0,0,0,-2.10E-04,0.024707,10.3,83.323,88.744,-0.0055243,NaN,23.218,985.58,345.37,0.05,0.1072,431.37
1.8613,181.92,198.06,101.52,198.09,101.53,1.9103,8.40E-05,1.9103,0.00252,3.8053,1.5502,28.61,-80.6,9.7878,0.40092,0,-1.1404,-0.0019073,16383,880.79,12.187,0.027309,189.39,151.58,3.671,0.57372,31922433,1925.2,101.41,0.53522,0.53549,0.25276,0.11967,0.16279,0.061089,0.2241,-6.00E-05,0,0,0,0,-5.83E-05,0.025364,10.3,83.323,88.826,-0.0031004,NaN,23.176,985,345.34,0.05,0.10832,454.41
1.9113,191.95,203.14,100.5,203.17,100.51,2.1025,8.66E-05,2.1025,0.0023613,3.8789,1.3983,28.61,-80.6,9.7878,0.41827,0,-0.04877,-0.001499,16340,837.2,12.161,0.027278,189.4,151.38,3.6916,0.58848,3.27E+07,1909.2,106.97,0.53687,0.53715,0.25138,0.12046,0.16502,0.063872,0.23593,-2.73E-04,0,0,0,0,-1.01E-07,0.026015,10.3,83.323,88.856,3.43E-04,NaN,23.133,984.41,345.32,0.05,0.10924,477.8
1.9613,202.24,208.17,99.47,208.2,99.481,2.2982,9.00E-05,2.2982,0.002243,3.9491,1.4163,28.61,-80.6,9.7877,0.40318,0,1.1134,-4.63E-04,16296,793.62,12.134,0.027247,189.53,151.18,3.7234,0.6031,33528777,1893.3,112.63,0.53859,0.53886,0.25004,0.12127,0.16728,0.061573,0.22928,-3.99E-04,0,0,0,0,5.03E-05,0.026659,10.3,83.323,88.829,0.0023327,NaN,23.088,983.81,345.29,0.05,0.1103,501.52
2.0113,212.77,213.14,98.422,213.18,98.436,2.4974,9.43E-05,2.4974,0.0021633,4.0247,1.6351,28.61,-80.6,9.7877,0.34519,0,2.2501,7.12E-04,16253,750.03,12.108,0.027217,189.8,150.97,3.7698,0.61757,34318622,1877.3,118.41,0.54039,0.54059,0.24873,0.12208,0.16958,0.052573,0.19758,-8.38E-05,0,0,0,0,1.96E-04,0.027296,10.3,83.323,88.745,0.0014744,NaN,23.043,983.19,345.26,0.05,0.11141,525.53
2.0613,223.55,218.07,97.355,218.11,97.379,2.7009,9.95E-05,2.7009,0.0021104,4.1186,2.1212,28.61,-80.6,9.7877,0.21215,0,3.1382,1.50E-04,16209,706.44,12.082,0.027186,190.34,150.77,3.8421,0.63189,35098715,1861.3,124.28,0.54227,0.54234,0.24745,0.12291,0.17191,0.032066,0.1224,-5.50E-05,0,0,0,0,3.64E-04,0.027927,10.3,83.323,88.609,4.63E-04,NaN,22.997,982.55,345.24,0.05,0.11236,549.82
2.1113,234.57,222.94,96.27,222.98,96.309,2.9098,1.05E-04,2.9098,0.0020749,4.2408,2.766,28.61,-80.6,9.7876,0.043591,0,3.5747,7.23E-04,16166,662.86,12.055,0.027155,191.02,150.57,3.9277,0.64606,35869247,1845.4,130.28,0.54421,0.54421,0.2462,0.12375,0.17426,0.0065232,0.025072,-3.77E-04,0,0,0,0,4.52E-04,0.02855,10.3,83.323,88.438,8.20E-04,NaN,22.95,981.91,345.21,0.05,0.11326,574.37
2.1613,245.84,227.75,95.165,227.79,95.228,3.1256,1.12E-04,3.1256,0.0020535,4.3983,3.4735,28.61,-80.6,9.7876,0.13604,0,-3.384,7.16E-04,16122,619.27,12.028,0.027125,190.78,150.36,3.9243,0.66007,3.66E+07,1829.4,136.41,0.54622,0.54625,0.24498,0.1246,0.17664,0.020507,0.080594,-3.05E-04,0,0,0,0,-3.88E-04,0.029167,10.3,83.323,88.262,5.28E-04,NaN,22.901,981.24,345.18,0.05,0.11436,599.15
2.2113,257.35,232.51,94.049,232.56,94.135,3.3501,1.19E-04,3.3501,0.0020416,4.5866,4.0093,28.61,-80.6,9.7876,0.24806,0,-2.6636,0.0013986,16078,575.69,12.001,0.027094,190.48,150.15,3.9149,0.67394,37381368,1813.4,142.65,0.54828,0.54839,0.24378,0.12546,0.17905,0.037711,0.14768,-2.12E-04,0,0,0,0,-2.31E-04,0.029777,10.3,83.323,88.109,0.0021216,NaN,22.85,980.55,345.15,0.05,0.11653,624.13
2.2613,269.09,237.22,92.929,237.26,93.033,3.5847,1.28E-04,3.5847,0.0020473,4.7992,4.4044,28.61,-80.6,9.7875,0.33041,0,-1.5027,0.0012917,16035,532.1,11.974,0.027063,190.28,149.94,3.9163,0.6877,3.81E+07,1797.5,148.94,0.55043,0.55062,0.24261,0.12634,0.18148,0.050561,0.19857,2.12E-04,0,0,0,0,-7.06E-05,0.03038,10.3,83.323,88.003,0.0046623,NaN,22.752,979.25,345.09,0.05,0.11823,649.01
2.3113,281.07,241.86,91.809,241.92,91.918,3.8302,1.39E-04,3.8302,0.0020821,5.0234,4.4727,28.61,-80.6,9.7875,0.32999,6.42E-07,-0.12589,0.0013738,15991,488.52,11.947,0.027033,190.38,149.73,3.9457,0.70131,38828769,1781.5,155.3,0.55263,0.55282,0.24148,0.12722,0.18394,0.050556,0.19932,-4.96E-04,0,0,0,0,-4.76E-07,0.030976,10.3,83.323,87.962,0.0067478,NaN,22.652,977.92,345.03,0.05,0.1199,674.02
2.3612,293.28,246.46,90.689,246.51,90.79,4.0869,1.54E-04,4.0869,0.0021535,5.244,4.2781,28.61,-80.6,9.7875,0.27995,1.15E-06,1.1952,0.0017238,15948,444.93,11.92,0.027002,190.64,149.52,3.992,0.71477,39536266,1765.5,161.74,0.55488,0.55502,0.24036,0.12811,0.18642,0.042802,0.17069,2.46E-05,0,0,0,0,4.14E-05,0.031564,10.3,83.323,87.99,0.0091945,NaN,22.55,976.57,344.96,0.05,0.12163,699.15
2.4112,305.71,250.99,89.566,251.05,89.65,4.3544,1.72E-04,4.3544,0.0022643,5.4504,3.8814,28.61,-80.6,9.7874,0.20053,1.19E-06,2.3058,-0.0012161,15904,401.35,11.892,0.026971,191.01,149.31,4.0486,0.72805,40232371,1749.6,168.24,0.55718,0.55725,0.23927,0.12901,0.18891,0.030538,0.1234,1.15E-04,0,0,0,0,1.48E-04,0.032146,10.3,83.323,88.078,0.0080524,NaN,22.446,975.19,344.9,0.05,0.12323,724.37
2.4612,318.37,255.47,88.439,255.53,88.498,4.6315,1.94E-04,4.6315,0.0023975,5.6297,3.2258,28.61,-80.6,9.7874,0.064549,1.04E-06,2.9411,-0.0010992,15860,357.76,11.865,0.026941,191.59,149.1,4.1253,0.74118,40917959,1733.6,174.82,0.55952,0.55953,0.23819,0.12991,0.19142,0.0097551,0.039666,-3.77E-04,0,0,0,0,2.33E-04,0.03272,10.3,83.323,88.212,0.0038998,NaN,22.341,973.79,344.84,0.05,0.12497,749.66
2.5112,331.26,259.9,87.299,259.96,87.335,4.9167,2.17E-04,4.9167,0.0025317,5.7734,2.4933,28.61,-80.6,9.7873,0.081473,1.08E-06,-2.8833,-0.001205,15817,314.17,11.837,0.02691,191.63,148.89,4.1497,0.75416,41592610,1717.6,181.5,0.5619,0.56192,0.23714,0.13082,0.19394,0.012342,0.051705,-1.81E-04,0,0,0,0,-2.16E-04,0.033286,10.3,83.323,88.361,0.0013983,NaN,22.233,972.36,344.77,0.05,0.12666,774.99
2.5612,344.36,264.26,86.131,264.33,86.151,5.2082,2.42E-04,5.2082,0.0026571,5.8826,1.8642,28.61,-80.6,9.7873,0.19556,1.33E-06,-2.1501,6.70E-04,15773,270.59,11.809,0.02688,191.32,148.67,4.141,0.76697,42256038,1701.5,188.26,0.56432,0.56439,0.23611,0.13174,0.19647,0.029884,0.12359,-4.09E-06,0,0,0,0,-1.16E-04,0.033845,10.3,83.323,88.489,-0.0016154,NaN,22.124,970.91,344.71,0.05,0.12825,800.35
2.6112,357.68,268.57,81.672,268.63,81.684,5.5045,2.65E-04,5.5045,0.0027617,5.9647,1.3625,28.61,-80.6,9.7873,0.26525,1.50E-06,-0.87532,0.002074,15730,227.16,11.781,0.026849,191.18,148.46,4.1479,0.77962,42908397,1633.8,195.09,0.56678,0.5669,0.2351,0.13266,0.19901,0.04077,0.16938,2.76E-04,0,0,0,0,-1.87E-05,0.034397,10.3,83.323,88.566,-0.007325,NaN,22.012,969.44,344.64,0.05,0.12958,825.7
2.6612,371.21,272.65,73.444,272.72,73.453,5.8044,2.87E-04,5.8044,0.002834,6.0305,1.1032,28.61,-80.6,9.7872,0.26921,1.48E-06,0.63852,0.0027997,15689,186.2,11.754,0.02682,191.26,148.25,4.1757,0.79163,43523338,1507.5,201.68,0.56917,0.56929,0.23414,0.13355,0.20147,0.041441,0.17345,4.29E-04,0,0,0,0,9.65E-06,0.03492,10.3,83.323,88.572,-0.01173,NaN,21.899,967.94,344.57,0.05,0.13138,850.01
2.7112,384.94,276.32,61.549,276.39,61.558,6.1073,3.06E-04,6.1073,0.0028679,6.0895,1.0476,28.61,-80.6,9.7872,0.21928,2.12E-06,2.1267,0.002912,15657,153.99,11.733,0.026798,191.52,148.09,4.2169,0.80245,44071124,1324.6,207.69,0.57137,0.57146,0.23329,0.13437,0.20371,0.033685,0.14236,-2.86E-04,0,0,0,0,1.04E-04,0.03539,10.3,83.323,88.502,-0.012125,NaN,21.785,966.42,344.5,0.05,0.13388,872.01
2.7612,398.83,279.39,49.367,279.46,49.387,6.4134,3.21E-04,6.4134,0.0028654,6.1588,1.4002,28.61,-80.6,9.7871,0.06823,2.19E-06,2.994,0.009002,15634,131.2,11.719,0.026782,192.13,147.97,4.2872,0.81153,44521398,1137.8,212.75,0.57327,0.57328,0.23259,0.13507,0.20562,0.010389,0.044836,5.17E-05,0,0,0,0,2.02E-04,0.035783,10.3,83.323,88.371,-0.0078406,NaN,21.669,964.88,344.43,0.05,0.13586,890.45
2.8112,412.86,281.86,37.201,281.93,37.24,6.7234,3.34E-04,6.7234,0.0028448,6.2458,1.7029,28.61,-80.6,9.7871,0.075214,2.17E-06,-2.9639,0.0075921,15614,111.38,11.706,0.026768,192.17,147.87,4.3005,0.81887,44874063,951.02,216.85,0.57483,0.57484,0.23202,0.13563,0.20717,0.011467,0.049045,4.54E-05,0,0,0,0,-1.94E-04,0.036099,10.3,83.323,88.218,-0.0012349,NaN,21.551,963.33,344.36,0.05,0.13758,905.13
2.8612,427,283.72,25.072,283.79,25.139,7.038,3.47E-04,7.038,0.0028259,6.3451,1.8392,28.61,-80.6,9.787,0.18913,2.08E-06,-2.1094,0.0043776,15594,91.567,11.693,0.026754,191.81,147.77,4.2756,0.82444,45129201,764.21,219.93,0.57604,0.5761,0.23161,0.13607,0.20836,0.029066,0.12467,-3.55E-04,0,0,0,0,-9.72E-05,0.036337,10.3,83.323,88.088,0.0060837,NaN,21.433,961.76,344.29,0.05,0.13913,915.98
2.9112,441.22,284.97,12.988,285.04,13.102,7.3577,3.63E-04,7.3577,0.0028292,6.4454,1.7247,28.61,-80.6,9.787,0.25491,2.83E-06,-0.672,0.0026145,15574,71.749,11.68,0.02674,191.61,147.67,4.2661,0.82825,45287079,577.4,221.95,0.57688,0.577,0.23133,0.13637,0.20918,0.039359,0.16781,4.86E-04,0,0,0,0,-9.78E-06,0.036498,10.3,83.323,88.017,0.013634,NaN,21.315,960.19,344.22,0.05,0.14091,922.95
2.9612,455.48,285.62,0.95403,285.69,1.6395,7.6822,3.85E-04,7.6822,0.0028705,6.5343,1.3334,28.61,-80.6,9.787,0.26067,2.80E-06,1.05,0.003022,15555,51.931,11.667,0.026726,191.61,147.57,4.2756,0.83031,45348175,390.59,222.87,0.57736,0.57748,0.23121,0.13653,0.20962,0.040271,0.17252,1.94E-04,0,0,0,0,2.38E-05,0.036581,10.3,83.323,88.026,0.016341,NaN,21.195,958.61,344.14,0.05,0.14256,926.02
3.0112,469.76,285.67,-11.021,285.74,11.033,8.0105,4.12E-04,8.0105,0.0029493,6.5917,0.52044,28.61,-80.6,9.7869,0.15679,2.22E-06,2.4365,0.0035378,15535,32.113,11.654,0.026712,191.98,147.47,4.3211,0.83063,45314456,203.82,222.68,0.57746,0.57751,0.23122,0.13655,0.20969,0.024062,0.10432,1.76E-04,0,0,0,0,1.28E-04,0.036588,10.3,83.323,88.116,0.015895,NaN,21.076,957.03,344.07,0.05,0.14476,925.19
3.0612,484.03,285.12,-18.495,285.19,18.498,8.3405,4.45E-04,8.3405,0.0030544,6.6037,0.2799,28.61,-80.6,9.7869,0.005807,2.20E-06,2.9701,0.11458,15515,12.526,11.641,0.026698,192.51,147.37,4.382,0.82921,45185936,86.279,221.43,0.5772,0.5772,0.23137,0.13644,0.20939,8.82E-04,0.0038824,-2.97E-04,0,0,0,0,1.91E-04,0.036518,10.3,83.323,88.256,0.012028,NaN,20.957,955.45,344,0.05,0.14683,920.5
3.1112,498.27,284.2,-21.897,284.27,21.916,8.6701,4.80E-04,8.6701,0.0031737,6.5762,0.89391,28.61,-80.6,9.7868,0.1378,2.28E-06,-2.5249,0.0054667,15505,2.1617,11.634,0.026691,192.01,147.32,4.3392,0.82671,44998336,31.499,219.56,0.5767,0.57674,0.23161,0.13625,0.20885,0.021113,0.092195,3.04E-04,0,0,0,0,-1.39E-04,0.036399,10.3,83.323,88.397,0.0070097,NaN,20.838,953.87,343.93,0.05,0.14965,913.42
3.1612,512.45,283.1,-23.773,283.18,23.805,8.9976,5.17E-04,8.9976,0.0032947,6.5233,1.2308,28.61,-80.6,9.7868,0.22066,2.27E-06,-1.3413,0.0042421,15503,0.78919,11.633,0.02669,191.7,147.31,4.3091,0.8237,44783813,0.15407,217.39,0.57611,0.57619,0.23189,0.13601,0.2082,0.033978,0.14622,-2.41E-04,0,0,0,0,-3.95E-05,0.03626,10.3,83.323,88.495,-0.0024473,NaN,20.72,952.3,343.85,0.05,0.15333,905.28
3.2112,526.57,281.92,-23.633,281.99,23.667,9.3222,5.54E-04,9.3222,0.0034032,6.4604,1.2669,28.61,-80.6,9.7867,0.23543,1.73E-06,0.11132,0.0052448,15503,0.051469,11.632,0.026689,191.62,147.31,4.3017,0.82041,44554893,0,215.07,0.57545,0.57555,0.2322,0.13575,0.2075,0.036274,0.15562,2.38E-04,0,0,0,0,2.74E-07,0.036108,10.3,83.323,88.526,-0.013262,NaN,20.602,950.74,343.78,0.05,0.1555,896.6
3.2612,540.64,280.74,-23.487,280.81,23.516,9.6436,5.87E-04,9.6436,0.0034883,6.3984,1.1668,28.61,-80.6,9.7867,0.20926,9.45E-07,1.5433,0.0052235,15503,0,11.632,0.026689,191.68,147.31,4.308,0.81716,44328265,0,212.77,0.57481,0.57489,0.2325,0.1355,0.20681,0.032175,0.13836,3.51E-04,0,0,0,0,5.31E-05,0.035957,10.3,83.323,88.484,-0.018009,NaN,20.484,949.18,343.71,0.05,0.1573,888.02
3.3112,554.65,279.57,-23.348,279.64,23.362,9.9622,6.17E-04,9.9622,0.003547,6.3482,0.81443,28.61,-80.6,9.7867,0.10934,1.19E-06,2.5523,0.0095396,15503,0,11.632,0.026689,192.01,147.31,4.3397,0.81392,44102951,0,210.48,0.57418,0.5742,0.23281,0.13525,0.20612,0.016698,0.072227,1.61E-04,0,0,0,0,1.47E-04,0.035807,10.3,83.323,88.379,-0.014835,NaN,20.367,947.63,343.64,0.05,0.15885,879.53
3.3612,568.6,278.41,-23.216,278.48,23.219,10.279,6.43E-04,10.279,0.0035838,6.3183,0.38454,28.61,-80.6,9.7866,0.017816,1.26E-06,-2.8325,0.052661,15503,0,11.632,0.026689,192.31,147.31,4.3689,0.81071,43879274,0,208.24,0.57355,0.57355,0.23311,0.135,0.20544,0.0027036,0.012015,4.42E-04,0,0,0,0,-1.82E-04,0.035658,10.3,83.323,88.242,-0.0062425,NaN,20.251,946.08,343.57,0.05,0.16059,871.15
3.4112,582.49,277.25,-23.087,277.32,23.087,10.594,6.68E-04,10.594,0.0036107,6.3088,0.0050864,28.61,-80.6,9.7866,0.13238,1.43E-06,-2.369,0.0069086,15503,0,11.632,0.026689,191.87,147.31,4.3265,0.80751,43657235,0,206.05,0.57293,0.57296,0.23341,0.13476,0.20477,0.020233,0.088003,-2.94E-04,0,0,0,0,-1.28E-04,0.035509,10.3,83.323,88.109,0.0047642,NaN,20.134,944.54,343.5,0.05,0.1622,862.86
3.4612,596.32,276.1,-22.958,276.17,22.96,10.91,6.94E-04,10.91,0.0036444,6.3161,0.26508,28.61,-80.6,9.7865,0.21433,1.61E-06,-1.2995,0.0027217,15503,0,11.632,0.026689,191.56,147.31,4.2959,0.80432,43436482,0,203.9,0.57232,0.5724,0.23371,0.13451,0.2041,0.03292,0.14167,-2.01E-04,0,0,0,0,-3.90E-05,0.035362,10.3,83.323,88.015,0.014956,NaN,20.019,943.01,343.43,0.05,0.16397,854.66
3.5112,610.1,274.95,-22.823,275.03,22.826,11.226,7.24E-04,11.226,0.0036976,6.3318,0.33908,28.61,-80.6,9.7865,0.23791,1.53E-06,0.06316,0.0029907,15503,0,11.632,0.026689,191.45,147.31,4.2854,0.80116,43217104,0,201.76,0.57172,0.57182,0.234,0.13427,0.20344,0.036586,0.15728,9.59E-05,0,0,0,0,9.28E-08,0.035216,10.3,83.323,87.984,0.020738,NaN,19.904,941.49,343.36,0.05,0.16633,846.56
3.5612,623.82,273.82,-22.681,273.89,22.682,11.543,7.61E-04,11.543,0.0037759,6.3472,0.22839,28.61,-80.6,9.7864,0.20487,1.02E-06,1.4016,0.0034345,15503,0,11.632,0.026689,191.54,147.31,4.2941,0.798,42998950,0,199.63,0.57112,0.57119,0.2343,0.13403,0.20278,0.031426,0.13495,-4.29E-04,0,0,0,0,4.61E-05,0.03507,10.3,83.323,88.021,0.022397,NaN,19.789,939.97,343.29,0.05,0.16787,838.55
3.6112,637.48,272.69,-22.533,272.76,22.533,11.861,8.03E-04,11.861,0.0038779,6.3507,0.10392,28.61,-80.6,9.7864,0.10287,1.04E-06,2.3134,0.0068585,15503,0,11.632,0.026689,191.87,147.31,4.3267,0.79487,42782620,0,197.52,0.57053,0.57055,0.2346,0.1338,0.20214,0.01567,0.067214,2.93E-04,0,0,0,0,1.27E-04,0.034925,10.3,83.323,88.117,0.020065,NaN,19.675,938.46,343.22,0.05,0.16911,830.63
3.6612,651.09,271.56,-22.387,271.64,22.392,12.178,8.49E-04,12.178,0.0039965,6.3361,0.46857,28.61,-80.6,9.7864,0.014002,9.50E-07,-2.5613,0.041199,15503,0,11.632,0.026689,192.17,147.31,4.3551,0.79175,42567531,0,195.45,0.56995,0.56995,0.23489,0.13356,0.20149,0.00212,0.0093193,1.24E-04,0,0,0,0,-1.56E-04,0.034782,10.3,83.323,88.241,0.012955,NaN,19.561,936.95,343.15,0.05,0.17014,822.8
3.7112,664.64,270.45,-22.248,270.52,22.261,12.494,8.99E-04,12.494,0.0041207,6.3053,0.75831,28.61,-80.6,9.7863,0.11007,1.03E-06,-2.2034,0.0050797,15503,0,11.632,0.026689,191.8,147.31,4.3193,0.78865,42353578,0,193.42,0.56937,0.56939,0.23519,0.13333,0.20085,0.016764,0.072755,-3.53E-04,0,0,0,0,-1.17E-04,0.034639,10.3,83.323,88.363,0.0021947,NaN,19.448,935.45,343.08,0.05,0.1713,815.06
3.7612,678.13,269.34,-22.114,269.41,22.136,12.808,9.47E-04,12.808,0.0042381,6.2613,0.98846,28.61,-80.6,9.7863,0.18694,1.02E-06,-1.3551,0.0043279,15503,0,11.632,0.026689,191.5,147.31,4.2905,0.78556,42141376,0,191.42,0.56881,0.56887,0.23548,0.1331,0.20022,0.028606,0.12324,-3.70E-04,0,0,0,0,-4.45E-05,0.034497,10.3,83.323,88.453,-0.013425,NaN,19.336,933.95,343.02,0.05,0.1726,807.4
3.8112,691.57,268.23,-21.984,268.31,22.01,13.12,9.93E-04,13.12,0.0043361,6.2086,1.0692,28.61,-80.6,9.7862,0.21652,1.54E-06,-0.18629,0.0036094,15503,0,11.632,0.026689,191.37,147.31,4.278,0.7825,41930714,0,189.45,0.56825,0.56833,0.23577,0.13288,0.1996,0.033185,0.14186,-4.57E-04,0,0,0,0,-8.48E-07,0.034355,10.3,83.323,88.492,-0.026539,NaN,19.223,932.47,342.95,0.05,0.17362,799.83
3.8612,704.96,267.14,-21.862,267.21,21.879,13.429,0.0010326,13.429,0.0044056,6.1596,0.87752,28.61,-80.6,9.7862,0.16037,1.47E-06,0.86471,0.0073477,15503,0,11.632,0.026689,191.54,147.31,4.2948,0.77944,41720827,0,187.47,0.56769,0.56774,0.23606,0.13265,0.19898,0.024483,0.10513,-8.70E-05,0,0,0,0,1.84E-05,0.034215,10.3,83.323,88.474,-0.032998,NaN,19.112,930.98,342.88,0.05,0.17495,792.35
3.9112,718.29,266.05,-21.742,266.12,21.752,13.736,0.0010656,13.736,0.0044449,6.1214,0.64431,28.61,-80.6,9.7862,0.086974,1.45E-06,1.5468,0.014232,15503,0,11.632,0.026689,191.78,147.31,4.3178,0.77641,41512869,0,185.53,0.56714,0.56716,0.23635,0.13243,0.19836,0.01321,0.05668,-4.32E-04,0,0,0,0,5.94E-05,0.034075,10.3,83.323,88.412,-0.030219,NaN,19,929.51,342.81,0.05,0.1761,784.95
3.9612,731.56,264.96,-21.626,265.03,21.63,14.042,0.0010925,14.042,0.004458,6.0952,0.40115,28.61,-80.6,9.7861,0.0067974,1.48E-06,1.795,0.18575,15503,0,11.632,0.026689,192.04,147.31,4.3433,0.7734,41306588,0,183.62,0.56661,0.56661,0.23664,0.13221,0.19776,0.0010267,0.0042085,3.74E-05,0,0,0,0,8.07E-05,0.033936,10.3,83.323,88.327,-0.021117,NaN,18.889,928.04,342.75,0.05,0.17703,777.63
4.0112,744.78,263.89,-21.511,263.96,21.512,14.346,0.0011152,14.346,0.0044538,6.0811,0.18108,28.61,-80.6,9.7861,0.067846,1.50E-06,-1.6213,0.018318,15503,0,11.632,0.026689,191.8,147.31,4.3198,0.7704,41101752,0,181.75,0.56607,0.56608,0.23693,0.13199,0.19716,0.010285,0.044361,-3.38E-04,0,0,0,0,-6.64E-05,0.033798,10.3,83.323,88.239,-0.0057642,NaN,18.779,926.57,342.68,0.05,0.17797,770.39
4.0612,757.95,262.81,-21.396,262.88,21.396,14.65,0.001137,14.65,0.0044468,6.0749,0.058093,28.61,-80.6,9.786,0.11112,1.54E-06,-1.1541,0.0096879,15503,0,11.632,0.026689,191.62,147.31,4.3026,0.76743,40898710,0,179.9,0.56555,0.56557,0.23721,0.13177,0.19656,0.016889,0.073124,1.69E-04,0,0,0,0,-3.39E-05,0.033661,10.3,83.323,88.169,0.015012,NaN,18.669,925.12,342.61,0.05,0.17897,763.23
4.1112,771.06,261.75,-21.283,261.82,21.284,14.953,0.0011625,14.953,0.0044544,6.0758,0.06876,28.61,-80.6,9.786,0.1542,1.62E-06,-0.43568,0.0076562,15503,0,11.632,0.026689,191.45,147.31,4.2856,0.76446,40698877,0,178.08,0.56503,0.56507,0.2375,0.13156,0.19597,0.023495,0.10076,-2.10E-04,0,0,0,0,-4.87E-06,0.033524,10.3,83.323,88.128,0.032882,NaN,18.559,923.73,342.55,0.05,0.18102,756.19
4.1612,784.12,260.68,-21.166,260.76,21.166,15.257,0.0011959,15.257,0.0044908,6.0788,0.024598,28.61,-80.6,9.7859,0.14015,1.94E-06,0.35054,0.0075974,15503,0,11.632,0.026689,191.48,147.31,4.2882,0.76152,40500685,0,176.28,0.56451,0.56455,0.23778,0.13135,0.19539,0.021329,0.091733,1.67E-04,0,0,0,0,3.18E-06,0.033388,10.3,83.323,88.127,0.044389,NaN,18.45,922.35,342.48,0.05,0.18331,749.23
4.2112,797.13,259.63,-21.046,259.7,21.046,15.561,0.0012392,15.561,0.0045627,6.076,0.13096,28.61,-80.6,9.7859,0.087234,1.82E-06,0.9321,0.010943,15503,0,11.632,0.026689,191.64,147.31,4.3042,0.75859,40303859,0,174.5,0.56401,0.56402,0.23806,0.13114,0.19481,0.013226,0.056738,-3.93E-04,0,0,0,0,2.27E-05,0.033253,10.3,83.323,88.16,0.046291,NaN,18.342,920.97,342.41,0.05,0.18443,742.35
4.2612,810.09,258.58,-20.927,258.65,20.929,15.865,0.0012923,15.865,0.0046673,6.0665,0.27213,28.61,-80.6,9.7859,0.036155,1.92E-06,1.2649,0.025836,15503,0,11.632,0.026689,191.8,147.31,4.3197,0.75567,40107777,0,172.74,0.5635,0.5635,0.23834,0.13093,0.19423,0.0054616,0.023417,4.55E-04,0,0,0,0,4.21E-05,0.033119,10.3,83.323,88.216,0.039374,NaN,18.233,919.6,342.35,0.05,0.1859,735.54
4.3112,822.99,257.54,-20.809,257.61,20.815,16.168,0.001353,16.168,0.0047949,6.0472,0.48068,28.61,-80.6,9.7858,0.039425,1.91E-06,-1.2409,0.025373,15503,0,11.632,0.026689,191.77,147.31,4.3164,0.75276,39913314,0,171.01,0.56301,0.56301,0.23862,0.13072,0.19367,0.0059552,0.02599,-3.67E-04,0,0,0,0,-4.08E-05,0.032985,10.3,83.323,88.28,0.022588,NaN,18.126,918.23,342.28,0.05,0.18692,728.8
4.3612,835.84,256.5,-20.696,256.57,20.704,16.469,0.0014173,16.469,0.0049307,6.0206,0.57681,28.61,-80.6,9.7858,0.077194,1.81E-06,-0.94609,0.010433,15503,0,11.632,0.026689,191.61,147.31,4.3012,0.74987,39719473,0,169.3,0.56252,0.56253,0.2389,0.13052,0.1931,0.011686,0.050509,-3.78E-04,0,0,0,0,-2.39E-05,0.032853,10.3,83.323,88.336,-3.37E-04,NaN,18.018,916.87,342.22,0.05,0.18786,722.13
4.4112,848.64,255.47,-20.585,255.54,20.595,16.77,0.0014805,16.77,0.0050583,5.9901,0.62783,28.61,-80.6,9.7858,0.098822,1.96E-06,-0.49608,0.0069678,15503,0,11.632,0.026689,191.51,147.31,4.2916,0.74699,39526909,0,167.61,0.56203,0.56205,0.23917,0.13032,0.19254,0.014977,0.064704,4.26E-04,0,0,0,0,-6.63E-06,0.03272,10.3,83.323,88.372,-0.023816,NaN,17.911,915.51,342.15,0.05,0.18898,715.54
4.4612,861.39,254.44,-20.478,254.51,20.487,17.068,0.0015383,17.068,0.0051637,5.9594,0.60267,28.61,-80.6,9.7857,0.093021,2.11E-06,-0.023073,0.0048578,15503,0,11.632,0.026689,191.51,147.31,4.2915,0.74412,39335454,0,165.93,0.56155,0.56157,0.23945,0.13012,0.19198,0.014088,0.060007,2.97E-04,0,0,0,0,-1.45E-08,0.032589,10.3,83.323,88.385,-0.038283,NaN,17.805,914.16,342.09,0.05,0.18996,709.01
4.5112,874.08,253.42,-20.372,253.49,20.38,17.366,0.0015882,17.366,0.00524,5.9299,0.57186,28.61,-80.6,9.7857,0.083635,2.12E-06,0.41026,0.0055173,15503,0,11.632,0.026689,191.52,147.31,4.2927,0.74127,39145556,0,164.28,0.56108,0.56109,0.23973,0.12992,0.19143,0.012656,0.054775,2.66E-04,0,0,0,0,4.61E-06,0.032458,10.3,83.323,88.375,-0.040808,NaN,17.699,912.82,342.02,0.05,0.19092,702.55
4.5612,886.73,252.4,-20.269,252.47,20.275,17.661,0.0016301,17.661,0.0052881,5.9027,0.50167,28.61,-80.6,9.7856,0.058887,2.26E-06,0.76287,0.0069174,15503,0,11.632,0.026689,191.59,147.31,4.2992,0.73844,38956897,0,162.65,0.56061,0.56062,0.24,0.12972,0.19089,0.0088937,0.038695,-2.38E-04,0,0,0,0,1.61E-05,0.032328,10.3,83.323,88.345,-0.031985,NaN,17.593,911.48,341.96,0.05,0.19186,696.16
4.6112,899.32,251.39,-20.168,251.46,20.172,17.956,0.0016657,17.956,0.005315,5.8806,0.38869,28.61,-80.6,9.7856,0.017436,2.30E-06,0.94114,0.020644,15503,0,11.632,0.026689,191.72,147.31,4.3116,0.73562,38769293,0,161.04,0.56015,0.56015,0.24028,0.12953,0.19035,0.0026254,0.011399,-1.61E-04,0,0,0,0,2.46E-05,0.032198,10.3,83.323,88.302,-0.014938,NaN,17.488,910.14,341.9,0.05,0.1929,689.83
4.6612,911.87,250.39,-20.067,250.46,20.07,18.25,0.0016984,18.25,0.0053321,5.8629,0.33354,28.61,-80.6,9.7856,0.0043302,2.30E-06,-0.96151,0.010854,15503,0,11.632,0.026689,191.74,147.31,4.3142,0.73282,38583289,0,159.45,0.5597,0.5597,0.24055,0.12933,0.18981,6.51E-04,0.0032552,-1.70E-04,0,0,0,0,-2.59E-05,0.03207,10.3,83.323,88.254,0.0049735,NaN,17.383,908.81,341.83,0.05,0.19435,683.57
4.7112,924.36,249.39,-19.967,249.45,19.969,18.542,0.001732,18.542,0.005352,5.8461,0.32252,28.61,-80.6,9.7855,0.010329,2.30E-06,-0.93946,-0.039192,15503,0,11.632,0.026689,191.7,147.31,4.3101,0.73004,38398716,0,157.89,0.55925,0.55925,0.24082,0.12914,0.18929,0.0015537,0.006626,4.23E-04,0,0,0,0,-2.50E-05,0.031941,10.3,83.323,88.206,0.022588,NaN,17.279,907.49,341.77,0.05,0.19615,677.37
4.7612,936.81,248.39,-19.869,248.46,19.871,18.834,0.0017701,18.834,0.0053847,5.8322,0.2319,28.61,-80.6,9.7855,0.045416,2.28E-06,-0.8145,-0.0098692,15503,0,11.632,0.026689,191.56,147.31,4.2959,0.72727,38214564,0,156.33,0.5588,0.55881,0.24109,0.12895,0.18876,0.0068459,0.028932,4.74E-04,0,0,0,0,-1.89E-05,0.031814,10.3,83.323,88.161,0.035546,NaN,17.175,906.17,341.71,0.05,0.1977,671.24
4.8112,949.2,247.4,-19.773,247.47,19.774,19.126,0.0018149,19.126,0.0054369,5.823,0.13612,28.61,-80.6,9.7854,0.082187,2.24E-06,-0.52211,-0.0064973,15503,0,11.632,0.026689,191.4,147.31,4.2813,0.7245,38031225,0,154.8,0.55836,0.55838,0.24136,0.12876,0.18824,0.012415,0.053238,8.13E-05,0,0,0,0,-7.83E-06,0.031687,10.3,83.323,88.127,0.040491,NaN,17.071,904.86,341.64,0.05,0.19906,665.17
4.8612,961.55,246.41,-19.678,246.48,19.678,19.417,0.0018674,19.417,0.0055103,5.8183,0.060312,28.61,-80.6,9.7854,0.11086,2.23E-06,-0.076647,-0.0038594,15503,0,11.632,0.026689,191.28,147.31,4.2695,0.72173,37848726,0,153.28,0.55793,0.55795,0.24164,0.12858,0.18772,0.016773,0.07122,-2.97E-04,0,0,0,0,-1.70E-07,0.031561,10.3,83.323,88.112,0.038393,NaN,16.968,903.55,341.58,0.05,0.20006,659.16
4.9112,973.84,245.43,-19.581,245.5,19.581,19.708,0.001927,19.708,0.0056022,5.8157,0.070976,28.61,-80.6,9.7854,0.10607,2.16E-06,0.43252,-0.0047118,15503,0,11.632,0.026689,191.28,147.31,4.2692,0.71899,37667472,0,151.78,0.5575,0.55752,0.24191,0.12839,0.1872,0.016039,0.068277,3.60E-04,0,0,0,0,5.46E-06,0.031435,10.3,83.323,88.121,0.030237,NaN,16.866,902.25,341.52,0.05,0.20134,653.21
4.9612,986.09,244.45,-19.48,244.52,19.481,19.998,0.0019916,19.998,0.0057061,5.8086,0.21252,28.61,-80.6,9.7853,0.050144,2.20E-06,0.77845,-0.0090251,15503,0,11.632,0.026689,191.46,147.31,4.2866,0.71627,37487887,0,150.3,0.55708,0.55708,0.24217,0.12821,0.1867,0.0075531,0.032355,2.02E-04,0,0,0,0,1.78E-05,0.03131,10.3,83.323,88.152,0.015134,NaN,16.763,900.95,341.46,0.05,0.2024,647.32
5.0112,998.29,243.48,-19.382,243.55,19.385,20.288,0.0020583,20.288,0.0058127,5.795,0.32369,28.61,-80.6,9.7853,0.003852,2.14E-06,0.88304,-0.1056,15503,0,11.632,0.026689,191.61,147.31,4.3008,0.71355,37308954,0,148.83,0.55666,0.55666,0.24244,0.12803,0.18619,5.78E-04,0.0028342,-1.49E-05,0,0,0,0,2.31E-05,0.031186,10.3,83.323,88.195,-0.0030475,NaN,16.661,899.66,341.4,0.05,0.20331,641.49
5.0612,1010.4,242.52,-19.287,242.59,19.29,20.578,0.0021233,20.578,0.0059121,5.7776,0.36721,28.61,-80.6,9.7853,0.017164,2.14E-06,-0.85785,-0.036455,15503,0,11.632,0.026689,191.54,147.31,4.2943,0.71084,37130528,0,147.38,0.55625,0.55625,0.24271,0.12785,0.18569,0.0025784,0.011156,2.21E-04,0,0,0,0,-2.20E-05,0.031062,10.3,83.323,88.239,-0.018312,NaN,16.56,898.37,341.33,0.05,0.20445,635.72
5.1112,1022.5,241.55,-19.193,241.62,19.197,20.866,0.0021842,20.866,0.0059976,5.7586,0.40769,28.61,-80.6,9.7852,0.036982,2.12E-06,-0.7544,-0.019424,15503,0,11.632,0.026689,191.45,147.31,4.2856,0.70814,36953189,0,145.94,0.55584,0.55584,0.24298,0.12767,0.18519,0.0055615,0.02345,6.91E-05,0,0,0,0,-1.72E-05,0.030939,10.3,83.323,88.28,-0.025477,NaN,16.459,897.09,341.27,0.05,0.20537,630
5.1612,1034.6,240.6,-19.099,240.67,19.106,21.153,0.0022399,21.153,0.006067,5.7354,0.51777,28.61,-80.6,9.7852,0.08389,2.04E-06,-0.49313,-0.0094333,15503,0,11.632,0.026689,191.26,147.31,4.2676,0.70546,36777591,0,144.53,0.55543,0.55545,0.24324,0.12749,0.1847,0.012652,0.053651,2.17E-04,0,0,0,0,-7.39E-06,0.030816,10.3,83.323,88.312,-0.024698,NaN,16.358,895.81,341.21,0.05,0.20628,624.35
5.2112,1046.6,239.64,-19.007,239.71,19.016,21.439,0.0022909,21.439,0.0061224,5.7075,0.56727,28.61,-80.6,9.7851,0.10629,2.20E-06,-0.067122,-0.0076032,15503,0,11.632,0.026689,191.17,147.31,4.2581,0.7028,36602875,0,143.14,0.55504,0.55505,0.24351,0.12732,0.18421,0.016049,0.06854,3.18E-04,0,0,0,0,-1.38E-07,0.030694,10.3,83.323,88.326,-0.015314,NaN,16.258,894.54,341.15,0.05,0.20753,618.75
5.2612,1058.6,238.7,-18.92,238.76,18.926,21.724,0.0023389,21.724,0.0061686,5.6814,0.48901,28.61,-80.6,9.7851,0.076646,2.24E-06,0.30604,-0.0084077,15503,0,11.632,0.026689,191.25,147.31,4.2665,0.70013,36428528,0,141.75,0.55464,0.55465,0.24378,0.12714,0.18372,0.011548,0.049762,-2.49E-04,0,0,0,0,2.89E-06,0.030573,10.3,83.323,88.319,-3.04E-04,NaN,16.158,893.27,341.09,0.05,0.20843,613.2
5.3112,1070.5,237.75,-18.832,237.82,18.838,22.008,0.0023863,22.008,0.0062126,5.6574,0.46097,28.61,-80.6,9.7851,0.065622,2.22E-06,0.60956,-0.012771,15503,0,11.632,0.026689,191.27,147.31,4.2685,0.69749,36255845,0,140.38,0.55425,0.55426,0.24404,0.12697,0.18324,0.0098776,0.04258,-2.57E-04,0,0,0,0,1.16E-05,0.030452,10.3,83.323,88.296,0.016305,NaN,16.058,892.01,341.03,0.05,0.20939,607.71
5.3612,1082.3,236.81,-18.747,236.88,18.751,22.29,0.002436,22.29,0.0062617,5.6362,0.38057,28.61,-80.6,9.785,0.032081,2.22E-06,0.81763,-0.025932,15503,0,11.632,0.026689,191.38,147.31,4.2784,0.69486,36083936,0,139.03,0.55387,0.55387,0.2443,0.1268,0.18277,0.0048171,0.020822,1.42E-04,0,0,0,0,2.10E-05,0.030331,10.3,83.323,88.26,0.031445,NaN,15.959,890.75,340.97,0.05,0.21135,602.28
5.4112,1094.2,235.88,-18.664,235.94,18.666,22.571,0.0024906,22.571,0.0063222,5.6197,0.29363,28.61,-80.6,9.785,0.0054385,2.22E-06,-0.84744,-0.14843,15503,0,11.632,0.026689,191.45,147.31,4.286,0.69224,35913014,0,137.69,0.55349,0.55349,0.24457,0.12663,0.1823,8.15E-04,0.0031035,3.75E-04,0,0,0,0,-2.27E-05,0.030212,10.3,83.323,88.217,0.039712,NaN,15.861,889.5,340.91,0.05,0.2127,596.89
5.4612,1105.9,234.95,-18.58,235.01,18.581,22.852,0.0025512,22.852,0.0063966,5.6056,0.25741,28.61,-80.6,9.785,0.022166,2.20E-06,-0.81563,-0.036123,15503,0,11.632,0.026689,191.38,147.31,4.2784,0.68964,35743423,0,136.37,0.55312,0.55312,0.24483,0.12646,0.18183,0.0033245,0.01379,3.68E-04,0,0,0,0,-2.12E-05,0.030092,10.3,83.323,88.175,0.039422,NaN,15.762,888.26,340.85,0.05,0.21424,591.56
5.5112,1117.6,234.02,-18.498,234.09,18.499,23.132,0.0026179,23.132,0.0064843,5.595,0.17119,28.61,-80.6,9.7849,0.05991,2.21E-06,-0.64688,-0.013707,15503,0,11.632,0.026689,191.22,147.31,4.2637,0.68703,35574246,0,135.07,0.55275,0.55275,0.24509,0.12629,0.18136,0.0090061,0.038312,4.82E-04,0,0,0,0,-1.34E-05,0.029974,10.3,83.323,88.138,0.032348,NaN,15.664,887.01,340.79,0.05,0.21638,586.28
5.5612,1129.3,233.1,-18.416,233.16,18.417,23.412,0.0026892,23.412,0.0065815,5.5877,0.12393,28.61,-80.6,9.7849,0.080929,2.25E-06,-0.36613,-0.0092954,15503,0,11.632,0.026689,191.13,147.31,4.2547,0.68445,35406082,0,133.78,0.55238,0.55239,0.24535,0.12613,0.1809,0.01218,0.051693,-2.73E-04,0,0,0,0,-4.34E-06,0.029856,10.3,83.323,88.112,0.02125,NaN,15.567,885.78,340.73,0.05,0.21809,581.05
5.6112,1141,232.18,-18.334,232.25,18.335,23.691,0.0027633,23.691,0.0066831,5.5822,0.1145,28.61,-80.6,9.7849,0.085114,2.31E-06,-0.028191,-0.0077804,15503,0,11.632,0.026689,191.1,147.31,4.2516,0.68187,35238852,0,132.5,0.55202,0.55203,0.24561,0.12596,0.18044,0.01281,0.054676,-1.97E-04,0,0,0,0,-2.59E-08,0.029738,10.3,83.323,88.102,0.0094488,NaN,15.47,884.54,340.67,0.05,0.2197,575.88
5.6612,1152.5,231.26,-18.251,231.33,18.251,23.97,0.002838,23.97,0.0067838,5.5749,0.17207,28.61,-80.6,9.7848,0.059452,2.37E-06,0.24978,-0.0088458,15503,0,11.632,0.026689,191.17,147.31,4.2589,0.67931,35072813,0,131.23,0.55166,0.55167,0.24587,0.1258,0.17999,0.008931,0.038241,-2.47E-04,0,0,0,0,2.05E-06,0.029621,10.3,83.323,88.108,-0.0017172,NaN,15.373,883.32,340.61,0.05,0.22129,570.75
5.7112,1164.1,230.35,-18.168,230.42,18.17,24.248,0.0029113,24.248,0.0068791,5.5652,0.22471,28.61,-80.6,9.7848,0.034658,2.37E-06,0.43756,-0.013991,15503,0,11.632,0.026689,191.25,147.31,4.2658,0.67675,34907445,0,129.98,0.55131,0.55131,0.24613,0.12564,0.17954,0.0051967,0.022208,2.61E-04,0,0,0,0,6.34E-06,0.029504,10.3,83.323,88.126,-0.01077,NaN,15.276,882.09,340.56,0.05,0.22313,565.67
5.7612,1175.6,229.45,-18.085,229.51,18.088,24.526,0.0029817,24.526,0.0069656,5.5517,0.32464,28.61,-80.6,9.7847,0.012063,2.37E-06,-0.48563,-0.0337,15503,0,11.632,0.026689,191.31,147.31,4.2721,0.67421,34743295,0,128.75,0.55096,0.55096,0.24639,0.12548,0.17909,0.0018056,0.0072996,-1.24E-04,0,0,0,0,-7.88E-06,0.029388,10.3,83.323,88.15,-0.01638,NaN,15.18,880.88,340.5,0.05,0.22474,560.64
5.8112,1187,228.54,-18.003,228.61,18.008,24.803,0.0030484,24.803,0.0070419,5.5323,0.43017,28.61,-80.6,9.7847,0.061718,2.35E-06,-0.33276,-0.0055808,15503,0,11.632,0.026689,191.12,147.31,4.2533,0.67169,3.46E+07,0,127.53,0.55062,0.55063,0.24665,0.12532,0.17865,0.0092666,0.038936,-2.97E-04,0,0,0,0,-3.73E-06,0.029273,10.3,83.323,88.171,-0.017087,NaN,15.085,879.66,340.44,0.05,0.22595,555.66
5.8612,1198.4,227.65,-17.925,227.71,17.93,25.079,0.0031115,25.079,0.0071085,5.5106,0.43225,28.61,-80.6,9.7847,0.065063,2.41E-06,-0.091399,-0.0045418,15503,0,11.632,0.026689,191.09,147.31,4.2505,0.66916,34417218,0,126.32,0.55028,0.55029,0.24691,0.12516,0.17821,0.009769,0.042021,3.47E-04,0,0,0,0,-2.83E-07,0.029158,10.3,83.323,88.182,-0.013611,NaN,14.99,878.45,340.38,0.05,0.22691,550.72
5.9112,1209.8,226.75,-17.849,226.82,17.853,25.354,0.0031716,25.354,0.0071673,5.4899,0.39284,28.61,-80.6,9.7846,0.048912,2.42E-06,0.12317,-0.0061774,15503,0,11.632,0.026689,191.13,147.31,4.2545,0.66663,34254981,0,125.12,0.54995,0.54995,0.24717,0.12501,0.17777,0.0073345,0.030779,1.35E-04,0,0,0,0,5.19E-07,0.029043,10.3,83.323,88.181,-0.0049499,NaN,14.895,877.25,340.33,0.05,0.22782,545.84
5.9612,1221.1,225.86,-17.774,225.93,17.777,25.628,0.0032303,25.628,0.0072218,5.4716,0.34051,28.61,-80.6,9.7846,0.025927,2.41E-06,0.25756,-0.0065357,15503,0,11.632,0.026689,191.2,147.31,4.261,0.66412,34093635,0,123.93,0.54961,0.54962,0.24743,0.12485,0.17734,0.003881,0.016642,-8.51E-05,0,0,0,0,2.29E-06,0.028929,10.3,83.323,88.171,0.0069243,NaN,14.8,876.05,340.27,0.05,0.22871,541
6.0112,1232.4,224.97,-17.698,225.04,17.701,25.902,0.0032894,25.902,0.0072764,5.4552,0.33131,28.61,-80.6,9.7846,0.022127,2.40E-06,0.33173,-0.010811,15503,0,11.632,0.026689,191.19,147.31,4.2608,0.66163,33933598,0,122.76,0.54929,0.54929,0.24768,0.1247,0.17691,0.0033107,0.014198,-4.29E-05,0,0,0,0,3.82E-06,0.028815,10.3,83.323,88.156,0.017625,NaN,14.706,874.86,340.21,0.05,0.2296,536.2
6.0612,1243.6,224.09,-17.622,224.16,17.626,26.174,0.0033507,26.174,0.0073349,5.437,0.38251,28.61,-80.6,9.7845,0.046135,2.37E-06,0.46772,-0.010662,15503,0,11.632,0.026689,191.09,147.31,4.2509,0.65916,33775045,0,121.61,0.54897,0.54897,0.24794,0.12455,0.17648,0.0069124,0.02976,-2.52E-04,0,0,0,0,7.66E-06,0.028702,10.3,83.323,88.136,0.026662,NaN,14.612,873.67,340.15,0.05,0.23125,531.45
6.1112,1254.8,223.21,-17.55,223.28,17.553,26.445,0.0034156,26.445,0.0074001,5.4188,0.33268,28.61,-80.6,9.7845,0.022552,2.41E-06,0.60197,-0.021104,15503,0,11.632,0.026689,191.16,147.31,4.2576,0.65668,33616541,0,120.46,0.54865,0.54865,0.24819,0.12439,0.17606,0.0033731,0.014694,-2.91E-04,0,0,0,0,1.28E-05,0.02859,10.3,83.323,88.109,0.031944,NaN,14.519,872.48,340.1,0.05,0.23303,526.74
6.1612,1265.9,222.34,-17.481,222.4,17.482,26.716,0.0034846,26.716,0.0074733,5.405,0.21572,28.61,-80.6,9.7845,0.033731,2.42E-06,-0.58293,-0.013826,15503,0,11.632,0.026689,191.11,147.31,4.2522,0.65421,3.35E+07,0,119.33,0.54833,0.54833,0.24845,0.12424,0.17564,0.0050477,0.021419,1.24E-04,0,0,0,0,-1.21E-05,0.028478,10.3,83.323,88.079,0.03172,NaN,14.426,871.35,340.04,0.05,0.23447,522.11
6.2112,1277,221.46,-17.411,221.53,17.412,26.986,0.0035579,26.986,0.007554,5.3969,0.1256,28.61,-80.6,9.7844,0.07748,2.42E-06,-0.37648,-0.0067231,15503,0,11.632,0.026689,190.94,147.31,4.2356,0.65174,33304488,0,118.21,0.54802,0.54803,0.2487,0.12409,0.17522,0.011626,0.049513,-1.83E-04,0,0,0,0,-5.08E-06,0.028366,10.3,83.323,88.054,0.026707,NaN,14.333,870.22,339.98,0.05,0.23544,517.52
6.2612,1288.1,220.6,-17.341,220.66,17.341,27.256,0.0036344,27.256,0.0076402,5.391,0.10308,28.61,-80.6,9.7844,0.088539,2.42E-06,-0.09328,-0.0059201,15503,0,11.632,0.026689,190.88,147.31,4.2304,0.64929,3.32E+07,0,117.11,0.54771,0.54772,0.24896,0.12395,0.17481,0.013292,0.056184,3.60E-04,0,0,0,0,-3.14E-07,0.028255,10.3,83.323,88.042,0.019235,NaN,14.241,869.1,339.93,0.05,0.23645,512.97
6.3112,1299.1,219.73,-17.271,219.8,17.271,27.525,0.003713,27.525,0.007729,5.3869,0.081206,28.61,-80.6,9.7844,0.098481,2.42E-06,0.24334,-0.007726,15503,0,11.632,0.026689,190.83,147.31,4.2255,0.64685,32996547,0,116.01,0.5474,0.54742,0.24921,0.1238,0.17439,0.014792,0.062613,-1.57E-04,0,0,0,0,2.16E-06,0.028144,10.3,83.323,88.046,0.0090466,NaN,14.149,867.99,339.87,0.05,0.23735,508.47
6.3612,1310,218.87,-17.199,218.93,17.199,27.794,0.0037919,27.794,0.0078168,5.3812,0.15059,28.61,-80.6,9.7843,0.06293,2.43E-06,0.52141,-0.011148,15503,0,11.632,0.026689,190.94,147.31,4.2364,0.64442,32844159,0,114.93,0.5471,0.54711,0.24946,0.12365,0.17399,0.0094279,0.039556,-4.94E-04,0,0,0,0,9.98E-06,0.028034,10.3,83.323,88.066,-0.001955,NaN,14.057,866.88,339.82,0.05,0.23831,504
6.4112,1321,218.01,-17.127,218.08,17.128,28.063,0.0038694,28.063,0.0079001,5.3717,0.23072,28.61,-80.6,9.7843,0.020581,2.41E-06,0.66253,-0.029096,15503,0,11.632,0.026689,191.08,147.31,4.2496,0.642,32692484,0,113.86,0.5468,0.5468,0.24971,0.12351,0.17358,0.003074,0.013001,-2.58E-04,0,0,0,0,1.62E-05,0.027924,10.3,83.323,88.096,-0.010742,NaN,13.966,865.77,339.76,0.05,0.23924,499.58
6.4612,1331.8,217.16,-17.055,217.22,17.059,28.331,0.0039442,28.331,0.0079766,5.3579,0.32952,28.61,-80.6,9.7843,0.032289,2.42E-06,-0.64939,-0.016427,15503,0,11.632,0.026689,191.02,147.31,4.2442,0.6396,32541719,0,112.8,0.54651,0.54651,0.24996,0.12337,0.17318,0.0048256,0.020331,2.90E-04,0,0,0,0,-1.57E-05,0.027814,10.3,83.323,88.129,-0.015486,NaN,13.875,864.67,339.71,0.05,0.24016,495.2
6.5112,1342.7,216.3,-16.984,216.37,16.99,28.599,0.0040157,28.599,0.0080452,5.3379,0.4716,28.61,-80.6,9.7842,0.10706,2.49E-06,-0.42365,-0.0049852,15503,0,11.632,0.026689,190.74,147.31,4.217,0.63721,32392259,0,111.76,0.54622,0.54624,0.25021,0.12322,0.17278,0.016076,0.067304,-3.82E-04,0,0,0,0,-6.74E-06,0.027705,10.3,83.323,88.157,-0.015552,NaN,13.785,863.57,339.65,0.05,0.2411,490.86
