# Time (s),Altitude (m),Vertical velocity (m/s),Vertical acceleration (m/s²),Total velocity (m/s),Total acceleration (m/s²),Position East of launch (m),Position North of launch (m),Lateral distance (m),Lateral direction (°),Lateral velocity (m/s),Lateral acceleration (m/s²),Latitude (°),Longitude (°),Gravitational acceleration (m/s²),Angle of attack (°),Roll rate (°/s),Pitch rate (°/s),Yaw rate (°/s),Mass (g),Propellant mass (g),Longitudinal moment of inertia (kg·m²),Rotational moment of inertia (kg·m²),CP location (cm),CG location (cm),Stability margin calibers (?),Mach number (?),Reynolds number (?),Thrust (N),Drag force (N),Drag coefficient (?),Axial drag coefficient (?),Friction drag coefficient (?),Pressure drag coefficient (?),Base drag coefficient (?),Normal force coefficient (?),Pitch moment coefficient (?),Yaw moment coefficient (?),Side force coefficient (?),Roll moment coefficient (?),Roll forcing coefficient (?),Roll damping coefficient (?),Pitch damping coefficient (?),Coriolis acceleration (m/s²),Reference length (cm),Reference area (cm²),Vertical orientation (zenith) (°),Lateral orientation (azimuth) (°),Wind velocity (m/s),Air temperature (°C),Air pressure (mbar),Speed of sound (m/s),Simulation time step (s),Computation time (s),Dynamic Pressure (mbar)
0,0,0,25.154,0,25.542,0,0,0,0,0,4.4353,28.61,-80.6,9.7884,80,0,0,0,18166,2663.3,13.153,0.028562,NaN,158.95,NaN,0.022088,3459.7,639.11,1.77E-05,1.8216,0.021848,1.5968,0.10476,0.12006,NaN,NaN,NaN,NaN,NaN,NaN,NaN,NaN,0,10.3,83.323,80,0,NaN,28.893,2.8414,348.81,0.01,0.0062217,0
0.01,0.0012577,0.25154,92.685,0.25542,94.115,2.22E-04,0,2.22E-04,0,0.044353,16.343,28.61,-80.6,9.7884,78.15,0,0,0,18166,2663.3,13.153,0.028562,NaN,158.95,NaN,0.022333,3498,1884.8,2.95E-05,1.8216,0.03559,1.5968,0.10476,0.12006,NaN,NaN,NaN,NaN,NaN,NaN,NaN,NaN,3.28E-05,10.3,83.323,80,0,NaN,28.893,2.8414,348.81,0.01,0.0082893,2.14E-06
0.02,0.0084085,1.1787,102.45,1.1969,104.03,0.0014826,0,0.0014826,0,0.20783,18.065,28.61,-80.6,9.7884,71.604,0,0,0,18160,2657.3,13.15,0.028558,NaN,158.93,NaN,0.023143,3625,2064.3,1.09E-04,1.8216,0.12293,1.5968,0.10476,0.12007,NaN,NaN,NaN,NaN,NaN,NaN,NaN,NaN,1.54E-04,10.3,83.323,80,0,NaN,28.893,2.8414,348.81,0.01,0.010474,4.69E-05
0.03,0.02532,2.2036,96.625,2.2376,98.116,0.0044645,0,0.0044645,0,0.38856,17.038,28.61,-80.6,9.7884,64.965,0,0,0,18152,2649.1,13.146,0.028552,NaN,158.9,NaN,0.024353,3814.5,1956,2.80E-04,1.8216,0.28381,1.5968,0.10477,0.12008,NaN,NaN,NaN,NaN,NaN,NaN,NaN,NaN,2.88E-04,10.3,83.323,80,0,NaN,28.893,2.8414,348.81,0.01,0.013317,1.64E-04
0.04,0.052189,3.1703,96.922,3.2193,98.417,0.0092023,0,0.0092023,0,0.55902,17.09,28.61,-80.6,9.7884,59.347,0,0,0,18142,2639.4,13.141,0.028545,NaN,158.87,NaN,0.02577,4036.4,1960.4,5.30E-04,1.8217,0.48044,1.5968,0.10477,0.12009,NaN,NaN,NaN,NaN,NaN,NaN,NaN,NaN,4.14E-04,10.3,83.323,80,0,NaN,28.892,2.8414,348.81,0.01,0.015558,3.40E-04
0.05,0.08874,4.14,97.217,4.2039,98.717,0.015647,0,0.015647,0,0.73,17.142,28.61,-80.6,9.7884,54.343,0,0,0,18133,2629.9,13.137,0.028538,NaN,158.83,NaN,0.027413,4293.7,1964.8,8.73E-04,1.8217,0.69949,1.5968,0.10477,0.1201,NaN,NaN,NaN,NaN,NaN,NaN,NaN,NaN,5.41E-04,10.3,83.323,80,0,NaN,28.892,2.8414,348.81,0.01,0.018184,5.79E-04
0.06,0.135,5.1127,97.513,5.1915,99.017,0.023805,0,0.023805,0,0.9015,17.194,28.61,-80.6,9.7884,49.839,0,0,0,18123,2620.4,13.132,0.028532,NaN,158.79,NaN,0.029173,4569.4,1969.2,0.0013098,1.8217,0.92647,1.5968,0.10478,0.12011,NaN,NaN,NaN,NaN,NaN,NaN,NaN,NaN,6.68E-04,10.3,83.323,80,0,NaN,28.892,2.8414,348.81,0.01,0.020559,8.83E-04
0.07,0.19101,6.0883,97.809,6.1822,99.318,0.03368,0,0.03368,0,1.0735,17.246,28.61,-80.6,9.7884,45.858,0,0,0,18114,2611,13.127,0.028525,NaN,158.76,NaN,0.031099,4871.1,1973.6,0.0018388,1.8217,1.1446,1.5967,0.10478,0.12013,NaN,NaN,NaN,NaN,NaN,NaN,NaN,NaN,7.95E-04,10.3,83.323,80,0,NaN,28.892,2.8413,348.81,0.01,0.021892,0.0012525
0.08,0.25678,7.0668,98.106,7.1758,99.619,0.045278,0,0.045278,0,1.2461,17.299,28.61,-80.6,9.7884,42.346,0,0,0,18104,2601.5,13.123,0.028518,NaN,158.72,NaN,0.033164,5194.5,1978,0.0024573,1.8217,1.345,1.5967,0.10479,0.12014,NaN,NaN,NaN,NaN,NaN,NaN,NaN,NaN,9.23E-04,10.3,83.323,80,0,NaN,28.892,2.8413,348.81,0.01,0.023133,0.0016875
0.09,0.33236,8.0483,98.402,8.1725,99.92,0.058604,0,0.058604,0,1.4191,17.351,28.61,-80.6,9.7884,39.246,0,0,0,18095,2592.1,13.118,0.028512,NaN,158.69,NaN,0.035346,5536.1,1982.5,0.0031616,1.8217,1.5235,1.5967,0.10479,0.12016,NaN,NaN,NaN,NaN,NaN,NaN,NaN,NaN,0.001051,10.3,83.323,80,0,NaN,28.891,2.8413,348.81,0.01,0.024639,0.0021888
0.1,0.41776,9.0328,98.699,9.1722,100.22,0.073663,0,0.073663,0,1.5927,17.403,28.61,-80.6,9.7884,36.506,0,0,0,18085,2582.6,13.113,0.028505,NaN,158.65,NaN,0.037625,5893.2,1986.9,0.0039479,1.8217,1.6789,1.5967,0.1048,0.12018,NaN,NaN,NaN,NaN,NaN,NaN,NaN,NaN,0.0011796,10.3,83.323,80,0,NaN,28.891,2.8413,348.81,0.01,0.02652,0.002757
0.11,0.51303,10.02,98.996,10.175,100.52,0.090461,0,0.090461,0,1.7668,17.456,28.61,-80.6,9.7884,33.812,0,0,0,18076,2573.2,13.109,0.028499,NaN,158.62,NaN,0.03981,6235.4,1991.3,0.0048069,1.8217,1.8259,1.5966,0.10481,0.12021,NaN,NaN,NaN,NaN,NaN,NaN,NaN,NaN,0.0013086,10.3,83.323,80,0,NaN,28.89,2.8413,348.81,0.01,0.028332,0.0033927
0.12,0.61818,11.011,99.294,11.181,100.83,0.109,0,0.109,0,1.9415,17.508,28.61,-80.6,9.7884,31.398,0,0,0,18066,2563.7,13.104,0.028492,NaN,158.58,NaN,0.042081,6591.1,1995.7,0.0057361,1.8217,1.9501,1.5966,0.10482,0.12023,NaN,NaN,NaN,NaN,NaN,NaN,NaN,NaN,0.0014379,10.3,83.323,80,0,NaN,28.89,2.8413,348.81,0.01,0.030433,0.0040966
0.13,0.73326,12.004,99.592,12.189,101.13,0.12929,0,0.12929,0,2.1167,17.561,28.61,-80.6,9.7884,29.228,0,0,0,18057,2554.3,13.099,0.028485,NaN,158.55,NaN,0.044427,6958.5,2000.1,0.0067307,1.8217,2.0529,1.5966,0.10483,0.12026,NaN,NaN,NaN,NaN,NaN,NaN,NaN,NaN,0.0015676,10.3,83.323,80,0,NaN,28.889,2.8413,348.81,0.01,0.032261,0.0048691
0.14,0.85828,13.001,99.89,13.201,101.43,0.15134,0,0.15134,0,2.2923,17.613,28.61,-80.6,9.7884,27.274,0,0,0,18047,2544.8,13.094,0.028479,NaN,158.51,NaN,0.046838,7336.1,2004.6,0.0077865,1.8217,2.1368,1.5966,0.10484,0.12029,NaN,NaN,NaN,NaN,NaN,NaN,NaN,NaN,0.0016978,10.3,83.323,80,0,NaN,28.889,2.8412,348.81,0.01,0.033973,0.0057109
0.15,0.99328,14,100.17,14.216,101.71,0.17514,0,0.17514,0,2.4686,17.662,28.61,-80.6,9.7884,25.508,0,0,0,18038,2535.4,13.09,0.028472,NaN,158.47,NaN,0.049306,7722.6,2008.6,0.0088994,1.8217,2.2038,1.5965,0.10485,0.12032,NaN,NaN,NaN,NaN,NaN,NaN,NaN,NaN,0.0018283,10.3,83.323,80,0,NaN,28.888,2.8412,348.81,0.01,0.03686,0.0066227
0.16,1.1383,15.002,100.31,15.233,101.86,0.20071,0,0.20071,0,2.6453,17.687,28.61,-80.6,9.7884,24.131,0,0,0,18028,2525.8,13.085,0.028465,NaN,158.44,NaN,0.051959,8138.1,2010.2,0.010088,1.8217,2.2496,1.5965,0.10486,0.12035,NaN,NaN,NaN,NaN,NaN,NaN,NaN,NaN,0.0019591,10.3,83.323,80,0,NaN,28.888,2.8412,348.8,0.01,0.038097,0.0076047
0.17,1.2933,16.006,100.43,16.253,101.98,0.22805,0,0.22805,0,2.8222,17.709,28.61,-80.6,9.7884,22.886,0,0,0,18019,2516.1,13.08,0.028458,NaN,158.4,NaN,0.054644,8558.5,2011.3,0.011335,1.8217,2.2854,1.5964,0.10487,0.12039,NaN,NaN,NaN,NaN,NaN,NaN,NaN,NaN,0.0020902,10.3,83.323,80,0,NaN,28.887,2.8412,348.8,0.01,0.039671,0.0086561
0.18,1.4584,17.011,100.56,17.273,102.11,0.25716,0,0.25716,0,2.9994,17.731,28.61,-80.6,9.7884,21.757,0,0,0,18009,2506.2,13.075,0.028451,NaN,158.36,NaN,0.057355,8983.1,2012.5,0.012638,1.8217,2.313,1.5964,0.10489,0.12043,NaN,NaN,NaN,NaN,NaN,NaN,NaN,NaN,0.0022214,10.3,83.323,80,0,NaN,28.886,2.8411,348.8,0.01,0.041708,0.009777
0.19,1.6335,18.017,100.68,18.295,102.24,0.28804,0,0.28804,0,3.1768,17.753,28.61,-80.6,9.7884,20.729,0,0,0,17999,2496.3,13.07,0.028445,NaN,158.33,NaN,0.06009,9411.3,2013.7,0.013996,1.8217,2.3336,1.5963,0.1049,0.12047,NaN,NaN,NaN,NaN,NaN,NaN,NaN,NaN,0.0023528,10.3,83.323,80,0,NaN,28.885,2.8411,348.8,0.01,0.043649,0.010968
0.2,1.8187,19.024,100.81,19.317,102.36,0.32069,0,0.32069,0,3.3544,17.775,28.61,-80.6,9.7884,19.79,0,0,0,17989,2486.5,13.065,0.028438,NaN,158.29,NaN,0.062846,9842.9,2014.8,0.015406,1.8217,2.3485,1.5963,0.10492,0.12051,NaN,NaN,NaN,NaN,NaN,NaN,NaN,NaN,0.0024844,10.3,83.323,80,0,NaN,28.884,2.8411,348.8,0.01,0.045703,0.012228
0.21,2.014,20.032,100.93,20.342,102.49,0.35513,0,0.35513,0,3.5323,17.797,28.61,-80.6,9.7884,19.264,0,0,0,17979,2476.6,13.06,0.028431,NaN,158.25,NaN,0.065835,10311,2016,0.016805,1.8057,2.3344,1.5802,0.10493,0.12056,NaN,NaN,NaN,NaN,NaN,NaN,NaN,NaN,0.0026161,10.3,83.323,80,0,NaN,28.884,2.841,348.8,0.01,0.049213,0.013559
0.22,2.2194,21.042,101.06,21.367,102.62,0.39134,0,0.39134,0,3.7103,17.819,28.61,-80.6,9.7884,18.783,0,0,0,17969,2466.8,13.055,0.028424,NaN,158.21,NaN,0.068832,10780,2017.2,0.018151,1.7805,2.3066,1.5549,0.10495,0.12062,NaN,NaN,NaN,NaN,NaN,NaN,NaN,NaN,0.002748,10.3,83.323,80,0,NaN,28.883,2.841,348.8,0.01,0.051277,0.01496
0.23,2.4349,22.053,101.18,22.394,102.74,0.42933,0,0.42933,0,3.8886,17.841,28.61,-80.6,9.7883,18.342,0,0,0,17960,2456.9,13.051,0.028417,NaN,158.18,NaN,0.071837,11251,2018.4,0.019537,1.7568,2.2794,1.5312,0.10497,0.12067,NaN,NaN,NaN,NaN,NaN,NaN,NaN,NaN,0.00288,10.3,83.323,80,0,NaN,28.882,2.841,348.8,0.01,0.053298,0.016433
0.24,2.6605,23.066,101.31,23.422,102.87,0.46911,0,0.46911,0,4.0671,17.863,28.61,-80.6,9.7883,17.935,0,0,0,17950,2447.1,13.046,0.02841,NaN,158.14,NaN,0.07485,11723,2019.5,0.020963,1.7346,2.2528,1.5089,0.10499,0.12073,NaN,NaN,NaN,NaN,NaN,NaN,NaN,NaN,0.0030122,10.3,83.323,80,0,NaN,28.881,2.8409,348.8,0.01,0.055214,0.017976
0.25,2.8962,24.079,101.43,24.451,103,0.51068,0,0.51068,0,4.2458,17.885,28.61,-80.6,9.7883,17.558,0,0,0,17940,2437.2,13.041,0.028403,NaN,158.1,NaN,0.07787,12195,2020.7,0.022428,1.7137,2.227,1.4879,0.10501,0.12079,NaN,NaN,NaN,NaN,NaN,NaN,NaN,NaN,0.0031446,10.3,83.323,80,0,NaN,28.879,2.8409,348.8,0.01,0.057126,0.01959
0.26,3.1421,25.094,101.56,25.481,103.12,0.55403,0,0.55403,0,4.4248,17.907,28.61,-80.6,9.7883,16.946,0,0,0,17930,2427.4,13.036,0.028396,NaN,158.06,NaN,0.080706,12640,2021.9,0.023838,1.6951,2.2036,1.4692,0.10503,0.12085,NaN,NaN,NaN,NaN,NaN,NaN,NaN,NaN,0.0032771,10.3,83.323,80,0,NaN,28.878,2.8409,348.8,0.01,0.059118,0.021276
0.27,3.3981,26.11,101.68,26.513,103.25,0.59917,0,0.59917,0,4.6039,17.929,28.61,-80.6,9.7883,16.375,0,0,0,17920,2417.5,13.031,0.028389,NaN,158.02,NaN,0.083555,13086,2023.1,0.025261,1.6774,2.1787,1.4515,0.10505,0.12091,NaN,NaN,NaN,NaN,NaN,NaN,NaN,NaN,0.0034098,10.3,83.323,80,0,NaN,28.877,2.8408,348.8,0.01,0.061049,0.023033
0.28,3.6643,27.128,101.81,27.546,103.38,0.64611,0,0.64611,0,4.7833,17.952,28.61,-80.6,9.7883,15.841,0,0,0,17910,2407.6,13.026,0.028382,NaN,157.99,NaN,0.086415,13533,2024.2,0.026691,1.6606,2.1521,1.4346,0.10507,0.12097,NaN,NaN,NaN,NaN,NaN,NaN,NaN,NaN,0.0035426,10.3,83.323,80,0,NaN,28.876,2.8408,348.8,0.01,0.063043,0.024863
0.29,3.9406,28.146,101.93,28.58,103.51,0.69484,0,0.69484,0,4.9629,17.974,28.61,-80.6,9.7883,15.34,0,0,0,17900,2397.8,13.021,0.028375,NaN,157.95,NaN,0.089286,13983,2025.4,0.02813,1.6445,2.1247,1.4184,0.1051,0.12104,NaN,NaN,NaN,NaN,NaN,NaN,NaN,NaN,0.0036757,10.3,83.323,80,0,NaN,28.875,2.8407,348.8,0.01,0.065328,0.026765
0.3,4.2272,29.166,102.06,29.616,103.63,0.74537,0,0.74537,0,5.1427,17.996,28.61,-80.6,9.7883,14.87,0,0,0,17891,2387.9,13.016,0.028368,NaN,157.91,NaN,0.092166,14434,2026.6,0.029581,1.6292,2.0969,1.403,0.10512,0.1211,NaN,NaN,NaN,NaN,NaN,NaN,NaN,NaN,0.0038088,10.3,83.323,80,0,NaN,28.873,2.8407,348.8,0.01,0.067944,0.028739
0.31,4.524,30.187,102.19,30.653,103.76,0.7977,0,0.7977,0,5.3228,18.018,28.61,-80.6,9.7883,14.558,0,0,0,17881,2378.1,13.011,0.028361,NaN,157.87,NaN,0.095154,14902,2027.8,0.031142,1.614,2.0711,1.3877,0.10514,0.12118,NaN,NaN,NaN,NaN,NaN,NaN,NaN,NaN,0.0039422,10.3,83.323,80,0,NaN,28.872,2.8406,348.8,0.01,0.069816,0.030786
0.32,4.8309,31.209,102.31,31.691,103.89,0.85183,0,0.85183,0,5.5031,18.04,28.61,-80.6,9.7883,14.264,0,0,0,17871,2368.2,13.006,0.028354,NaN,157.84,NaN,0.098148,15370,2028.9,0.032732,1.5995,2.0461,1.3731,0.10517,0.12125,NaN,NaN,NaN,NaN,NaN,NaN,NaN,NaN,0.0040757,10.3,83.323,80,0,NaN,28.871,2.8406,348.79,0.01,0.071731,0.032906
0.33,5.1482,32.233,102.44,32.73,104.02,0.90776,0,0.90776,0,5.6836,18.063,28.61,-80.6,9.7883,13.987,0,0,0,17861,2358.4,13.001,0.028348,NaN,157.8,NaN,0.10115,15840,2030.1,0.034351,1.5857,2.0218,1.3591,0.1052,0.12133,NaN,NaN,NaN,NaN,NaN,NaN,NaN,NaN,0.0042094,10.3,83.323,80,0,NaN,28.869,2.8405,348.79,0.01,0.073632,0.0351
0.34,5.4756,33.258,102.27,33.771,104.16,0.9655,0,0.9655,0,5.8643,19.751,28.61,-80.6,9.7883,13.725,0,0,0,17851,2348.5,12.996,0.028341,164.84,157.76,0.68713,0.10415,16310,2031.6,0.035999,1.5724,1.9983,1.3457,0.10522,0.12141,3.8316,2.6329,3.86E-04,0,0,0,0,0,0.0043432,10.3,83.323,80,0,NaN,28.868,2.8405,348.79,0.015,0.1057,0.037367
0.355,5.986,34.793,102.46,35.334,104.35,1.0557,4.68E-08,1.0557,2.54E-06,6.1607,19.784,28.61,-80.6,9.7883,13.325,0,3.40E-04,0,17839,2336.2,12.989,0.028332,165.2,157.71,0.72744,0.10863,17011,2033.8,0.038483,1.5536,1.9638,1.3268,0.10527,0.12153,3.6701,2.6699,-4.21E-04,0,0,0,0,0,0.0045445,10.3,83.323,80,0,NaN,28.865,2.8404,348.79,0.0225,0.10834,0.040906
0.3775,6.7948,37.101,102.75,37.685,104.64,1.1993,3.00E-07,1.1993,1.43E-05,6.6064,19.834,28.61,-80.6,9.7883,12.578,0,9.16E-04,0,17820,2317.7,12.98,0.028319,165.92,157.64,0.80399,0.1152,18039,2037.1,0.042083,1.5282,1.9097,1.3011,0.10533,0.12173,3.3763,2.7147,3.46E-05,0,0,0,0,0,0.004847,10.3,83.323,80,0,NaN,28.862,2.8403,348.79,0.03375,0.11266,0.046527
0.41125,8.1056,40.575,103.18,41.222,105.08,1.4336,1.12E-06,1.4336,4.49E-05,7.2768,19.91,28.61,-80.6,9.7883,11.644,0,0.0019263,0,17793,2290,12.966,0.028299,166.88,157.53,0.90768,0.12516,19597,2042,0.047753,1.4935,1.8361,1.266,0.10544,0.12204,3.0229,2.7434,4.37E-04,0,0,0,0,0,0.0053023,10.3,83.323,80,0,NaN,28.856,2.84,348.79,0.05,0.11645,0.055669
0.46125,10.264,45.747,103.82,46.489,105.73,1.8224,3.42E-06,1.8224,1.08E-04,8.2746,20.022,28.61,-80.6,9.7883,10.645,0,0.0037673,0,17751,2248.7,12.945,0.02827,168,157.37,1.0316,0.14016,21945,2047.9,0.056948,1.4483,1.7461,1.2202,0.10562,0.12255,2.6625,2.7466,-2.54E-04,0,0,0,0,1.05E-08,0.0059802,10.3,83.323,80,1.76E-08,NaN,28.846,2.8397,348.78,0.05,0.11853,0.070797
0.51125,12.681,50.951,104.46,51.789,106.38,2.2612,7.16E-06,2.2612,1.82E-04,9.278,20.134,28.61,-80.6,9.7883,9.9316,0,0.0060544,0,17702,2199.5,12.919,0.028236,168.86,157.18,1.1339,0.1554,24328,2053.7,0.067087,1.4094,1.6737,1.1804,0.10582,0.12314,2.4165,2.7401,-3.21E-06,0,0,0,0,2.20E-08,0.0066624,10.3,83.323,80,1.23E-08,NaN,28.835,2.8393,348.77,0.05,0.12192,0.08785
0.56125,15.359,56.187,105.11,57.121,107.04,2.7503,1.25E-05,2.7503,2.61E-04,10.287,20.248,28.61,-80.6,9.7883,9.2341,0,0.008825,3.18E-07,17653,2150.2,12.894,0.028201,169.75,156.98,1.2397,0.17063,26710,2059.6,0.077738,1.3758,1.6088,1.146,0.10604,0.12378,2.1851,2.7093,1.82E-04,0,0,0,0,3.87E-08,0.0073487,10.3,83.323,79.999,-1.99E-08,NaN,28.823,2.8388,348.77,0.05,0.12425,0.10686
0.61125,18.3,61.456,105.76,62.487,107.7,3.29,1.97E-05,3.29,3.43E-04,11.302,20.362,28.61,-80.6,9.7883,8.3567,0,0.012061,4.90E-07,17604,2100.9,12.868,0.028166,170.96,156.79,1.3757,0.18566,29060,2065.5,0.088299,1.3468,1.5437,1.116,0.10628,0.12448,1.9069,2.6236,-2.41E-05,0,0,0,0,6.11E-08,0.0080393,10.3,83.323,79.999,-7.53E-08,NaN,28.809,2.8384,348.76,0.05,0.12897,0.12786
0.66125,21.506,66.758,106.41,67.885,108.36,3.8806,2.88E-05,3.8806,4.26E-04,12.322,20.478,28.61,-80.6,9.7883,7.5403,0,0.015738,7.94E-07,17554,2051.6,12.842,0.028132,172.17,156.59,1.5127,0.20076,31418,2071.3,0.099344,1.321,1.4858,1.0892,0.10654,0.12524,1.6611,2.5126,3.24E-04,0,0,0,0,8.89E-08,0.0087342,10.3,83.323,79.998,-1.68E-07,NaN,28.795,2.8378,348.75,0.05,0.13197,0.15089
0.71125,24.977,72.092,107.07,73.317,109.03,4.5223,4.01E-05,4.5223,5.08E-04,13.349,20.595,28.61,-80.6,9.7883,6.7729,0,0.01979,8.58E-07,17505,2002.3,12.816,0.028097,173.41,156.4,1.6515,0.21591,33785,2077.2,0.11089,1.2979,1.4341,1.0651,0.10683,0.12606,1.4417,2.3805,1.69E-04,0,0,0,0,1.22E-07,0.0094333,10.3,83.323,79.997,-2.78E-07,NaN,28.779,2.8372,348.74,0.05,0.13396,0.17597
0.76125,28.715,77.459,107.73,78.782,109.7,5.2156,5.37E-05,5.2156,5.90E-04,14.381,20.713,28.61,-80.6,9.7883,6.4625,0,0.024333,0,17456,1953.1,12.79,0.028063,173.94,156.2,1.7229,0.23162,36238,2083.1,0.12459,1.2765,1.4004,1.0424,0.10714,0.12697,1.3563,2.3368,-1.72E-04,0,0,0,0,1.60E-07,0.010137,10.3,83.323,79.996,-2.63E-07,NaN,28.762,2.8366,348.73,0.05,0.13595,0.20315
0.81125,32.723,82.859,108.39,84.281,110.37,5.9605,6.98E-05,5.9605,6.71E-04,15.419,20.831,28.61,-80.6,9.7883,6.0591,0,0.029396,5.54E-07,17406,1903.8,12.764,0.028028,174.66,156,1.812,0.24726,38680,2089,0.13855,1.2572,1.3668,1.0218,0.10748,0.12795,1.2481,2.2611,-2.05E-04,0,0,0,0,2.05E-07,0.010844,10.3,83.323,79.995,-1.12E-07,NaN,28.744,2.836,348.72,0.05,0.1379,0.23246
0.86125,37.002,88.292,109.06,89.814,111.05,6.7576,8.87E-05,6.7576,7.52E-04,16.463,20.951,28.61,-80.6,9.7882,5.7389,0,0.035005,1.34E-06,17357,1854.5,12.738,0.027993,175.26,155.8,1.8894,0.26307,41146,2094.8,0.15349,1.2396,1.3381,1.0027,0.10784,0.129,1.1645,2.2006,-1.00E-05,0,0,0,0,2.56E-07,0.011557,10.3,83.323,79.993,1.59E-08,NaN,28.724,2.8353,348.71,0.05,0.13991,0.26393
0.91125,41.553,93.759,109.73,95.38,111.73,7.607,1.10E-04,7.607,8.31E-04,17.513,21.073,28.61,-80.6,9.7882,5.3347,0,0.041086,1.85E-06,17308,1805.2,12.711,0.027959,176.03,155.59,1.9844,0.27882,43602,2100.7,0.16867,1.2236,1.3093,0.98522,0.10823,0.13011,1.0617,2.1065,-2.89E-04,0,0,0,0,3.14E-07,0.012273,10.3,83.323,79.991,8.67E-08,NaN,28.703,2.8345,348.69,0.05,0.14218,0.29761
0.96125,46.379,99.259,110.4,100.98,112.42,8.509,1.35E-04,8.509,9.10E-04,18.569,21.195,28.61,-80.6,9.7882,5.18,0,0.047744,1.68E-06,17259,1756,12.685,0.027924,176.36,155.39,2.0354,0.29498,46120,2106.6,0.18581,1.2085,1.289,0.96859,0.10864,0.13131,1.0234,2.0831,-1.70E-04,0,0,0,0,3.79E-07,0.012994,10.3,83.323,79.989,2.58E-07,NaN,28.681,2.8337,348.68,0.05,0.14441,0.33352
1.0113,51.48,104.79,111.08,106.62,113.11,9.464,1.63E-04,9.464,9.87E-04,19.632,21.319,28.61,-80.6,9.7882,5.0887,0,0.055156,1.82E-06,17209,1706.7,12.658,0.027889,176.56,155.19,2.0752,0.31131,48663,2112.4,0.20411,1.1947,1.2718,0.95296,0.10909,0.1326,1.0012,2.0782,-1.81E-05,0,0,0,0,4.55E-07,0.013719,10.3,83.323,79.986,6.02E-07,NaN,28.658,2.8329,348.67,0.05,0.14606,0.3717
1.0613,56.859,110.36,111.76,112.29,113.8,10.472,1.94E-04,10.472,0.0010641,20.7,21.445,28.61,-80.6,9.7882,4.8913,0,0.063321,1.86E-06,17160,1657.4,12.631,0.027855,176.98,154.98,2.1358,0.32757,51194,2118.3,0.22261,1.1819,1.2531,0.93844,0.10956,0.13395,0.95329,2.036,-2.18E-04,0,0,0,0,5.41E-07,0.014449,10.3,83.323,79.983,1.13E-06,NaN,28.634,2.832,348.65,0.05,0.14973,0.41219
1.1113,62.517,115.96,111.99,117.99,114.03,11.534,2.30E-04,11.534,0.0011401,21.775,21.492,28.61,-80.6,9.7882,4.5026,0,0.072004,3.10E-06,17111,1608.1,12.604,0.02782,177.8,154.77,2.2356,0.3436,53688,2116.2,0.24058,1.1704,1.2312,0.925,0.11004,0.13535,0.8607,1.9245,3.25E-04,0,0,0,0,6.36E-07,0.015183,10.3,83.323,79.98,1.84E-06,NaN,28.608,2.8311,348.64,0.05,0.15171,0.45502
1.1613,68.455,121.58,111.77,123.71,113.81,12.65,2.68E-04,12.65,0.0012154,22.853,21.461,28.61,-80.6,9.7881,4.1494,0,0.080913,3.96E-06,17061,1558.6,12.577,0.027785,178.58,154.57,2.3317,0.35969,56189,2106.3,0.25937,1.1597,1.2117,0.91229,0.11056,0.13682,0.77913,1.817,-4.96E-04,0,0,0,0,7.33E-07,0.015919,10.3,83.323,79.976,2.75E-06,NaN,28.581,2.8301,348.62,0.05,0.15366,0.50005
1.2113,74.674,127.18,111.55,129.41,113.59,13.819,3.11E-04,13.819,0.0012901,23.929,21.43,28.61,-80.6,9.7881,4.227,0,0.090691,4.04E-06,17011,1508.8,12.549,0.02775,178.45,154.35,2.3395,0.37642,58789,2096.5,0.28184,1.1494,1.2027,0.89982,0.11111,0.13842,0.79737,1.865,-9.41E-05,0,0,0,0,8.41E-07,0.016653,10.3,83.323,79.972,3.84E-06,NaN,28.552,2.829,348.6,0.05,0.1558,0.54709
1.2613,81.173,132.77,111.33,135.11,113.37,15.043,3.58E-04,15.043,0.0013642,25.003,21.4,28.61,-80.6,9.7881,4.0578,0,0.10135,5.12E-06,16962,1459,12.521,0.027715,178.85,154.14,2.3992,0.39271,61317,2086.6,0.3032,1.1401,1.1892,0.88833,0.11168,0.14005,0.75913,1.8213,3.00E-04,0,0,0,0,9.65E-07,0.017386,10.3,83.323,79.967,5.20E-06,NaN,28.523,2.828,348.58,0.05,0.15873,0.59613
1.3113,87.951,138.36,111.11,140.79,113.15,16.32,4.10E-04,16.32,0.0014378,26.076,21.372,28.61,-80.6,9.7881,3.8199,0,0.11259,6.63E-06,16912,1409.1,12.493,0.02768,179.42,153.93,2.4747,0.40883,63816,2076.7,0.3246,1.1315,1.1752,0.87752,0.11227,0.14173,0.70607,1.7475,8.14E-06,0,0,0,0,1.10E-06,0.018118,10.3,83.323,79.962,6.90E-06,NaN,28.492,2.8269,348.56,0.05,0.16094,0.64715
1.3613,95.008,143.93,110.89,146.46,112.92,17.65,4.65E-04,17.65,0.0015109,27.147,21.344,28.61,-80.6,9.7881,3.5737,0,0.12414,8.92E-06,16862,1359.3,12.465,0.027645,180.02,153.71,2.5537,0.42488,66303,2066.9,0.3465,1.1236,1.162,0.86725,0.11287,0.14347,0.65227,1.6659,-3.50E-04,0,0,0,0,1.24E-06,0.018848,10.3,83.323,79.956,8.73E-06,NaN,28.46,2.8257,348.55,0.05,0.16302,0.70013
1.4113,102.34,149.48,110.66,152.12,112.69,19.034,5.26E-04,19.034,0.0015836,28.217,21.316,28.61,-80.6,9.788,3.5427,0,0.13649,1.02E-05,16812,1309.5,12.437,0.02761,180.13,153.5,2.5858,0.44127,68841,2056.9,0.3709,1.1161,1.1536,0.85724,0.11352,0.14531,0.64597,1.6707,5.69E-05,0,0,0,0,1.39E-06,0.019577,10.3,83.323,79.949,1.08E-05,NaN,28.426,2.8245,348.53,0.05,0.16534,0.75506
1.4613,109.96,155.03,110.25,157.77,112.28,20.472,5.92E-04,20.472,0.001656,29.286,21.259,28.61,-80.6,9.788,3.3673,0,0.14946,1.12E-05,16763,1259.9,12.409,0.027575,180.58,153.28,2.6508,0.45735,71328,2044,0.39464,1.1092,1.1432,0.84783,0.11418,0.14719,0.60857,1.6131,3.58E-04,0,0,0,0,1.55E-06,0.020304,10.3,83.323,79.942,1.34E-05,NaN,28.392,2.8232,348.5,0.05,0.16745,0.81192
1.5113,117.85,160.56,109.74,163.4,111.77,21.963,6.62E-04,21.963,0.0017281,30.352,21.184,28.61,-80.6,9.788,3.3478,0,0.1633,1.23E-05,16714,1211.2,12.381,0.027541,180.67,153.06,2.6804,0.47366,73849,2029.5,0.42048,1.1027,1.1361,0.83866,0.11487,0.14917,0.60486,1.6216,-4.87E-04,0,0,0,0,1.72E-06,0.021028,10.3,83.323,79.934,1.67E-05,NaN,28.356,2.8219,348.48,0.05,0.17099,0.87058
1.5613,126.01,166.06,109.23,169.01,111.25,23.507,7.38E-04,23.507,0.0017999,31.414,21.11,28.61,-80.6,9.788,3.2996,0,0.17809,1.47E-05,16666,1163.4,12.353,0.027507,180.83,152.85,2.7166,0.48984,76348,2015.1,0.44668,1.0967,1.1291,0.82992,0.11558,0.15119,0.59504,1.6163,-1.86E-04,0,0,0,0,1.92E-06,0.021749,10.3,83.323,79.926,2.03E-05,NaN,28.318,2.8206,348.46,0.05,0.17312,0.93098
1.6113,134.45,171.54,108.71,174.58,110.73,25.104,8.20E-04,25.104,0.0018714,32.473,21.036,28.61,-80.6,9.7879,3.3163,0,0.19415,1.57E-05,16618,1115.5,12.325,0.027474,180.84,152.64,2.7382,0.50608,78853,2000.6,0.47424,1.0911,1.1236,0.82147,0.11632,0.1533,0.59907,1.6399,1.25E-04,0,0,0,0,2.13E-06,0.022467,10.3,83.323,79.917,2.45E-05,NaN,28.28,2.8192,348.44,0.05,0.17516,0.99307
1.6613,143.16,176.99,108.19,180.13,110.2,26.754,9.07E-04,26.754,0.0019428,33.527,20.964,28.61,-80.6,9.7879,3.1482,0,0.21097,2.04E-05,16570,1067.6,12.297,0.02744,181.3,152.43,2.8032,0.52185,81283,1986.2,0.50033,1.086,1.1154,0.81354,0.11706,0.1554,0.56394,1.5807,-1.31E-04,0,0,0,0,2.37E-06,0.023182,10.3,83.323,79.906,2.93E-05,NaN,28.24,2.8177,348.41,0.05,0.17714,1.0568
1.7113,152.15,182.41,107.66,185.66,109.67,28.457,0.0010003,28.457,0.002014,34.579,20.892,28.61,-80.6,9.7879,3.0094,0,0.22838,2.15E-05,16522,1019.7,12.269,0.027406,181.69,152.21,2.8625,0.5376,83706,1971.7,0.52727,1.0813,1.1082,0.80588,0.11783,0.15757,0.53539,1.5329,5.09E-05,0,0,0,0,2.62E-06,0.023893,10.3,83.323,79.895,3.50E-05,NaN,28.199,2.8162,348.39,0.05,0.17926,1.1222
1.7613,161.4,187.81,107.12,191.16,109.12,30.212,0.0010994,30.212,0.002085,35.626,20.82,28.61,-80.6,9.7879,2.7697,0,0.24582,2.61E-05,16475,971.88,12.241,0.027373,182.35,151.99,2.9476,0.55304,86079,1957,0.55351,1.077,1.0999,0.7986,0.1186,0.15976,0.48658,1.4338,-1.83E-04,0,0,0,0,2.87E-06,0.024601,10.3,83.323,79.884,4.21E-05,NaN,28.157,2.8147,348.36,0.05,0.18146,1.1892
1.8113,170.93,193.18,106.5,196.63,108.49,32.019,0.0012048,32.019,0.0021559,36.671,20.734,28.61,-80.6,9.7878,2.7222,0,0.26367,2.64E-05,16428,925.26,12.213,0.02734,182.54,151.78,2.9864,0.56882,88501,1941.1,0.58259,1.0729,1.095,0.79138,0.11941,0.16206,0.4774,1.4261,3.35E-04,0,0,0,0,3.12E-06,0.025305,10.3,83.323,79.871,5.05E-05,NaN,28.114,2.8131,348.34,0.05,0.18405,1.2577
1.8613,180.72,198.51,105.84,202.06,107.84,33.879,0.0013166,33.879,0.0022267,37.71,20.645,28.61,-80.6,9.7878,2.759,0,0.28283,2.77E-05,16383,880.79,12.187,0.027309,182.52,151.58,3.004,0.5847,90937,1925.2,0.61333,1.069,1.0916,0.78431,0.12026,0.16444,0.48532,1.4579,7.75E-07,0,0,0,0,3.39E-06,0.026005,10.3,83.323,79.857,6.07E-05,NaN,28.069,2.8115,348.31,0.05,0.18613,1.3276
1.9113,190.78,203.82,105.18,207.47,107.17,35.79,0.0014351,35.79,0.0022974,38.745,20.555,28.61,-80.6,9.7878,2.7594,0,0.30338,2.94E-05,16340,837.2,12.161,0.027278,182.59,151.38,3.0307,0.60041,93343,1909.2,0.64421,1.0655,1.088,0.7775,0.12112,0.16686,0.48589,1.4722,2.55E-04,0,0,0,0,3.71E-06,0.026701,10.3,83.323,79.843,7.19E-05,NaN,28.023,2.8099,348.28,0.05,0.18803,1.399
1.9613,201.1,209.09,104.52,212.84,106.51,37.753,0.0015604,37.753,0.0023681,39.776,20.467,28.61,-80.6,9.7877,2.733,0,0.32524,3.22E-05,16296,793.62,12.134,0.027247,182.74,151.18,3.0645,0.61596,95722,1893.3,0.67529,1.0622,1.0843,0.77093,0.12199,0.16932,0.48099,1.4742,-4.80E-04,0,0,0,0,4.05E-06,0.027392,10.3,83.323,79.827,8.47E-05,NaN,27.976,2.8082,348.25,0.05,0.18947,1.4717
2.0113,211.69,214.33,103.85,218.18,105.83,39.768,0.0016927,39.768,0.0024387,40.803,20.381,28.61,-80.6,9.7877,2.6336,0,0.34789,3.97E-05,16253,750.03,12.108,0.027217,183.08,150.97,3.1168,0.63124,98055,1877.3,0.70584,1.0593,1.0798,0.76464,0.12287,0.1718,0.46139,1.4377,2.89E-05,0,0,0,0,4.41E-06,0.028079,10.3,83.323,79.81,9.83E-05,NaN,27.928,2.8064,348.22,0.05,0.19068,1.5458
2.0613,222.53,219.53,103.18,223.48,105.16,41.833,0.0018322,41.833,0.0025094,41.825,20.295,28.61,-80.6,9.7877,2.6045,0,0.37135,4.56E-05,16209,706.44,12.082,0.027186,183.24,150.77,3.1522,0.6466,100398,1861.3,0.73792,1.0566,1.0766,0.75845,0.12378,0.17435,0.45602,1.4372,-4.36E-04,0,0,0,0,4.79E-06,0.028762,10.3,83.323,79.792,1.13E-04,NaN,27.879,2.8046,348.19,0.05,0.19222,1.6211
2.1113,233.64,224.71,102.5,228.75,104.48,43.95,0.001979,43.95,0.00258,42.843,20.21,28.61,-80.6,9.7876,2.6559,0,0.39652,4.60E-05,16166,662.86,12.055,0.027155,183.2,150.57,3.168,0.66207,102755,1845.4,0.77185,1.0541,1.0748,0.75236,0.12472,0.17698,0.46688,1.479,3.85E-04,0,0,0,0,5.21E-06,0.029441,10.3,83.323,79.773,1.29E-04,NaN,27.828,2.8028,348.16,0.05,0.1943,1.6976
2.1613,245,229.84,101.82,233.99,103.79,46.117,0.0021335,46.117,0.0026506,43.857,20.128,28.61,-80.6,9.7876,2.6123,0,0.42319,4.52E-05,16122,619.27,12.028,0.027125,183.4,150.36,3.2078,0.67721,105057,1829.4,0.80479,1.0518,1.0719,0.74652,0.12567,0.17962,0.45858,1.4706,-1.53E-04,0,0,0,0,5.67E-06,0.030115,10.3,83.323,79.752,1.48E-04,NaN,27.776,2.8009,348.13,0.05,0.19624,1.7753
2.2113,256.62,234.95,101.14,239.19,103.11,48.335,0.0022957,48.335,0.0027213,44.866,20.047,28.61,-80.6,9.7876,2.4979,0,0.45059,5.91E-05,16078,575.69,12.001,0.027094,183.79,150.15,3.266,0.69205,107311,1813.4,0.83699,1.0498,1.0682,0.74091,0.12662,0.18226,0.43616,1.4249,4.98E-04,0,0,0,0,6.16E-06,0.030785,10.3,83.323,79.731,1.70E-04,NaN,27.723,2.799,348.1,0.05,0.19861,1.8542
2.2613,268.5,240.02,100.45,244.36,102.42,50.604,0.0024659,50.604,0.002792,45.872,19.968,28.61,-80.599,9.7875,2.363,0,0.47805,6.48E-05,16035,532.1,11.974,0.027063,184.25,149.94,3.3302,0.7068,109504,1797.5,0.86894,1.048,1.0646,0.73551,0.12758,0.18494,0.40991,1.3646,-3.37E-04,0,0,0,0,6.65E-06,0.03145,10.3,83.323,79.707,1.93E-04,NaN,27.62,2.7954,348.04,0.05,0.20129,1.9333
2.3113,280.62,245.05,99.758,249.49,101.72,52.923,0.0026443,52.923,0.0028628,46.874,19.89,28.61,-80.599,9.7875,2.3409,0,0.50603,7.56E-05,15991,488.52,11.947,0.027033,184.41,149.73,3.3661,0.72177,111723,1781.5,0.90327,1.0464,1.0626,0.73012,0.12858,0.18772,0.40606,1.3667,-2.14E-04,0,0,0,0,7.15E-06,0.032111,10.3,83.323,79.683,2.19E-04,NaN,27.512,2.7916,347.97,0.05,0.20336,2.0134
2.3612,293,250.05,99.062,254.59,101.02,55.291,0.002831,55.291,0.0029337,47.872,19.811,28.61,-80.599,9.7875,2.4309,0,0.5363,6.97E-05,15948,444.93,11.92,0.027002,184.27,149.52,3.3734,0.73698,113972,1765.5,0.94017,1.045,1.0624,0.72475,0.12962,0.19061,0.42436,1.4313,5.41E-05,0,0,0,0,7.70E-06,0.032767,10.3,83.323,79.657,2.47E-04,NaN,27.402,2.7877,347.9,0.05,0.20589,2.0944
2.4112,305.63,255.02,98.361,259.66,100.32,57.71,0.0030263,57.71,0.0030046,48.866,19.736,28.61,-80.599,9.7874,2.3764,0,0.56821,7.85E-05,15904,401.35,11.892,0.026971,184.52,149.31,3.4182,0.75168,116137,1749.6,0.97483,1.0437,1.0604,0.71964,0.13065,0.19345,0.41408,1.4149,6.91E-05,0,0,0,0,8.31E-06,0.033419,10.3,83.323,79.629,2.78E-04,NaN,27.29,2.7838,347.84,0.05,0.20798,2.1763
2.4612,318.5,259.95,97.656,264.68,99.615,60.178,0.0032303,60.178,0.0030756,49.856,19.663,28.61,-80.599,9.7874,2.3154,0,0.60105,8.61E-05,15860,357.76,11.865,0.026941,184.79,149.1,3.4651,0.76626,118278,1733.6,1.0098,1.0427,1.0585,0.71466,0.13169,0.19633,0.40257,1.3945,-4.13E-04,0,0,0,0,8.95E-06,0.034067,10.3,83.323,79.6,3.12E-04,NaN,27.176,2.7798,347.77,0.05,0.21035,2.259
2.5112,331.62,264.84,96.946,269.68,98.906,62.695,0.0034433,62.695,0.0031468,50.843,19.592,28.61,-80.599,9.7873,2.2251,0,0.63434,9.80E-05,15817,314.17,11.837,0.02691,185.14,148.89,3.5202,0.78067,120384,1717.6,1.0445,1.0418,1.0564,0.70981,0.13274,0.19923,0.38537,1.3563,-4.03E-04,0,0,0,0,9.61E-06,0.03471,10.3,83.323,79.569,3.50E-04,NaN,27.06,2.7757,347.7,0.05,0.2124,2.3425
2.5612,344.99,269.7,96.22,274.63,98.18,65.262,0.0036654,65.262,0.003218,51.826,19.519,28.61,-80.599,9.7873,2.1767,0,0.66837,1.16E-04,15773,270.59,11.809,0.02688,185.39,148.67,3.5647,0.79511,122488,1701.5,1.0804,1.041,1.0551,0.70502,0.13382,0.20219,0.37643,1.342,2.51E-04,0,0,0,0,1.03E-05,0.035348,10.3,83.323,79.536,3.89E-04,NaN,26.942,2.7716,347.63,0.05,0.21907,2.4267
2.6112,358.59,274.52,92.271,279.56,94.177,67.878,0.0038969,67.878,0.0032894,52.806,18.853,28.61,-80.599,9.7873,2.1051,0,0.70299,1.33E-04,15730,227.16,11.781,0.026849,185.7,148.46,3.6157,0.80938,124560,1633.8,1.1163,1.0404,1.0536,0.70035,0.1349,0.20516,0.36307,1.3127,4.33E-04,0,0,0,0,1.10E-05,0.035982,10.3,83.323,79.502,4.31E-04,NaN,26.821,2.7673,347.55,0.05,0.22145,2.5117
2.6612,372.43,279.15,84.609,284.28,86.398,70.542,0.004138,70.542,0.003361,53.752,17.493,28.61,-80.599,9.7872,2.0754,0,0.73848,1.41E-04,15689,186.2,11.754,0.02682,185.89,148.25,3.6544,0.82321,126558,1507.5,1.152,1.04,1.0528,0.69589,0.13597,0.2081,0.35781,1.308,-4.10E-05,0,0,0,0,1.17E-05,0.03659,10.3,83.323,79.466,4.76E-04,NaN,26.698,2.763,347.48,0.05,0.22353,2.5942
2.7112,386.5,283.39,73.306,288.6,74.916,73.251,0.0043888,73.251,0.0034328,54.63,15.447,28.61,-80.599,9.7872,2.0402,0,0.77483,1.52E-04,15657,153.99,11.733,0.026798,186.09,148.09,3.6897,0.8359,128373,1324.6,1.1851,1.0397,1.0521,0.69185,0.13697,0.21083,0.35147,1.2968,-2.93E-04,0,0,0,0,1.25E-05,0.037147,10.3,83.323,79.428,5.25E-04,NaN,26.574,2.7586,347.4,0.05,0.22554,2.6707
2.7612,400.76,287.06,61.67,292.35,63.093,76.002,0.0046494,76.002,0.0035051,55.405,13.326,28.61,-80.599,9.7871,2.0392,0,0.81227,1.65E-04,15634,131.2,11.719,0.026782,186.19,147.97,3.7101,0.84704,129945,1137.8,1.2147,1.0395,1.0519,0.68837,0.13786,0.21327,0.35168,1.3046,1.72E-04,0,0,0,0,1.34E-05,0.037631,10.3,83.323,79.389,5.77E-04,NaN,26.447,2.7542,347.33,0.05,0.22854,2.7373
2.8112,415.19,290.14,49.991,295.51,51.226,78.789,0.0049201,78.789,0.0035779,56.073,11.182,28.61,-80.599,9.7871,2.0068,0,0.85053,1.84E-04,15614,111.38,11.706,0.026768,186.36,147.87,3.7363,0.85637,131233,951.02,1.2391,1.0395,1.0515,0.68551,0.13862,0.21534,0.34577,1.2916,2.30E-04,0,0,0,0,1.44E-05,0.038038,10.3,83.323,79.347,6.32E-04,NaN,26.319,2.7497,347.25,0.05,0.23136,2.7934
2.8612,429.76,292.65,38.286,298.08,39.333,81.607,0.0052009,81.607,0.0036515,56.634,9.0182,28.61,-80.599,9.787,1.9433,0,0.88881,2.07E-04,15594,91.567,11.693,0.026754,186.6,147.77,3.7697,0.86388,132239,764.21,1.258,1.0395,1.0508,0.68326,0.13924,0.21702,0.33387,1.2586,1.28E-04,0,0,0,0,1.55E-05,0.038368,10.3,83.323,79.304,6.90E-04,NaN,26.19,2.7452,347.17,0.05,0.2347,2.8386
2.9112,444.44,294.56,26.554,300.04,27.419,84.45,0.0054918,84.45,0.003726,57.086,6.8326,28.61,-80.599,9.787,1.8661,0,0.92649,2.32E-04,15574,71.749,11.68,0.02674,186.87,147.67,3.8057,0.86963,132972,577.4,1.2718,1.0396,1.0501,0.68159,0.13972,0.21831,0.31937,1.2157,-3.29E-05,0,0,0,0,1.66E-05,0.038622,10.3,83.323,79.258,7.53E-04,NaN,26.06,2.7406,347.09,0.05,0.23594,2.8726
2.9612,459.2,295.89,14.796,301.41,15.502,87.312,0.0057929,87.312,0.0038014,57.429,4.6239,28.61,-80.599,9.7869,1.7832,0,0.96313,2.60E-04,15555,51.931,11.667,0.026726,187.15,147.57,3.842,0.87363,133434,390.59,1.2804,1.0398,1.0493,0.68049,0.14005,0.21922,0.30385,1.1671,1.94E-04,0,0,0,0,1.78E-05,0.038799,10.3,83.323,79.211,8.22E-04,NaN,25.929,2.736,347.01,0.05,0.23707,2.8953
3.0112,474.01,296.63,3.0148,302.18,3.8476,90.19,0.0061043,90.19,0.0038779,57.661,2.3905,28.61,-80.599,9.7869,1.7427,0,0.99877,2.80E-04,15535,32.113,11.654,0.026712,187.28,147.47,3.8653,0.87605,133653,203.82,1.285,1.0399,1.0491,0.6799,0.14025,0.21977,0.29634,1.1452,-1.17E-04,0,0,0,0,1.90E-05,0.038899,10.3,83.323,79.162,8.97E-04,NaN,25.798,2.7314,346.93,0.05,0.23821,2.9066
3.0612,488.85,296.78,-4.4104,302.36,4.5166,93.076,0.0064257,93.076,0.0039556,57.781,0.97388,28.61,-80.599,9.7869,1.7423,0,1.0348,2.90E-04,15515,12.526,11.641,0.026698,187.29,147.37,3.8758,0.87687,133627,86.279,1.2855,1.0401,1.0493,0.67982,0.14032,0.21996,0.29628,1.1485,-1.81E-04,0,0,0,0,2.04E-05,0.038921,10.3,83.323,79.111,9.76E-04,NaN,25.666,2.7268,346.85,0.05,0.23933,2.9062
3.1112,503.68,296.56,-7.8766,302.15,7.8827,95.966,0.0067574,95.966,0.0040344,57.83,0.31073,28.61,-80.599,9.7868,1.6273,0,1.0688,3.46E-04,15505,2.1617,11.634,0.026691,187.62,147.32,3.9131,0.87621,133375,31.499,1.2802,1.0403,1.0483,0.68023,0.14026,0.21981,0.27484,1.0756,-3.56E-04,0,0,0,0,2.18E-05,0.038895,10.3,83.323,79.058,0.0010619,NaN,25.535,2.7222,346.77,0.05,0.24046,2.8986
3.1612,518.5,296.17,-9.861,301.77,9.8612,98.858,0.0070991,98.858,0.0041145,57.845,0.074357,28.61,-80.599,9.7868,1.7186,0,1.1034,3.19E-04,15503,0.78919,11.633,0.02669,187.35,147.31,3.8874,0.87574,133154,0.15407,1.278,1.0405,1.0494,0.68057,0.14023,0.2197,0.29181,1.1339,-3.89E-04,0,0,0,0,2.32E-05,0.038847,10.3,83.323,79.004,0.0011532,NaN,25.403,2.7176,346.69,0.05,0.24159,2.8876
3.2112,533.29,295.68,-9.8705,301.28,9.8708,101.75,0.0074508,101.75,0.0041956,57.842,0.074457,28.61,-80.599,9.7867,1.6063,0,1.1371,3.85E-04,15503,0.051469,11.632,0.026689,187.67,147.31,3.9186,0.87429,132783,0,1.2705,1.0407,1.0485,0.68123,0.1401,0.21937,0.27091,1.0619,-3.18E-04,0,0,0,0,2.48E-05,0.038785,10.3,83.323,78.948,0.0012492,NaN,25.272,2.713,346.61,0.05,0.24379,2.8747
3.2612,548.07,295.18,-9.8702,300.8,9.8705,104.64,0.0078127,104.64,0.0042778,57.838,0.073628,28.61,-80.599,9.7867,1.5584,0,1.1692,4.22E-04,15503,0,11.632,0.026689,187.8,147.31,3.9313,0.87307,132446,0,1.2645,1.0409,1.0483,0.68181,0.14,0.21909,0.26206,1.0303,2.25E-05,0,0,0,0,2.63E-05,0.038723,10.3,83.323,78.89,0.0013497,NaN,25.141,2.7084,346.53,0.05,0.2546,2.8619
3.3112,562.81,294.69,-9.8699,300.31,9.8702,107.53,0.0081846,107.53,0.0043609,57.834,0.072223,28.61,-80.599,9.7866,1.4693,0,1.2,4.87E-04,15503,0,11.632,0.026689,188.06,147.31,3.956,0.8717,132089,0,1.2577,1.0411,1.0477,0.68245,0.13989,0.21878,0.24573,0.97204,1.31E-04,0,0,0,0,2.78E-05,0.038661,10.3,83.323,78.831,0.0014554,NaN,25.01,2.7038,346.46,0.05,0.25704,2.8491
3.3612,577.54,294.2,-9.8698,299.83,9.8701,110.43,0.0085665,110.43,0.0044449,57.831,0.069752,28.61,-80.599,9.7866,1.3014,0,1.2276,6.15E-04,15503,0,11.632,0.026689,188.55,147.31,4.0042,0.87008,131693,0,1.2494,1.0413,1.0465,0.68316,0.13975,0.21842,0.21544,0.86281,1.50E-04,0,0,0,0,2.92E-05,0.0386,10.3,83.323,78.771,0.0015676,NaN,24.88,2.6992,346.38,0.05,0.25871,2.8363
3.4112,592.23,293.7,-9.8695,299.34,9.8698,113.32,0.0089585,113.32,0.0045297,57.827,0.068755,28.61,-80.599,9.7865,1.2368,0,1.2531,6.89E-04,15503,0,11.632,0.026689,188.74,147.31,4.0224,0.86881,131352,0,1.2433,1.0415,1.0463,0.68377,0.13965,0.21813,0.20393,0.82061,1.13E-04,0,0,0,0,3.05E-05,0.038538,10.3,83.323,78.708,0.0016862,NaN,24.75,2.6946,346.3,0.05,0.25988,2.8236
3.4612,606.91,293.21,-9.8693,298.86,9.8695,116.21,0.0093606,116.21,0.0046152,57.824,0.067506,28.61,-80.599,9.7865,1.1523,0,1.2769,7.89E-04,15503,0,11.632,0.026689,188.99,147.31,4.0467,0.86748,131001,0,1.2369,1.0418,1.0459,0.68439,0.13954,0.21783,0.189,0.76479,1.47E-04,0,0,0,0,3.18E-05,0.038476,10.3,83.323,78.645,0.0018098,NaN,24.62,2.69,346.22,0.05,0.26181,2.8109
3.5112,621.55,292.72,-9.8689,298.37,9.8692,119.1,0.0097727,119.1,0.0047014,57.821,0.067138,28.61,-80.599,9.7864,1.1323,0,1.2993,8.26E-04,15503,0,11.632,0.026689,189.04,147.31,4.0519,0.86636,130684,0,1.2317,1.042,1.0459,0.68495,0.13944,0.21758,0.18547,0.75163,-9.63E-05,0,0,0,0,3.30E-05,0.038414,10.3,83.323,78.581,0.001939,NaN,24.49,2.6855,346.14,0.05,0.26395,2.7983
3.5612,636.18,292.22,-9.8684,297.89,9.8687,121.99,0.010195,121.99,0.0047883,57.817,0.068147,28.61,-80.599,9.7864,1.2151,0,1.3228,7.43E-04,15503,0,11.632,0.026689,188.78,147.31,4.0262,0.8656,130420,0,1.2284,1.0422,1.0467,0.68539,0.13938,0.2174,0.20001,0.8056,-2.53E-04,0,0,0,0,3.43E-05,0.038352,10.3,83.323,78.515,0.0020727,NaN,24.36,2.6809,346.06,0.05,0.26736,2.7857
3.6112,650.78,291.73,-9.8681,297.4,9.8684,124.88,0.010627,124.88,0.0048758,57.814,0.067404,28.61,-80.599,9.7864,1.1669,0,1.3463,8.09E-04,15503,0,11.632,0.026689,188.92,147.31,4.0397,0.8644,130091,0,1.2227,1.0424,1.0466,0.68598,0.13928,0.21713,0.1915,0.77374,4.44E-04,0,0,0,0,3.57E-05,0.038291,10.3,83.323,78.449,0.0022106,NaN,24.231,2.6764,345.98,0.05,0.2693,2.7731
3.6612,665.35,291.24,-9.8679,296.92,9.8681,127.77,0.011069,127.77,0.0049638,57.811,0.066351,28.61,-80.599,9.7863,1.0943,0,1.3684,9.07E-04,15503,0,11.632,0.026689,189.13,147.31,4.0607,0.86312,129750,0,1.2167,1.0426,1.0463,0.68659,0.13918,0.21685,0.17877,0.72543,4.07E-04,0,0,0,0,3.70E-05,0.038229,10.3,83.323,78.381,0.0023545,NaN,24.101,2.6719,345.9,0.05,0.27115,2.7606
3.7112,679.9,290.74,-9.8676,296.43,9.8678,130.66,0.011522,130.66,0.0050524,57.807,0.065916,28.61,-80.599,9.7863,1.0679,0,1.3894,9.62E-04,15503,0,11.632,0.026689,189.21,147.31,4.0678,0.86199,129433,0,1.2115,1.0428,1.0464,0.68715,0.13908,0.21659,0.17416,0.70792,-2.69E-04,0,0,0,0,3.82E-05,0.038167,10.3,83.323,78.312,0.0025033,NaN,23.972,2.6673,345.83,0.05,0.27311,2.7481
3.7612,694.42,290.25,-9.8671,295.95,9.8674,133.55,0.011984,133.55,0.0051414,57.804,0.066302,28.61,-80.599,9.7862,1.1045,0,1.4105,9.23E-04,15503,0,11.632,0.026689,189.08,147.31,4.0559,0.86109,129150,0,1.2074,1.043,1.0468,0.68764,0.13901,0.21639,0.1805,0.73168,-4.40E-04,0,0,0,0,3.95E-05,0.038106,10.3,83.323,78.242,0.0026539,NaN,23.844,2.6628,345.75,0.05,0.27508,2.7357
3.8112,708.92,289.76,-9.8667,295.46,9.867,136.44,0.012457,136.44,0.0052309,57.801,0.066455,28.61,-80.599,9.7862,1.1231,0,1.4321,9.06E-04,15503,0,11.632,0.026689,189.02,147.31,4.0494,0.86013,128858,0,1.2031,1.0433,1.0472,0.68815,0.13893,0.21618,0.18374,0.74384,-4.43E-04,0,0,0,0,4.08E-05,0.038044,10.3,83.323,78.171,0.0028076,NaN,23.715,2.6583,345.67,0.05,0.27694,2.7233
3.8612,723.4,289.26,-9.8664,294.98,9.8666,139.33,0.012939,139.33,0.0053208,57.797,0.066496,28.61,-80.599,9.7861,1.1332,0,1.4539,9.06E-04,15503,0,11.632,0.026689,188.98,147.31,4.0455,0.85914,128563,0,1.1986,1.0435,1.0475,0.68867,0.13885,0.21596,0.18547,0.75029,4.77E-04,0,0,0,0,4.22E-05,0.037982,10.3,83.323,78.099,0.0029641,NaN,23.587,2.6538,345.59,0.05,0.2788,2.711
3.9112,737.85,288.77,-9.8661,294.5,9.8663,142.22,0.013432,142.22,0.0054111,57.794,0.065979,28.61,-80.599,9.7861,1.0998,0,1.4752,9.57E-04,15503,0,11.632,0.026689,189.07,147.31,4.0547,0.85801,128247,0,1.1934,1.0437,1.0475,0.68924,0.13876,0.2157,0.17962,0.72806,1.29E-04,0,0,0,0,4.36E-05,0.03792,10.3,83.323,78.025,0.0031244,NaN,23.459,2.6493,345.51,0.05,0.28068,2.6986
3.9612,752.28,288.28,-9.8657,294.01,9.8659,145.11,0.013934,145.11,0.0055018,57.791,0.065895,28.61,-80.599,9.786,1.0999,0,1.4963,9.65E-04,15503,0,11.632,0.026689,189.06,147.31,4.0538,0.85699,127949,0,1.1887,1.0439,1.0477,0.68977,0.13867,0.21548,0.17961,0.72842,2.48E-04,0,0,0,0,4.50E-05,0.037859,10.3,83.323,77.951,0.0032886,NaN,23.331,2.6448,345.44,0.05,0.28266,2.6864
4.0112,766.68,287.78,-9.8654,293.53,9.8656,148,0.014447,148,0.0055929,57.787,0.065139,28.61,-80.598,9.786,1.0468,0,1.5168,0.0010537,15503,0,11.632,0.026689,189.22,147.31,4.069,0.85579,127630,0,1.1833,1.0441,1.0476,0.69035,0.13858,0.21521,0.17038,0.69337,3.25E-05,0,0,0,0,4.64E-05,0.037797,10.3,83.323,77.876,0.0034567,NaN,23.203,2.6405,345.36,0.05,0.28494,2.6743
4.0612,781.05,287.29,-9.8652,293.04,9.8654,150.89,0.01497,150.89,0.0056842,57.784,0.063833,28.61,-80.598,9.786,0.94859,0,1.5357,0.0012531,15503,0,11.632,0.026689,189.52,147.31,4.0983,0.85444,127291,0,1.1772,1.0444,1.0472,0.69098,0.13846,0.21491,0.15344,0.62856,3.78E-04,0,0,0,0,4.77E-05,0.037735,10.3,83.323,77.799,0.0036281,NaN,23.076,2.6362,345.28,0.05,0.28686,2.6623
4.1112,795.41,286.8,-9.865,292.56,9.8652,153.78,0.015502,153.78,0.0057759,57.781,0.062728,28.61,-80.598,9.7859,0.86459,0,1.5527,0.0014516,15503,0,11.632,0.026689,189.78,147.31,4.1234,0.85314,126961,0,1.1714,1.0446,1.0469,0.69159,0.13836,0.21462,0.13911,0.57314,7.42E-05,0,0,0,0,4.89E-05,0.037674,10.3,83.323,77.722,0.0038033,NaN,22.948,2.6319,345.21,0.05,0.28875,2.6503
4.1612,809.73,286.3,-9.8648,292.07,9.865,156.67,0.016045,156.67,0.0058679,57.778,0.061605,28.61,-80.598,9.7859,0.77733,0,1.5683,0.0017161,15503,0,11.632,0.026689,190.05,147.31,4.1499,0.85183,126630,0,1.1657,1.0448,1.0467,0.69221,0.13825,0.21433,0.12438,0.51573,4.86E-04,0,0,0,0,5.01E-05,0.037612,10.3,83.323,77.644,0.0039815,NaN,22.821,2.6276,345.13,0.05,0.29096,2.6384
4.2112,824.04,285.81,-9.8646,291.59,9.8648,159.56,0.016598,159.56,0.0059602,57.775,0.060302,28.61,-80.598,9.7858,0.67292,0,1.5816,0.0021157,15503,0,11.632,0.026689,190.38,147.31,4.1821,0.85047,126291,0,1.1598,1.045,1.0465,0.69285,0.13814,0.21403,0.10696,0.44733,4.80E-04,0,0,0,0,5.11E-05,0.03755,10.3,83.323,77.565,0.0041628,NaN,22.695,2.6233,345.05,0.05,0.29285,2.6265
4.2612,838.32,285.32,-9.8643,291.11,9.8645,162.45,0.017161,162.45,0.0060528,57.772,0.059918,28.61,-80.598,9.7858,0.64494,0,1.5941,0.0022345,15503,0,11.632,0.026689,190.47,147.31,4.1902,0.84936,125991,0,1.155,1.0452,1.0466,0.6934,0.13805,0.21378,0.10232,0.42889,-3.71E-04,0,0,0,0,5.21E-05,0.037489,10.3,83.323,77.486,0.0043477,NaN,22.568,2.6191,344.98,0.05,0.30014,2.6147
4.3112,852.57,284.82,-9.8642,290.62,9.8644,165.33,0.017734,165.33,0.0061456,57.769,0.05816,28.61,-80.598,9.7857,0.49707,0,1.6047,0.0031742,15503,0,11.632,0.026689,190.95,147.31,4.2371,0.84785,125631,0,1.1486,1.0455,1.0463,0.69408,0.13793,0.21345,0.078115,0.33053,-4.35E-05,0,0,0,0,5.30E-05,0.037427,10.3,83.323,77.406,0.0045349,NaN,22.442,2.6148,344.9,0.05,0.30275,2.6029
4.3612,866.8,284.33,-9.8641,290.14,9.8643,168.22,0.018317,168.22,0.0062386,57.766,0.056543,28.61,-80.598,9.7857,0.35733,0,1.6127,0.0047644,15503,0,11.632,0.026689,191.41,147.31,4.2822,0.84637,125276,0,1.1426,1.0457,1.0461,0.69476,0.13781,0.21312,0.055648,0.23837,-2.65E-04,0,0,0,0,5.37E-05,0.037365,10.3,83.323,77.326,0.0047253,NaN,22.315,2.6106,344.82,0.05,0.30536,2.5911
4.4112,881,283.84,-9.864,289.65,9.8641,171.11,0.01891,171.11,0.0063319,57.763,0.055269,28.61,-80.598,9.7857,0.24497,0,1.6179,0.0073692,15503,0,11.632,0.026689,191.79,147.31,4.3189,0.84498,124936,0,1.137,1.0459,1.0461,0.69541,0.1377,0.21282,0.03787,0.16331,1.22E-04,0,0,0,0,5.43E-05,0.037304,10.3,83.323,77.245,0.0049191,NaN,22.19,2.6064,344.75,0.05,0.30742,2.5794
4.4612,895.18,283.34,-9.8635,289.17,9.8637,174,0.019513,174,0.0064254,57.761,0.055962,28.61,-80.598,9.7856,0.3119,0,1.6231,0.0055246,15503,0,11.632,0.026689,191.55,147.31,4.2956,0.8442,124687,0,1.1334,1.0461,1.0465,0.69586,0.13764,0.21265,0.048421,0.20774,-3.58E-04,0,0,0,0,5.48E-05,0.037242,10.3,83.323,77.164,0.005116,NaN,22.064,2.6021,344.67,0.05,0.30927,2.5677
4.5112,909.34,282.85,-9.8632,288.69,9.8633,176.89,0.020126,176.89,0.0065191,57.758,0.05605,28.61,-80.598,9.7856,0.32345,0,1.629,0.0052493,15503,0,11.632,0.026689,191.5,147.31,4.2909,0.84324,124410,0,1.1292,1.0464,1.0467,0.69637,0.13756,0.21244,0.050246,0.21546,-2.10E-04,0,0,0,0,5.53E-05,0.037181,10.3,83.323,77.082,0.0053153,NaN,21.938,2.5979,344.59,0.05,0.31108,2.556
4.5612,923.47,282.36,-9.863,288.2,9.8631,179.78,0.020749,179.78,0.006613,57.755,0.055148,28.61,-80.598,9.7855,0.24369,0,1.6342,0.0072564,15503,0,11.632,0.026689,191.77,147.31,4.3168,0.84196,124087,0,1.1241,1.0466,1.0468,0.69698,0.13746,0.21216,0.037658,0.16299,2.67E-04,0,0,0,0,5.59E-05,0.037119,10.3,83.323,77.001,0.0055169,NaN,21.813,2.5937,344.52,0.05,0.31291,2.5444
4.6112,937.57,281.86,-9.8628,287.72,9.8629,182.66,0.021383,182.66,0.006707,57.752,0.054306,28.61,-80.598,9.7855,0.16788,0,1.6379,0.010924,15503,0,11.632,0.026689,192.03,147.31,4.3416,0.8407,123767,0,1.119,1.0468,1.0469,0.69759,0.13735,0.21188,0.025812,0.11153,-3.71E-04,0,0,0,0,5.63E-05,0.037057,10.3,83.323,76.919,0.0057205,NaN,21.688,2.5895,344.44,0.05,0.31576,2.5329
4.6612,951.65,281.37,-9.8626,287.24,9.8627,185.55,0.022026,185.55,0.0068013,57.75,0.053583,28.61,-80.598,9.7854,0.10201,0,1.6401,0.018515,15503,0,11.632,0.026689,192.25,147.31,4.3633,0.83946,123452,0,1.1141,1.0471,1.0471,0.69819,0.13726,0.21161,0.015616,0.068488,3.66E-04,0,0,0,0,5.67E-05,0.036996,10.3,83.323,76.837,0.0059259,NaN,21.563,2.5853,344.37,0.05,0.31881,2.5213
4.7112,965.71,280.88,-9.8622,286.75,9.8624,188.44,0.022679,188.44,0.0068957,57.747,0.053437,28.61,-80.598,9.7854,0.090768,0,1.6419,0.02072,15503,0,11.632,0.026689,192.28,147.31,4.3663,0.83842,123166,0,1.1097,1.0473,1.0473,0.69873,0.13717,0.21138,0.013883,0.060221,-3.29E-04,0,0,0,0,5.70E-05,0.036934,10.3,83.323,76.755,0.0061344,NaN,21.439,2.5811,344.29,0.05,0.32092,2.5098
4.7612,979.74,280.38,-9.862,286.27,9.8622,191.33,0.023342,191.33,0.0069903,57.744,0.052636,28.61,-80.598,9.7853,0.015661,0,1.6384,0.12427,15503,0,11.632,0.026689,192.54,147.31,4.3914,0.83716,122847,0,1.1048,1.0475,1.0475,0.69934,0.13707,0.21111,0.0023832,0.01084,4.31E-04,0,0,0,0,5.69E-05,0.036873,10.3,83.323,76.673,0.0063447,NaN,21.314,2.5769,344.22,0.05,0.32285,2.4984
4.8112,993.75,279.89,-9.8619,285.79,9.8621,194.21,0.024016,194.21,0.0070851,57.742,0.051343,28.61,-80.598,9.7853,0.10888,0,-1.6421,0.019006,15503,0,11.632,0.026689,192.19,147.31,4.3578,0.83572,122504,0,1.0995,1.0478,1.0478,0.70001,0.13696,0.2108,0.016667,0.072451,2.00E-04,0,0,0,0,-5.74E-05,0.036811,10.3,83.323,76.591,0.006557,NaN,21.19,2.5727,344.14,0.05,0.32481,2.487
4.8612,1007.7,279.4,-9.8618,285.3,9.862,197.1,0.024699,197.1,0.00718,57.739,0.050225,28.61,-80.598,9.7853,0.2158,0,-1.6394,0.010066,15503,0,11.632,0.026689,191.8,147.31,4.3199,0.83435,122170,0,1.0945,1.048,1.0482,0.70066,0.13685,0.2105,0.033259,0.14361,1.81E-04,0,0,0,0,-5.74E-05,0.03675,10.3,83.323,76.509,0.0067703,NaN,21.066,2.5686,344.06,0.05,0.32718,2.4756
4.9112,1021.7,278.9,-9.8617,284.82,9.8619,199.99,0.025393,199.99,0.007275,57.737,0.049006,28.61,-80.598,9.7852,0.33221,0,-1.6344,0.0068903,15503,0,11.632,0.026689,191.39,147.31,4.2794,0.83294,121831,0,1.0895,1.0483,1.0486,0.70133,0.13674,0.21019,0.051575,0.22068,4.85E-04,0,0,0,0,-5.73E-05,0.036688,10.3,83.323,76.427,0.0069858,NaN,20.942,2.5644,343.99,0.05,0.33394,2.4642
4.9612,1035.6,278.41,-9.8615,284.33,9.8616,202.87,0.026096,202.87,0.0073702,57.734,0.048421,28.61,-80.598,9.7852,0.38734,0,-1.6282,0.0060129,15503,0,11.632,0.026689,191.19,147.31,4.2599,0.83174,121524,0,1.0849,1.0485,1.049,0.70192,0.13664,0.20993,0.060339,0.25698,1.77E-04,0,0,0,0,-5.70E-05,0.036626,10.3,83.323,76.345,0.0072032,NaN,20.819,2.5603,343.92,0.05,0.33596,2.4529
5.0112,1049.5,277.92,-9.8613,283.85,9.8614,205.76,0.02681,205.76,0.0074655,57.732,0.047754,28.61,-80.598,9.7851,0.45054,0,-1.6208,0.0052822,15503,0,11.632,0.026689,190.96,147.31,4.2379,0.8305,121212,0,1.0804,1.0487,1.0494,0.70253,0.13654,0.20967,0.070458,0.29857,-1.04E-04,0,0,0,0,-5.67E-05,0.036565,10.3,83.323,76.264,0.0074221,NaN,20.695,2.5561,343.84,0.05,0.33789,2.4417
5.0612,1063.4,277.43,-9.861,283.37,9.8611,208.65,0.027534,208.65,0.0075609,57.729,0.047855,28.61,-80.598,9.7851,0.4397,0,-1.6133,0.0053116,15503,0,11.632,0.026689,190.99,147.31,4.2407,0.82953,120938,0,1.0763,1.049,1.0496,0.70305,0.13647,0.20945,0.068707,0.29127,4.77E-05,0,0,0,0,-5.63E-05,0.036503,10.3,83.323,76.183,0.0076425,NaN,20.572,2.552,343.77,0.05,0.33978,2.4304
5.1112,1077.3,276.93,-9.8609,282.89,9.861,211.53,0.028267,211.53,0.0076565,57.727,0.046542,28.61,-80.598,9.785,0.56532,0,-1.6047,0.0043606,15503,0,11.632,0.026689,190.55,147.31,4.1983,0.82808,120596,0,1.0714,1.0492,1.0503,0.70373,0.13635,0.20914,0.089029,0.37363,-1.36E-04,0,0,0,0,-5.60E-05,0.036442,10.3,83.323,76.103,0.0078641,NaN,20.45,2.5478,343.69,0.05,0.34176,2.4192
5.1612,1091.1,276.44,-9.8609,282.4,9.861,214.42,0.029011,214.42,0.0077521,57.725,0.045232,28.61,-80.598,9.785,0.69021,0,-1.5939,0.0037561,15503,0,11.632,0.026689,190.12,147.31,4.1567,0.82663,120254,0,1.0667,1.0495,1.051,0.70442,0.13624,0.20883,0.10954,0.45583,-1.75E-04,0,0,0,0,-5.54E-05,0.03638,10.3,83.323,76.023,0.008086,NaN,20.327,2.5437,343.62,0.05,0.34371,2.4081
5.2112,1104.9,275.95,-9.8606,281.92,9.8607,217.3,0.029765,217.3,0.0078479,57.723,0.044922,28.61,-80.598,9.785,0.71953,0,-1.5818,0.0036118,15503,0,11.632,0.026689,190.02,147.31,4.1464,0.8255,119960,0,1.0624,1.0497,1.0514,0.70499,0.13615,0.20859,0.11439,0.47434,2.23E-04,0,0,0,0,-5.48E-05,0.036319,10.3,83.323,75.943,0.0083088,NaN,20.204,2.5396,343.54,0.05,0.34562,2.397
5.2612,1118.7,275.45,-9.8602,281.44,9.8603,220.19,0.030529,220.19,0.0079438,57.72,0.045505,28.61,-80.598,9.7849,0.6631,0,-1.5704,0.0037575,15503,0,11.632,0.026689,190.2,147.31,4.1638,0.82467,119709,0,1.0585,1.05,1.0514,0.70547,0.13609,0.20841,0.10503,0.43723,-1.01E-04,0,0,0,0,-5.41E-05,0.036257,10.3,83.323,75.865,0.008533,NaN,20.082,2.5355,343.47,0.05,0.34758,2.3859
5.3112,1132.5,274.96,-9.8601,280.95,9.8602,223.08,0.031302,223.08,0.0080398,57.718,0.044344,28.61,-80.598,9.7849,0.77431,0,-1.5583,0.0033748,15503,0,11.632,0.026689,189.82,147.31,4.1272,0.82326,119374,0,1.054,1.0502,1.0521,0.70614,0.13597,0.20811,0.12349,0.50965,3.98E-04,0,0,0,0,-5.35E-05,0.036196,10.3,83.323,75.786,0.0087592,NaN,19.96,2.5314,343.39,0.05,0.3505,2.3749
5.3612,1146.2,274.47,-9.8601,280.47,9.8601,225.96,0.032086,225.96,0.0081359,57.716,0.043303,28.61,-80.598,9.7848,0.87379,0,-1.5446,0.0031086,15503,0,11.632,0.026689,189.48,147.31,4.0947,0.82188,119045,0,1.0495,1.0505,1.0529,0.7068,0.13587,0.20781,0.14019,0.57427,8.33E-05,0,0,0,0,-5.27E-05,0.036134,10.3,83.323,75.709,0.0089873,NaN,19.838,2.5273,343.32,0.05,0.3527,2.3638
5.4112,1159.9,273.97,-9.8599,279.99,9.86,228.85,0.03288,228.85,0.0082321,57.714,0.042777,28.61,-80.598,9.7848,0.92412,0,-1.5294,0.0029688,15503,0,11.632,0.026689,189.31,147.31,4.078,0.82067,118741,0,1.0452,1.0507,1.0534,0.70741,0.13577,0.20756,0.14871,0.60611,-3.17E-05,0,0,0,0,-5.19E-05,0.036073,10.3,83.323,75.632,0.0092163,NaN,19.717,2.5232,343.25,0.05,0.35457,2.3529
5.4612,1173.6,273.48,-9.8593,279.5,9.8594,231.73,0.033684,231.73,0.0083284,57.712,0.043633,28.61,-80.598,9.7848,0.84162,0,-1.515,0.0030804,15503,0,11.632,0.026689,189.57,147.31,4.1032,0.81992,118502,0,1.0414,1.051,1.0532,0.70786,0.13571,0.20739,0.13474,0.55244,2.90E-04,0,0,0,0,-5.10E-05,0.036011,10.3,83.323,75.556,0.009446,NaN,19.596,2.5191,343.17,0.05,0.35648,2.342
5.5112,1187.3,272.99,-9.8591,279.02,9.8592,234.62,0.034498,234.62,0.0084247,57.709,0.043195,28.61,-80.598,9.7847,0.88355,0,-1.5009,0.0029641,15503,0,11.632,0.026689,189.43,147.31,4.0891,0.81873,118202,0,1.0372,1.0512,1.0537,0.70846,0.13562,0.20714,0.1418,0.57995,8.87E-05,0,0,0,0,-5.03E-05,0.03595,10.3,83.323,75.48,0.0096772,NaN,19.474,2.515,343.1,0.05,0.35831,2.3311
5.5612,1200.9,272.5,-9.859,278.54,9.8591,237.51,0.035322,237.51,0.0085212,57.707,0.042396,28.61,-80.598,9.7847,0.96056,0,-1.4857,0.0027985,15503,0,11.632,0.026689,189.17,147.31,4.0641,0.81742,117884,0,1.0328,1.0515,1.0544,0.7091,0.13552,0.20686,0.15487,0.62977,3.23E-04,0,0,0,0,-4.94E-05,0.035889,10.3,83.323,75.406,0.0099095,NaN,19.354,2.511,343.03,0.05,0.36017,2.3202
5.6112,1214.5,272,-9.8587,278.06,9.8588,240.39,0.036156,240.39,0.0086177,57.705,0.042398,28.61,-80.598,9.7846,0.96004,0,-1.4702,0.0027566,15503,0,11.632,0.026689,189.16,147.31,4.0634,0.81637,117605,0,1.0288,1.0517,1.0546,0.70966,0.13544,0.20664,0.15477,0.62919,2.76E-04,0,0,0,0,-4.85E-05,0.035827,10.3,83.323,75.332,0.010142,NaN,19.233,2.5069,342.95,0.05,0.36222,2.3094
5.6612,1228.1,271.51,-9.8585,277.57,9.8586,243.28,0.037001,243.28,0.0087143,57.703,0.041931,28.61,-80.598,9.7846,1.005,0,-1.4544,0.0026609,15503,0,11.632,0.026689,189.01,147.31,4.0486,0.81516,117303,0,1.0246,1.052,1.0552,0.71027,0.13535,0.20638,0.16245,0.65819,2.86E-04,0,0,0,0,-4.77E-05,0.035766,10.3,83.323,75.259,0.010375,NaN,19.112,2.5029,342.88,0.05,0.3674,2.2986
5.7112,1241.7,271.02,-9.8584,277.09,9.8585,246.16,0.037855,246.16,0.008811,57.701,0.040969,28.61,-80.597,9.7845,1.0981,0,-1.4373,0.0025245,15503,0,11.632,0.026689,188.7,147.31,4.019,0.81378,116977,0,1.0203,1.0523,1.056,0.71093,0.13524,0.20609,0.17848,0.7172,5.95E-05,0,0,0,0,-4.67E-05,0.035704,10.3,83.323,75.186,0.010608,NaN,18.992,2.4988,342.81,0.05,0.3694,2.2879
5.7612,1255.2,270.52,-9.8581,276.61,9.8582,249.05,0.038719,249.05,0.0089078,57.699,0.040835,28.61,-80.597,9.7845,1.111,0,-1.4198,0.0024751,15503,0,11.632,0.026689,188.65,147.31,4.0142,0.81268,116691,0,1.0162,1.0525,1.0564,0.71151,0.13515,0.20586,0.1807,0.72516,9.63E-05,0,0,0,0,-4.57E-05,0.035643,10.3,83.323,75.115,0.010842,NaN,18.872,2.4948,342.74,0.05,0.37126,2.2771
5.8112,1268.7,270.03,-9.858,276.13,9.8581,251.93,0.039593,251.93,0.0090046,57.697,0.039968,28.61,-80.597,9.7845,1.1951,0,-1.4014,0.0023823,15503,0,11.632,0.026689,188.38,147.31,3.9877,0.81132,116376,0,1.012,1.0528,1.0572,0.71216,0.13505,0.20557,0.19535,0.77894,-1.11E-05,0,0,0,0,-4.47E-05,0.035581,10.3,83.323,75.044,0.011078,NaN,18.752,2.4909,342.66,0.05,0.37317,2.2666
5.8612,1282.2,269.54,-9.8578,275.64,9.8578,254.82,0.040478,254.82,0.0091015,57.695,0.039832,28.61,-80.597,9.7844,1.2084,0,-1.3825,0.0023385,15503,0,11.632,0.026689,188.33,147.31,3.9828,0.81021,116097,0,1.008,1.053,1.0576,0.71273,0.13496,0.20534,0.19766,0.78695,-3.82E-04,0,0,0,0,-4.37E-05,0.03552,10.3,83.323,74.975,0.011315,NaN,18.633,2.487,342.59,0.05,0.37512,2.2561
5.9112,1295.7,269.05,-9.8576,275.16,9.8577,257.7,0.041372,257.7,0.0091985,57.693,0.03921,28.61,-80.597,9.7844,1.2689,0,-1.3632,0.0022681,15503,0,11.632,0.026689,188.13,147.31,3.9637,0.80893,115795,0,1.0039,1.0533,1.0583,0.71336,0.13487,0.20507,0.20829,0.82574,-4.86E-04,0,0,0,0,-4.26E-05,0.035459,10.3,83.323,74.906,0.011552,NaN,18.513,2.4832,342.52,0.05,0.37723,2.2457
5.9612,1309.1,268.55,-9.8577,274.68,9.8578,260.58,0.042277,260.58,0.0092955,57.691,0.03771,28.61,-80.597,9.7843,1.4143,0,-1.3421,0.0021639,15503,0,11.632,0.026689,187.68,147.31,3.9195,0.80735,115450,0,0.99982,1.0536,1.0598,0.71409,0.13474,0.20473,0.23418,0.91822,-9.30E-05,0,0,0,0,-4.15E-05,0.035397,10.3,83.323,74.839,0.01179,NaN,18.394,2.4794,342.45,0.05,0.37965,2.2353
6.0112,1322.5,268.06,-9.8576,274.2,9.8576,263.47,0.043191,263.47,0.0093926,57.689,0.037083,28.61,-80.597,9.7843,1.4754,0,-1.3198,0.0021158,15503,0,11.632,0.026689,187.49,147.31,3.9007,0.80605,115147,0,0.99581,1.0538,1.0606,0.71472,0.13465,0.20446,0.24515,0.95588,2.24E-04,0,0,0,0,-4.03E-05,0.035336,10.3,83.323,74.772,0.012029,NaN,18.275,2.4755,342.37,0.05,0.38229,2.2249
6.0612,1335.9,267.57,-9.8575,273.71,9.8576,266.35,0.044116,266.35,0.0094898,57.687,0.036146,28.61,-80.597,9.7843,1.5665,0,-1.2964,0.002057,15503,0,11.632,0.026689,187.2,147.31,3.8733,0.80465,114830,0,0.99184,1.0541,1.0617,0.7154,0.13454,0.20417,0.26166,1.0135,6.93E-05,0,0,0,0,-3.90E-05,0.035275,10.3,83.323,74.707,0.012269,NaN,18.157,2.4717,342.3,0.05,0.38591,2.2146
6.1112,1349.3,267.07,-9.8575,273.23,9.8576,269.24,0.04505,269.24,0.009587,57.686,0.034971,28.61,-80.597,9.7842,1.6802,0,-1.2716,0.0019971,15503,0,11.632,0.026689,186.86,147.31,3.8397,0.80317,114501,0,0.98793,1.0544,1.063,0.7161,0.13443,0.20386,0.28252,1.085,-5.55E-05,0,0,0,0,-3.77E-05,0.035213,10.3,83.323,74.642,0.012509,NaN,18.038,2.4679,342.23,0.05,0.38811,2.2042
6.1612,1362.6,266.58,-9.8575,272.75,9.8576,272.12,0.045995,272.12,0.0096843,57.684,0.033959,28.61,-80.597,9.7842,1.7783,0,-1.2454,0.0019559,15503,0,11.632,0.026689,186.56,147.31,3.811,0.80173,114179,0,0.98405,1.0547,1.0643,0.71678,0.13432,0.20356,0.3007,1.1456,2.32E-04,0,0,0,0,-3.63E-05,0.035152,10.3,83.323,74.579,0.01275,NaN,17.92,2.4641,342.16,0.05,0.39013,2.194
6.2112,1375.9,266.09,-9.8575,272.27,9.8575,275.01,0.04695,275.01,0.0097816,57.682,0.033019,28.61,-80.597,9.7841,1.8695,0,-1.2178,0.0019161,15503,0,11.632,0.026689,186.29,147.31,3.7845,0.80032,113861,0,0.98021,1.0549,1.0656,0.71746,0.13421,0.20327,0.31777,1.2022,2.10E-04,0,0,0,0,-3.48E-05,0.035091,10.3,83.323,74.518,0.012991,NaN,17.802,2.4603,342.09,0.05,0.39207,2.1837
6.2612,1389.2,265.6,-9.8572,271.79,9.8573,277.89,0.047914,277.89,0.009879,57.681,0.03286,28.61,-80.597,9.7841,1.8864,0,-1.1897,0.00189,15503,0,11.632,0.026689,186.23,147.31,3.7789,0.79915,113578,0,0.97624,1.0552,1.066,0.71806,0.13412,0.20302,0.32092,1.2128,1.26E-04,0,0,0,0,-3.33E-05,0.035029,10.3,83.323,74.458,0.013233,NaN,17.684,2.4565,342.02,0.05,0.39398,2.1735
6.3112,1402.5,265.1,-9.857,271.3,9.857,280.77,0.048889,280.77,0.0099765,57.679,0.032739,28.61,-80.597,9.7841,1.8995,0,-1.1616,0.0018736,15503,0,11.632,0.026689,186.18,147.31,3.7744,0.79799,113297,0,0.97227,1.0555,1.0664,0.71865,0.13403,0.20278,0.32336,1.2202,-4.13E-04,0,0,0,0,-3.19E-05,0.034968,10.3,83.323,74.399,0.013476,NaN,17.566,2.4527,341.94,0.05,0.39591,2.1634
6.3612,1415.7,264.61,-9.857,270.82,9.8571,283.66,0.049874,283.66,0.010074,57.677,0.031422,28.61,-80.597,9.784,2.0271,0,-1.1326,0.0018401,15503,0,11.632,0.026689,185.81,147.31,3.7383,0.79643,112960,0,0.96857,1.0558,1.0682,0.71938,0.13392,0.20246,0.3476,1.2991,-2.11E-04,0,0,0,0,-3.05E-05,0.034907,10.3,83.323,74.342,0.013719,NaN,17.449,2.4489,341.87,0.05,0.40026,2.1532
6.4112,1429,264.12,-9.8571,270.34,9.8571,286.54,0.050869,286.54,0.010171,57.676,0.030292,28.61,-80.597,9.784,2.1367,0,-1.1019,0.0018191,15503,0,11.632,0.026689,185.5,147.31,3.7076,0.79493,112632,0,0.96488,1.056,1.0698,0.7201,0.1338,0.20215,0.36868,1.3665,3.69E-04,0,0,0,0,-2.90E-05,0.034845,10.3,83.323,74.286,0.013965,NaN,17.332,2.4451,341.8,0.05,0.40281,2.1431
6.4612,1442.1,263.62,-9.8569,269.86,9.8569,289.43,0.051874,289.43,0.010269,57.674,0.029891,28.61,-80.597,9.7839,2.177,0,-1.0704,0.0018023,15503,0,11.632,0.026689,185.37,147.31,3.6958,0.79366,112336,0,0.961,1.0563,1.0706,0.72073,0.13371,0.20189,0.37646,1.3917,-1.28E-04,0,0,0,0,-2.74E-05,0.034784,10.3,83.323,74.231,0.014212,NaN,17.215,2.4414,341.73,0.05,0.4048,2.1331
6.5112,1455.3,263.13,-9.8567,269.38,9.8568,292.31,0.052889,292.31,0.010367,57.673,0.02937,28.61,-80.597,9.7839,2.2289,0,-1.0385,0.0017824,15503,0,11.632,0.026689,185.22,147.31,3.681,0.79235,112035,0,0.95717,1.0566,1.0715,0.72138,0.13361,0.20162,0.38653,1.4228,1.31E-04,0,0,0,0,-2.59E-05,0.034723,10.3,83.323,74.179,0.01446,NaN,17.098,2.4376,341.66,0.05,0.40684,2.123
6.5612,1468.5,262.64,-9.8566,268.9,9.8566,295.19,0.053914,295.19,0.010464,57.672,0.028951,28.61,-80.597,9.7838,2.2711,0,-1.0059,0.0017662,15503,0,11.632,0.026689,185.1,147.31,3.6689,0.79105,111737,0,0.95331,1.0569,1.0724,0.72203,0.13351,0.20135,0.39474,1.4487,6.33E-05,0,0,0,0,-2.44E-05,0.034661,10.3,83.323,74.128,0.014709,NaN,16.981,2.4339,341.59,0.05,0.40884,2.1131
6.6112,1481.6,262.15,-9.8562,268.41,9.8563,298.08,0.054949,298.08,0.010562,57.67,0.029014,28.61,-80.597,9.7838,2.2671,0,-0.97346,0.0017533,15503,0,11.632,0.026689,185.1,147.31,3.6691,0.78991,111461,0,0.94928,1.0572,1.0726,0.72262,0.13343,0.20111,0.39393,1.4457,-3.50E-04,0,0,0,0,-2.29E-05,0.0346,10.3,83.323,74.078,0.014958,NaN,16.865,2.4301,341.52,0.05,0.41094,2.1031
