# Time (s),Altitude (m),Vertical velocity (m/s),Vertical acceleration (m/s²),Total velocity (m/s),Total acceleration (m/s²),Position East of launch (m),Position North of launch (m),Lateral distance (m),Lateral direction (°),Lateral velocity (m/s),Lateral acceleration (m/s²),Latitude (°),Longitude (°),Gravitational acceleration (m/s²),Angle of attack (°),Roll rate (°/s),Pitch rate (°/s),Yaw rate (°/s),Mass (g),Propellant mass (g),Longitudinal moment of inertia (kg·m²),Rotational moment of inertia (kg·m²),CP location (cm),CG location (cm),Stability margin calibers (?),Mach number (?),Reynolds number (?),Thrust (N),Drag force (N),Drag coefficient (?),Axial drag coefficient (?),Friction drag coefficient (?),Pressure drag coefficient (?),Base drag coefficient (?),Normal force coefficient (?),Pitch moment coefficient (?),Yaw moment coefficient (?),Side force coefficient (?),Roll moment coefficient (?),Roll forcing coefficient (?),Roll damping coefficient (?),Pitch damping coefficient (?),Coriolis acceleration (m/s²),Reference length (cm),Reference area (cm²),Vertical orientation (zenith) (°),Lateral orientation (azimuth) (°),Wind velocity (m/s),Air temperature (°C),Air pressure (mbar),Speed of sound (m/s),Simulation time step (s),Computation time (s),Dynamic Pressure (mbar)
0,0,0,25.393,0,25.393,0,0,0,0,0,0,28.61,-80.6,9.7884,90,0,0,0,18166,2663.3,13.153,0.028562,NaN,158.95,NaN,0.0048104,269655,639.11,0,0.84802,0,0.62327,0.10474,0.12,NaN,NaN,NaN,NaN,NaN,NaN,NaN,NaN,0,10.3,83.323,90,0,NaN,23.957,995.71,345.82,0.01,0.01267,0
0.01,0.0012697,0.25393,93.966,0.25393,93.966,0,0,0,0,0,0,28.61,-80.6,9.7884,81.406,0,0,0,18166,2663.3,13.153,0.028562,NaN,158.95,NaN,0.0049137,275443,1884.8,9.18E-05,0.84501,0.0065374,0.62027,0.10474,0.12,NaN,NaN,NaN,NaN,NaN,NaN,NaN,NaN,3.25E-05,10.3,83.323,90,0,NaN,23.957,995.71,345.82,0.01,0.017429,7.53E-04
0.02,0.0085085,1.1939,103.88,1.1939,103.88,0,0,0,0,0,0,28.61,-80.6,9.7884,54.869,0,0,0,18160,2657.3,13.15,0.028558,NaN,158.93,NaN,0.0059994,336307,2064.3,0.0063414,0.81777,0.30289,0.59303,0.10474,0.12,NaN,NaN,NaN,NaN,NaN,NaN,NaN,NaN,1.53E-04,10.3,83.323,90,0,NaN,23.957,995.7,345.82,0.01,0.020975,0.016641
0.03,0.025643,2.2331,97.966,2.2331,97.966,0,0,0,0,0,0,28.61,-80.6,9.7884,37.498,0,0,0,18152,2649.1,13.146,0.028552,NaN,158.9,NaN,0.0081394,456262,1956,0.026765,0.7795,0.69455,0.55475,0.10474,0.12001,NaN,NaN,NaN,NaN,NaN,NaN,NaN,NaN,2.86E-04,10.3,83.323,90,0,NaN,23.957,995.7,345.82,0.01,0.024434,0.058223
0.04,0.052875,3.2133,98.266,3.2133,98.266,0,0,0,0,0,0,28.61,-80.6,9.7884,28.298,0,0,0,18142,2639.4,13.141,0.028545,NaN,158.87,NaN,0.010553,591562,1960.4,0.055829,0.74977,0.86185,0.52501,0.10474,0.12001,NaN,NaN,NaN,NaN,NaN,NaN,NaN,NaN,4.11E-04,10.3,83.323,90,0,NaN,23.956,995.7,345.82,0.01,0.026908,0.12055
0.05,0.089923,4.1964,98.564,4.1964,98.564,0,0,0,0,0,0,28.61,-80.6,9.7884,22.599,0,0,0,18133,2629.9,13.137,0.028538,NaN,158.83,NaN,0.013144,736797,1964.8,0.091888,0.72646,0.91438,0.50169,0.10475,0.12002,NaN,NaN,NaN,NaN,NaN,NaN,NaN,NaN,5.37E-04,10.3,83.323,90,0,NaN,23.956,995.7,345.82,0.01,0.029818,0.20559
0.06,0.13682,5.1825,98.862,5.1825,98.862,0,0,0,0,0,0,28.61,-80.6,9.7884,18.474,0,0,0,18123,2620.4,13.132,0.028532,NaN,158.79,NaN,0.0158,885710,1969.2,0.13336,0.7081,0.91834,0.48332,0.10475,0.12003,NaN,NaN,NaN,NaN,NaN,NaN,NaN,NaN,6.64E-04,10.3,83.323,90,0,NaN,23.956,995.7,345.82,0.01,0.032781,0.31357
0.07,0.19359,6.1716,99.16,6.1716,99.16,0,0,0,0,0,0,28.61,-80.6,9.7884,15.54,0,0,0,18114,2611,13.127,0.028525,NaN,158.76,NaN,0.018523,1038350,1973.6,0.17895,0.69304,0.89662,0.46825,0.10475,0.12004,NaN,NaN,NaN,NaN,NaN,NaN,NaN,NaN,7.90E-04,10.3,83.323,90,0,NaN,23.956,995.69,345.82,0.01,0.038099,0.44468
0.08,0.26026,7.1636,99.458,7.1636,99.458,0,0,0,0,0,0,28.61,-80.6,9.7884,13.356,0,0,0,18104,2601.5,13.123,0.028518,NaN,158.72,NaN,0.021291,1193483,1978,0.22688,0.68043,0.86045,0.45562,0.10476,0.12006,NaN,NaN,NaN,NaN,NaN,NaN,NaN,NaN,9.17E-04,10.3,83.323,90,0,NaN,23.956,995.69,345.82,0.01,0.050353,0.59913
0.09,0.33687,8.1587,99.757,8.1587,99.757,0,0,0,0,0,0,28.61,-80.6,9.7884,11.673,0,0,0,18095,2592.1,13.118,0.028512,NaN,158.69,NaN,0.024091,1350421,1982.5,0.27808,0.66967,0.82376,0.44483,0.10476,0.12008,NaN,NaN,NaN,NaN,NaN,NaN,NaN,NaN,0.0010446,10.3,83.323,90,0,NaN,23.955,995.69,345.82,0.01,0.05214,0.77713
0.1,0.42345,9.1567,100.06,9.1567,100.06,0,0,0,0,0,0,28.61,-80.6,9.7884,10.338,0,0,0,18085,2582.6,13.113,0.028505,NaN,158.65,NaN,0.026915,1508757,1986.9,0.33332,0.66034,0.79102,0.43548,0.10477,0.12009,NaN,NaN,NaN,NaN,NaN,NaN,NaN,NaN,0.0011724,10.3,83.323,90,0,NaN,23.955,995.68,345.82,0.01,0.054169,0.97888
0.11,0.52002,10.158,100.35,10.158,100.35,0,0,0,0,0,0,28.61,-80.6,9.7884,9.3826,0,0,0,18076,2573.2,13.109,0.028499,NaN,158.62,NaN,0.029772,1668846,1991.3,0.39445,0.65211,0.76511,0.42722,0.10478,0.12012,NaN,NaN,NaN,NaN,NaN,NaN,NaN,NaN,0.0013005,10.3,83.323,90,0,NaN,23.954,995.67,345.82,0.0098447,0.057587,1.2046
0.11984,0.62489,11.146,100.65,11.146,100.65,0,0,0,0,0,0,28.61,-80.6,9.7884,8.6037,0,0,0,18066,2563.8,13.104,0.028492,NaN,158.58,NaN,0.032598,1827291,1995.4,0.4595,0.64491,0.74342,0.41999,0.10479,0.12014,NaN,NaN,NaN,NaN,NaN,NaN,NaN,NaN,0.0014271,10.3,83.323,90,0,NaN,23.954,995.67,345.82,0.0089717,0.065574,1.4504
0.12882,0.72894,12.049,100.91,12.049,100.91,0,0,0,0,0,0,28.61,-80.6,9.7884,8.0013,0,0,0,18058,2554.9,13.1,0.028486,NaN,158.55,NaN,0.035186,1972340,1999.2,0.52311,0.639,0.72642,0.41404,0.10479,0.12016,NaN,NaN,NaN,NaN,NaN,NaN,NaN,NaN,0.0015427,10.3,83.323,90,0,NaN,23.954,995.66,345.81,0.0082992,0.070428,1.695
0.13712,0.83241,12.887,101.15,12.887,101.15,0,0,0,0,0,0,28.61,-80.6,9.7884,7.5168,0,0,0,18049,2546.7,13.095,0.02848,NaN,158.52,NaN,0.037589,2107027,2002.8,0.58568,0.63398,0.71265,0.409,0.1048,0.12018,NaN,NaN,NaN,NaN,NaN,NaN,NaN,NaN,0.00165,10.3,83.323,90,0,NaN,23.953,995.66,345.81,0.0077597,0.073338,1.9389
0.14488,0.93546,13.672,101.37,13.672,101.37,0,0,0,0,0,0,28.61,-80.6,9.7884,7.1157,0,0,0,18042,2539.1,13.092,0.028475,NaN,158.49,NaN,0.039843,2233377,2006.1,0.64747,0.62964,0.70122,0.40463,0.10481,0.12021,NaN,NaN,NaN,NaN,NaN,NaN,NaN,NaN,0.0017505,10.3,83.323,90,0,NaN,23.953,995.65,345.81,0.0073141,0.075154,2.1823
0.15219,1.0382,14.414,101.56,14.414,101.56,0,0,0,0,0,0.083803,28.61,-80.6,9.7884,6.7844,0,0,0,18035,2532,13.088,0.02847,173.27,158.46,1.4373,0.041975,2352865,2009.2,0.7088,0.62582,0.69166,0.40077,0.10482,0.12023,1.4423,2.0731,-1.07E-04,0,0,0,0,0,0.0018455,10.3,83.323,90,0,NaN,23.952,995.64,345.81,0.010971,0.079566,2.4255
0.16316,1.2024,15.529,101.71,15.529,101.71,-5.16E-06,0,5.16E-06,-180,9.50E-04,0.089342,28.61,-80.6,9.7884,6.3679,0,0.011146,4.37E-07,18026,2523.2,13.084,0.028463,173.96,158.43,1.5083,0.045184,2532716,2010.9,0.80664,0.62051,0.6793,0.39542,0.10483,0.12027,1.3278,2.0029,-3.19E-04,0,0,0,0,8.96E-07,0.0019882,10.3,83.323,90,-0.0015163,NaN,23.952,995.63,345.81,0.016457,0.083282,2.8152
0.17962,1.4718,17.204,101.91,17.204,101.91,-3.33E-05,0,3.33E-05,-180,0.0024875,0.097367,28.61,-80.6,9.7884,5.8419,0,0.030275,2.77E-06,18012,2509.8,13.077,0.028454,174.89,158.38,1.6029,0.050009,2803138,2013.3,0.96532,0.61339,0.66364,0.38821,0.10485,0.12033,1.188,1.9042,-2.72E-04,0,0,0,0,5.39E-06,0.0022027,10.3,83.323,90,-0.0050863,NaN,23.95,995.62,345.81,0.024685,0.086534,3.4553
0.2043,1.9275,19.722,102.2,19.722,102.2,-1.26E-04,0,1.26E-04,-180,0.005029,0.10769,28.61,-80.6,9.7884,5.1839,0,0.06456,0,17992,2489.5,13.067,0.02844,176.11,158.3,1.7295,0.057266,3209892,2016.9,1.2293,0.6042,0.64448,0.37889,0.10489,0.12043,1.0207,1.7654,-2.81E-04,0,0,0,0,1.87E-05,0.0025251,10.3,83.323,89.998,-0.0024793,NaN,23.948,995.59,345.81,0.037028,0.088735,4.5409
0.24133,2.7279,23.513,102.65,23.513,102.65,-3.87E-04,0,3.87E-04,-180,0.0091431,0.11351,28.61,-80.6,9.7883,4.2607,0,0.12772,-9.62E-06,17962,2459.1,13.052,0.028418,177.99,158.18,1.9225,0.068184,3821722,2022,1.6786,0.5929,0.62082,0.36735,0.10495,0.1206,0.80019,1.5379,-3.47E-04,0,0,0,0,5.16E-05,0.0030105,10.3,83.323,89.995,6.43E-04,NaN,23.945,995.54,345.81,0.05,0.091827,6.4541
0.29133,4.0322,28.658,103.25,28.658,103.25,-9.85E-04,0,9.85E-04,-180,0.014673,0.10415,28.61,-80.6,9.7883,3.2254,0,0.23196,-1.15E-05,17919,2416.2,13.03,0.028388,180.33,158.02,2.1656,0.083005,4652220,2027.9,2.3933,0.58088,0.59732,0.35494,0.10505,0.1209,0.57279,1.2408,-4.10E-04,0,0,0,0,1.15E-04,0.0036692,10.3,83.323,89.986,0.0018808,NaN,23.939,995.47,345.81,0.05,0.097125,9.5868
0.34133,5.5944,33.832,103.84,33.832,103.84,-0.0018432,-6.63E-09,0.0018432,-180,0.019552,0.08992,28.61,-80.6,9.7883,2.6509,0,0.35522,-2.67E-05,17870,2366.9,13.005,0.028354,181.75,157.83,2.3224,0.097944,5489146,2033.8,3.2497,0.57137,0.58257,0.34495,0.10517,0.12125,0.45573,1.0578,9.42E-05,0,0,0,0,1.94E-04,0.0043317,10.3,83.323,89.971,0.0023982,NaN,23.933,995.38,345.8,0.05,0.099307,13.36
0.39133,7.416,39.036,104.43,39.036,104.43,-0.0029229,-6.21E-09,0.0029229,-180,0.023387,0.059888,28.61,-80.6,9.7883,2.211,0,0.49964,-1.14E-05,17820,2317.6,12.98,0.028319,182.91,157.64,2.4537,0.11298,6331076,2039.7,4.2407,0.56361,0.57145,0.33664,0.10531,0.12166,0.37053,0.90927,-5.70E-05,0,0,0,0,2.88E-04,0.004998,10.3,83.323,89.95,0.0025222,NaN,23.925,995.27,345.8,0.05,0.10095,17.785
0.44133,9.4986,44.269,105.01,44.269,105.01,-0.0041578,0,0.0041578,180,0.025837,0.038877,28.61,-80.6,9.7883,2.1367,0,0.67157,5.61E-05,17771,2268.4,12.955,0.028284,183.12,157.45,2.4929,0.12812,7179100,2045.5,5.3858,0.55714,0.5644,0.32954,0.10547,0.12213,0.35656,0.88847,-1.04E-04,0,0,0,0,4.04E-04,0.005668,10.3,83.323,89.921,0.001046,NaN,23.916,995.15,345.79,0.05,0.10307,22.871
0.49133,11.844,49.532,105.59,49.532,105.59,-0.0054842,1.13E-08,0.0054842,180,0.026874,0.002818,28.61,-80.6,9.7883,2.0385,0,0.88613,1.25E-04,17722,2219.1,12.929,0.02825,183.41,157.26,2.5388,0.14334,8031522,2051.4,6.6676,0.55168,0.55825,0.32335,0.10566,0.12267,0.33826,0.85783,-4.24E-04,0,0,0,0,5.63E-04,0.0063418,10.3,83.323,89.882,-0.0015003,NaN,23.906,995.01,345.79,0.05,0.10518,28.628
0.54133,14.452,54.823,106.17,54.823,106.17,-0.0067894,0,0.0067894,-180,0.02452,0.10139,28.61,-80.6,9.7883,1.7202,0,1.1298,1.82E-04,17672,2169.8,12.904,0.028215,184.31,157.06,2.6455,0.15863,8887226,2057.3,8.0691,0.54703,0.55173,0.31789,0.10586,0.12327,0.28008,0.74021,-2.39E-04,0,0,0,0,7.47E-04,0.0070192,10.3,83.323,89.832,-0.0036561,NaN,23.895,994.85,345.78,0.05,0.10746,35.067
0.59133,17.326,60.142,106.74,60.142,106.74,-0.0078383,-8.17E-08,0.0078383,-180,0.016379,0.22934,28.61,-80.6,9.7883,1.4535,0,1.3828,1.37E-04,17623,2120.5,12.878,0.02818,185.1,156.87,2.7412,0.17401,9747580,2063.1,9.6138,0.54302,0.54639,0.31299,0.10609,0.12394,0.23287,0.63718,-3.60E-04,0,0,0,0,9.30E-04,0.0077003,10.3,83.323,89.769,-0.0047391,NaN,23.882,994.69,345.77,0.05,0.10941,42.197
0.64133,20.467,65.49,107.3,65.49,107.3,-0.0083093,-2.69E-07,0.0083093,-180,0.0011744,0.3851,28.61,-80.6,9.7883,1.241,0,1.6448,1.66E-04,17574,2071.3,12.853,0.028146,185.75,156.67,2.8236,0.18948,10612542,2069,11.305,0.53957,0.54203,0.30856,0.10635,0.12467,0.19626,0.553,-1.65E-04,0,0,0,0,0.0011095,0.008385,10.3,83.323,89.693,-0.0048127,NaN,23.869,994.5,345.76,0.05,0.11181,50.028
0.69133,23.876,70.866,107.86,70.866,107.86,-0.0078103,-5.99E-07,0.0078103,-180,0.022726,0.57866,28.61,-80.6,9.7883,1.0307,0,1.9101,6.96E-05,17525,2022,12.827,0.028111,186.42,156.47,2.9073,0.20502,11481797,2074.9,13.143,0.53659,0.53829,0.3045,0.10662,0.12546,0.16091,0.46691,2.34E-04,0,0,0,0,0.0012781,0.0090734,10.3,83.323,89.605,-0.0044952,NaN,23.854,994.3,345.75,0.05,0.11397,58.57
0.74133,27.554,76.27,108.41,76.27,108.41,-0.0058612,-1.09E-06,0.0058612,-179.99,0.057077,0.80182,28.61,-80.6,9.7883,0.85894,0,2.1706,1.63E-04,17475,1972.7,12.801,0.028076,186.98,156.28,2.9811,0.22066,12355466,2080.7,15.133,0.53402,0.5352,0.30077,0.10692,0.12633,0.13267,0.394,-5.76E-05,0,0,0,0,0.0014249,0.0097653,10.3,83.323,89.503,-0.0037326,NaN,23.838,994.08,345.74,0.05,0.11637,67.832
0.79133,31.504,81.702,108.96,81.702,108.96,-0.0018951,-1.77E-06,0.0018951,-179.95,0.10385,1.0796,28.61,-80.6,9.7883,0.63079,0,2.4127,2.45E-04,17426,1923.4,12.775,0.028042,187.74,156.08,3.0743,0.23637,13232998,2086.6,17.271,0.53181,0.53245,0.2973,0.10724,0.12726,0.096037,0.29416,-1.01E-04,0,0,0,0,0.0015343,0.010461,10.3,83.323,89.388,-0.0037086,NaN,23.821,993.85,345.73,0.05,0.11862,77.824
0.84133,35.725,87.16,109.5,87.16,109.5,0.0047667,-2.65E-06,0.0047667,-0.031854,0.16501,1.3702,28.61,-80.6,9.7882,0.48475,0,2.6198,4.47E-04,17377,1874.1,12.748,0.028007,188.25,155.88,3.143,0.25217,14115016,2092.5,19.573,0.52992,0.5303,0.29407,0.10759,0.12827,0.073131,0.22791,-4.00E-05,0,0,0,0,0.0015895,0.01116,10.3,83.323,89.262,-0.0038978,NaN,23.803,993.6,345.72,0.05,0.12326,88.553
0.89133,40.22,92.645,110.03,92.646,110.04,0.014858,-3.79E-06,0.014858,-0.014622,0.24124,1.6861,28.61,-80.6,9.7882,0.35926,0,2.8014,3.64E-04,17328,1824.9,12.722,0.027972,188.7,155.67,3.2062,0.26805,15001145,2098.4,22.036,0.52833,0.52854,0.29103,0.10796,0.12934,0.053775,0.17039,-4.99E-04,0,0,0,0,0.0016087,0.011862,10.3,83.323,89.126,-0.0038672,NaN,23.784,993.34,345.71,0.05,0.12533,100.03
0.94133,44.99,98.157,110.55,98.158,110.57,0.029168,-5.24E-06,0.029168,-0.010287,0.33397,2.0296,28.61,-80.6,9.7882,0.23722,0,2.947,8.18E-04,17278,1775.6,12.695,0.027938,189.14,155.47,3.2692,0.28401,15891218,2104.2,24.664,0.52701,0.5271,0.28817,0.10836,0.13049,0.035238,0.11393,-1.64E-04,0,0,0,0,0.0015859,0.012568,10.3,83.323,88.982,-0.0037225,NaN,23.764,993.06,345.7,0.05,0.12698,112.26
0.99133,50.037,103.69,111.07,103.7,111.09,0.048555,-7.03E-06,0.048555,-0.0082956,0.44454,2.4,28.61,-80.6,9.7882,0.11196,0,3.043,0.0020254,17229,1726.3,12.669,0.027903,189.61,155.27,3.3342,0.30004,16785100,2110.1,27.46,0.52594,0.52596,0.28546,0.10878,0.1317,0.016501,0.05358,1.11E-05,0,0,0,0,0.0015151,0.013277,10.3,83.323,88.832,-0.0039884,NaN,23.742,992.76,345.69,0.05,0.13019,125.26
1.0413,55.36,109.26,111.57,109.26,111.61,0.073949,-9.24E-06,0.073949,-0.007162,0.57453,2.8069,28.61,-80.6,9.7882,0.046431,0,-3.0625,0.0046387,17180,1677,12.642,0.027868,189.87,155.06,3.3795,0.31615,17682469,2116,30.429,0.52511,0.52511,0.28289,0.10923,0.13299,0.0068169,0.024177,-2.41E-04,0,0,0,0,-0.0013823,0.013989,10.3,83.323,88.679,-0.0044956,NaN,23.719,992.45,345.67,0.05,0.13321,139.03
1.0913,60.963,114.85,111.9,114.85,111.95,0.10636,-1.20E-05,0.10636,-0.0064691,0.72513,3.2149,28.61,-80.6,9.7882,0.18458,0,-2.9762,9.95E-04,17130,1627.8,12.615,0.027834,189.42,154.86,3.3554,0.33234,18583546,2118.9,33.577,0.52449,0.52454,0.28043,0.1097,0.13436,0.027369,0.092774,-3.17E-04,0,0,0,0,-0.0011815,0.014705,10.3,83.323,88.528,-0.0049542,NaN,23.695,992.12,345.66,0.05,0.13523,153.58
1.1413,66.845,120.45,111.54,120.45,111.6,0.1468,-1.55E-05,0.1468,-0.0060329,0.8958,3.5874,28.61,-80.6,9.7882,0.29,0,-2.7855,7.18E-04,17081,1578.3,12.588,0.027799,189.09,154.65,3.3434,0.34858,19486948,2110.3,36.903,0.52408,0.52421,0.27808,0.1102,0.1358,0.043332,0.14629,-3.92E-05,0,0,0,0,-9.41E-04,0.015423,10.3,83.323,88.383,-0.0052688,NaN,23.67,991.77,345.64,0.05,0.13686,168.89
1.1913,73.008,126.04,111.1,126.04,111.17,0.19625,-1.97E-05,0.19625,-0.0057515,1.0854,3.9711,28.61,-80.6,9.7881,0.43427,0,-2.4705,3.19E-04,17031,1528.6,12.56,0.027764,188.63,154.44,3.3195,0.36476,20386473,2100.4,40.39,0.52387,0.52417,0.27585,0.11072,0.1373,0.065556,0.21816,1.18E-04,0,0,0,0,-6.76E-04,0.016138,10.3,83.323,88.251,-0.0054556,NaN,23.643,991.41,345.63,0.05,0.1388,184.87
1.2413,79.449,131.6,110.65,131.61,110.73,0.25563,-2.48E-05,0.25563,-0.0055652,1.2929,4.2896,28.61,-80.6,9.7881,0.52281,0,-2.0076,3.59E-04,16981,1478.8,12.532,0.027729,188.37,154.23,3.3148,0.38089,21282118,2090.5,44.032,0.52384,0.52427,0.27371,0.11127,0.13886,0.079437,0.26378,-3.21E-04,0,0,0,0,-4.09E-04,0.016851,10.3,83.323,88.139,-0.0056882,NaN,23.616,991.03,345.61,0.05,0.14104,201.5
1.2913,86.167,137.14,110.19,137.15,110.28,0.32576,-3.09E-05,0.32576,-0.0054396,1.5146,4.5372,28.61,-80.6,9.7881,0.57817,0,-1.4282,5.93E-04,16932,1429,12.504,0.027694,188.22,154.01,3.3213,0.39695,22173568,2080.7,47.827,0.52398,0.52451,0.27167,0.11183,0.14048,0.088229,0.29287,-2.66E-04,0,0,0,0,-1.91E-04,0.017561,10.3,83.323,88.053,-0.0052311,NaN,23.587,990.64,345.59,0.05,0.14312,218.77
1.3413,93.162,142.66,109.72,142.67,109.82,0.40725,-3.79E-05,0.40725,-0.0053363,1.746,4.6691,28.61,-80.6,9.7881,0.57036,0,-0.76614,2.21E-04,16882,1379.2,12.476,0.027659,188.29,153.8,3.3485,0.41295,23060989,2070.8,51.769,0.52429,0.52481,0.2697,0.11242,0.14217,0.087057,0.29202,-2.53E-04,0,0,0,0,-5.07E-05,0.018267,10.3,83.323,87.998,-0.0047441,NaN,23.557,990.22,345.57,0.05,0.14515,236.66
1.3913,100.43,148.16,109.24,148.17,109.34,0.50043,-4.57E-05,0.50043,-0.005235,1.9817,4.7143,28.61,-80.6,9.788,0.54752,0,-0.066631,-3.43E-04,16832,1329.4,12.448,0.027624,188.4,153.58,3.3808,0.42889,23943820,2060.9,55.862,0.52475,0.52523,0.26781,0.11303,0.14391,0.083511,0.28219,1.19E-04,0,0,0,0,-3.56E-07,0.018971,10.3,83.323,87.977,-0.0047136,NaN,23.525,989.8,345.56,0.05,0.14755,255.17
1.4413,107.98,153.63,108.67,153.64,108.77,0.6054,-5.43E-05,0.6054,-0.0051405,2.217,4.6463,28.61,-80.6,9.788,0.49276,0,0.64442,-0.0011457,16782,1279.6,12.42,0.027589,188.63,153.36,3.4238,0.44476,24822111,2049.6,60.104,0.52536,0.52575,0.26598,0.11366,0.14572,0.07495,0.25617,3.45E-04,0,0,0,0,3.10E-05,0.019672,10.3,83.323,87.991,-0.0056087,NaN,23.493,989.35,345.54,0.05,0.14935,274.27
1.4913,115.79,159.07,107.9,159.09,108,0.72203,-6.39E-05,0.72203,-0.0050725,2.4472,4.5106,28.61,-80.6,9.788,0.45385,0,1.3413,-9.18E-04,16733,1230.5,12.392,0.027554,188.8,153.15,3.4616,0.46054,25694481,2035.3,64.498,0.5261,0.52643,0.26422,0.11431,0.14757,0.068914,0.23857,-2.13E-04,0,0,0,0,1.25E-04,0.020369,10.3,83.323,88.041,-0.0070351,NaN,23.46,988.89,345.52,0.05,0.15093,293.95
1.5413,123.88,164.47,107.12,164.49,107.2,0.84991,-7.48E-05,0.84991,-0.0050416,2.6649,4.1233,28.61,-80.6,9.788,0.26682,0,1.9337,-8.39E-04,16685,1182.4,12.364,0.027521,189.49,152.94,3.5485,0.47623,26561322,2020.8,69.022,0.52698,0.52709,0.26251,0.11498,0.14948,0.040054,0.14174,3.81E-04,0,0,0,0,2.43E-04,0.021062,10.3,83.323,88.124,-0.0074994,NaN,23.425,988.42,345.49,0.05,0.15308,314.15
1.5913,132.24,169.83,106.32,169.86,106.38,0.98816,-8.69E-05,0.98816,-0.0050399,2.8624,3.7501,28.61,-80.6,9.788,0.1466,0,2.2791,-0.0011507,16637,1134.6,12.336,0.027487,189.95,152.73,3.6143,0.4918,2.74E+07,2006.4,73.698,0.52798,0.52801,0.26087,0.11567,0.15144,0.021851,0.078997,-1.78E-04,0,0,0,0,3.17E-04,0.021749,10.3,83.323,88.23,-0.0072271,NaN,23.389,987.93,345.47,0.05,0.15693,334.86
1.6413,140.87,175.16,105.5,175.18,105.55,1.1358,-1.00E-04,1.1358,-0.0050485,3.0404,3.3277,28.61,-80.6,9.7879,0.019752,0,2.4351,-0.0094622,16589,1086.7,12.308,0.027453,190.45,152.51,3.6833,0.50725,28271285,1991.9,78.521,0.52909,0.52909,0.25927,0.11637,0.15345,0.0029219,0.010393,2.56E-05,0,0,0,0,3.40E-04,0.022431,10.3,83.323,88.349,-0.0060034,NaN,23.352,987.42,345.45,0.05,0.15849,356.04
1.6913,149.76,180.44,104.67,180.47,104.71,1.2918,-1.14E-04,1.2918,-0.0050515,3.1965,2.8843,28.61,-80.6,9.7879,0.10703,0,-2.343,-0.0018233,16541,1038.8,12.28,0.02742,190.19,152.3,3.6792,0.52258,29115203,1977.5,83.491,0.53031,0.53033,0.25772,0.1171,0.1555,0.015941,0.059395,-7.55E-05,0,0,0,0,-2.97E-04,0.023107,10.3,83.323,88.469,-0.0043932,NaN,23.314,986.9,345.43,0.05,0.16012,377.69
1.7413,158.91,185.68,103.83,185.71,103.86,1.4551,-1.28E-04,1.4551,-0.0050353,3.3308,2.4711,28.61,-80.6,9.7879,0.21394,0,-1.9913,-4.49E-04,16494,990.95,12.252,0.027386,189.88,152.08,3.6694,0.53779,29951479,1963,88.604,0.53164,0.53172,0.25621,0.11784,0.1576,0.032123,0.11779,-1.09E-04,0,0,0,0,-2.02E-04,0.023778,10.3,83.323,88.578,-0.0031323,NaN,23.274,986.36,345.4,0.05,0.16194,399.79
1.7913,168.32,190.88,102.9,190.91,102.93,1.6246,-1.42E-04,1.6246,-0.0049962,3.4473,2.1852,28.61,-80.6,9.7878,0.25843,0,-1.4383,-0.0010486,16446,943.48,12.224,0.027353,189.78,151.87,3.6814,0.55287,30779463,1947.5,93.848,0.53307,0.53318,0.25474,0.11859,0.15974,0.038956,0.14326,3.46E-04,0,0,0,0,-9.99E-05,0.024444,10.3,83.323,88.665,-0.0015452,NaN,23.234,985.8,345.38,0.05,0.16419,422.3
1.8413,177.99,196.03,101.92,196.06,101.94,1.7996,-1.55E-04,1.7996,-0.0049288,3.5505,1.9216,28.61,-80.6,9.7878,0.32054,0,-0.73401,-0.0012667,16401,898.15,12.197,0.027321,189.64,151.66,3.6872,0.56783,3.16E+07,1931.5,99.231,0.53459,0.53476,0.25332,0.11936,0.16192,0.048566,0.17908,3.47E-04,0,0,0,0,-2.47E-05,0.025104,10.3,83.323,88.72,0.0016193,NaN,23.192,985.23,345.35,0.05,0.16576,445.2
1.8913,187.92,201.13,100.9,201.16,100.92,1.9795,-1.67E-04,1.9795,-0.0048219,3.6435,1.8064,28.61,-80.6,9.7878,0.33735,0,0.13112,-8.98E-04,16357,854.57,12.171,0.02729,189.65,151.46,3.7078,0.58265,32411057,1915.6,104.73,0.53621,0.53639,0.25193,0.12015,0.16413,0.051222,0.19038,2.17E-04,0,0,0,0,7.48E-07,0.025757,10.3,83.323,88.735,0.0048322,NaN,23.15,984.65,345.33,0.05,0.16725,468.46
1.9413,198.11,206.18,99.875,206.21,99.894,2.1639,-1.76E-04,2.1639,-0.0046713,3.737,1.9444,28.61,-80.6,9.7877,0.2652,0,0.97755,-0.0018895,16314,810.98,12.145,0.027259,189.97,151.26,3.7586,0.59731,33212583,1899.6,110.33,0.5379,0.53801,0.25057,0.12095,0.16638,0.040119,0.15052,4.93E-04,0,0,0,0,3.95E-05,0.026403,10.3,83.323,88.707,0.0071583,NaN,23.106,984.05,345.3,0.05,0.16922,492.05
1.9913,208.54,211.17,98.831,211.21,98.854,2.3533,-1.84E-04,2.3533,-0.0044759,3.84,2.1585,28.61,-80.6,9.7877,0.19669,0,1.6501,-0.0033106,16270,767.39,12.119,0.027229,190.29,151.05,3.8088,0.61183,34005560,1883.6,116.06,0.53967,0.53973,0.24925,0.12176,0.16866,0.029653,0.11244,-2.23E-04,0,0,0,0,1.07E-04,0.027043,10.3,83.323,88.641,0.0094599,NaN,23.061,983.44,345.27,0.05,0.17196,515.95
2.0413,219.22,216.12,97.771,216.15,97.802,2.5481,-1.88E-04,2.5481,-0.0042332,3.9556,2.4529,28.61,-80.6,9.7877,0.12076,0,2.1448,-0.0039888,16226,723.81,12.092,0.027198,190.63,150.85,3.8621,0.62622,3.48E+07,1867.7,121.91,0.54152,0.54154,0.24796,0.12258,0.17098,0.018135,0.070284,2.61E-04,0,0,0,0,1.73E-04,0.027677,10.3,83.323,88.545,0.0093483,NaN,23.015,982.81,345.25,0.05,0.17513,540.13
2.0913,230.15,221.01,96.696,221.05,96.737,2.7492,-1.90E-04,2.7492,-0.0039522,4.0884,2.8358,28.61,-80.6,9.7877,0.024745,0,2.3858,-0.020523,16183,680.22,12.066,0.027168,191.05,150.65,3.9231,0.64045,35564119,1851.7,127.88,0.54343,0.54343,0.24669,0.12342,0.17332,0.0036966,0.014691,-6.91E-06,0,0,0,0,2.05E-04,0.028303,10.3,83.323,88.43,0.0080646,NaN,22.969,982.17,345.22,0.05,0.17797,564.58
2.1413,241.32,225.85,95.602,225.89,95.661,2.9574,-1.88E-04,2.9574,-0.0036451,4.244,3.3707,28.61,-80.6,9.7876,0.12908,0,-2.212,-0.0036539,16139,636.64,12.039,0.027137,190.77,150.44,3.9153,0.65451,36328106,1835.7,133.96,0.54541,0.54544,0.24546,0.12426,0.17569,0.01944,0.076148,1.78E-04,0,0,0,0,-1.69E-04,0.028923,10.3,83.323,88.313,0.0063222,NaN,22.921,981.51,345.19,0.05,0.18179,589.27
2.1913,252.73,230.63,94.496,230.67,94.572,3.174,-1.84E-04,3.174,-0.0033227,4.4248,3.7949,28.61,-80.6,9.7876,0.24009,0,-1.5192,-0.0021557,16096,593.05,12.012,0.027106,190.47,150.23,3.9061,0.66842,37082695,1819.8,140.15,0.54745,0.54755,0.24425,0.12512,0.17808,0.036465,0.14232,7.21E-05,0,0,0,0,-7.63E-05,0.029535,10.3,83.323,88.218,0.0040319,NaN,22.872,980.84,345.16,0.05,0.18395,614.18
2.2413,264.38,235.35,93.388,235.4,93.473,3.4001,-1.78E-04,3.4001,-0.0029995,4.6212,3.9784,28.61,-80.6,9.7875,0.27906,0,-0.50179,-0.0030174,16052,549.47,11.985,0.027076,190.42,150.03,3.9219,0.68222,3.78E+07,1803.8,146.41,0.54957,0.5497,0.24308,0.12598,0.1805,0.042541,0.16697,2.59E-04,0,0,0,0,-8.00E-06,0.030141,10.3,83.323,88.167,5.19E-04,NaN,22.792,979.77,345.11,0.05,0.18571,639.1
2.2913,276.27,240.03,92.279,240.07,92.362,3.6361,-1.71E-04,3.6361,-0.002698,4.8204,3.9075,28.61,-80.6,9.7875,0.25643,3.38E-07,0.59727,-0.0035686,16009,505.88,11.958,0.027045,190.59,149.82,3.9586,0.69589,38542529,1787.9,152.73,0.55175,0.55186,0.24193,0.12686,0.18295,0.03908,0.15442,3.73E-04,0,0,0,0,1.09E-05,0.03074,10.3,83.323,88.169,-0.0043489,NaN,22.692,978.45,345.05,0.05,0.19191,664.06
2.3413,288.38,244.64,91.164,244.69,91.239,3.882,-1.65E-04,3.882,-0.0024404,5.0118,3.6887,28.61,-80.6,9.7875,0.21584,0,1.6007,-0.00317,15965,462.3,11.931,0.027014,190.83,149.61,4.0018,0.70939,39253711,1771.9,159.12,0.55397,0.55405,0.2408,0.12775,0.18542,0.032847,0.13108,-4.45E-04,0,0,0,0,7.53E-05,0.031331,10.3,83.323,88.225,-0.0085956,NaN,22.591,977.11,344.99,0.05,0.19553,689.15
2.3913,300.73,249.2,90.046,249.25,90.103,4.137,-1.62E-04,4.137,-0.0022376,5.186,3.2001,28.61,-80.6,9.7874,0.11056,0,2.3441,-0.0043567,15921,418.71,11.903,0.026984,191.29,149.4,4.0674,0.72274,39954574,1755.9,165.6,0.55625,0.55628,0.2397,0.12865,0.18791,0.016729,0.068071,2.08E-04,0,0,0,0,1.56E-04,0.031915,10.3,83.323,88.325,-0.0083319,NaN,22.488,975.74,344.93,0.05,0.19893,714.34
2.4413,313.3,253.7,88.919,253.76,88.956,4.4001,-1.60E-04,4.4001,-0.0020808,5.3306,2.5378,28.61,-80.6,9.7874,0.034608,0,-2.5236,-0.016129,15878,375.12,11.876,0.026953,191.66,149.18,4.1236,0.73595,40645012,1740,172.17,0.55858,0.55858,0.23862,0.12955,0.19041,0.0052173,0.022072,-1.61E-04,0,0,0,0,-1.74E-04,0.032492,10.3,83.323,88.45,-0.0072531,NaN,22.383,974.35,344.86,0.05,0.2014,739.61
2.4913,326.1,258.15,87.776,258.21,87.798,4.6695,-1.59E-04,4.6695,-0.0019545,5.4436,1.9798,28.61,-80.6,9.7874,0.13991,3.41E-07,-2.073,-0.0042718,15834,331.54,11.848,0.026922,191.38,148.97,4.1175,0.74899,41323972,1724,178.83,0.56095,0.56098,0.23756,0.13046,0.19293,0.021265,0.087955,4.35E-05,0,0,0,0,-1.13E-04,0.033062,10.3,83.323,88.567,-0.0042175,NaN,22.276,972.94,344.8,0.05,0.20332,764.93
2.5413,339.12,262.54,86.618,262.6,86.631,4.944,-1.59E-04,4.944,-0.0018435,5.5309,1.5098,28.61,-80.6,9.7873,0.22892,7.57E-07,-1.1198,-0.0021649,15791,287.95,11.82,0.026892,191.17,148.76,4.1175,0.76187,41992323,1708,185.57,0.56335,0.56344,0.23652,0.13137,0.19546,0.035042,0.14411,-6.05E-05,0,0,0,0,-3.20E-05,0.033624,10.3,83.323,88.648,9.46E-04,NaN,22.167,971.49,344.73,0.05,0.20544,790.28
2.5913,352.35,266.87,84.148,266.93,84.158,5.2223,-1.58E-04,5.2223,-0.0017316,5.6019,1.3378,28.61,-80.6,9.7873,0.24285,6.01E-07,0.16729,-0.0011008,15747,244.37,11.792,0.026861,191.22,148.54,4.1433,0.77459,42649204,1671.7,192.35,0.56579,0.5659,0.2355,0.13229,0.198,0.037254,0.15454,-4.11E-04,0,0,0,0,6.91E-07,0.034179,10.3,83.323,88.673,0.0048697,NaN,22.057,970.03,344.67,0.05,0.20755,815.64
2.6413,365.8,271.08,77.224,271.14,77.238,5.5042,-1.54E-04,5.5042,-0.0016073,5.6741,1.4417,28.61,-80.6,9.7872,0.17569,7.82E-07,1.3559,-0.0014508,15705,202.42,11.765,0.026832,191.55,148.33,4.196,0.78694,43284076,1565.8,199.07,0.56823,0.56828,0.23452,0.13321,0.20051,0.026869,0.11316,2.20E-04,0,0,0,0,4.40E-05,0.034718,10.3,83.323,88.633,0.005881,NaN,21.944,968.54,344.6,0.05,0.20964,840.59
2.6913,379.45,274.94,66.382,275,66.402,5.7899,-1.48E-04,5.7899,-0.0014686,5.7572,1.6286,28.61,-80.6,9.7872,0.077523,6.25E-07,2.0939,-0.0047581,15668,165.64,11.741,0.026806,191.99,148.15,4.2566,0.7983,43862089,1399.1,205.34,0.57052,0.57053,0.23362,0.13406,0.20285,0.011794,0.049799,2.88E-04,0,0,0,0,1.02E-04,0.035212,10.3,83.323,88.545,0.0073675,NaN,21.83,967.03,344.53,0.05,0.2125,863.68
2.7413,393.28,278.25,54.208,278.32,54.24,6.08,-1.39E-04,6.08,-0.0013128,5.852,1.8427,28.61,-80.6,9.7871,0.036124,5.95E-07,-2.2179,-0.0096063,15642,139.1,11.724,0.026787,192.22,148.01,4.2918,0.80809,44351870,1212.3,210.82,0.57255,0.57255,0.23285,0.1348,0.20489,0.0054868,0.023287,-3.03E-04,0,0,0,0,-1.12E-04,0.035637,10.3,83.323,88.434,0.0075462,NaN,21.715,965.5,344.46,0.05,0.21595,883.58
2.7913,407.26,280.96,42.032,281.02,42.081,6.3751,-1.27E-04,6.3751,-0.0011425,5.958,2.0354,28.61,-80.6,9.7871,0.15369,7.02E-07,-1.6247,-0.0019838,15622,119.28,11.711,0.026773,191.87,147.91,4.2673,0.81611,44742886,1025.4,215.32,0.57424,0.57428,0.23223,0.13542,0.20659,0.023544,0.10053,-3.02E-04,0,0,0,0,-5.88E-05,0.035983,10.3,83.323,88.335,0.0073649,NaN,21.598,963.95,344.39,0.05,0.21787,899.77
2.8413,421.36,283.06,29.899,283.12,29.959,6.6757,-1.12E-04,6.6757,-9.60E-04,6.067,1.9064,28.61,-80.6,9.7871,0.20065,0,-0.47826,-0.0012175,15602,99.462,11.698,0.026759,191.75,147.81,4.266,0.82238,45036552,838.64,218.81,0.57559,0.57566,0.23176,0.13591,0.20792,0.030853,0.13209,3.10E-04,0,0,0,0,-5.02E-06,0.036252,10.3,83.323,88.282,0.0066126,NaN,21.48,962.39,344.32,0.05,0.22022,912.16
2.8913,435.55,284.55,17.812,284.62,17.876,6.9814,-9.42E-05,6.9814,-7.73E-04,6.1626,1.519,28.61,-80.6,9.787,0.1931,0,0.79722,-7.97E-04,15582,79.644,11.685,0.026745,191.82,147.71,4.2821,0.82689,45232898,651.82,221.23,0.57658,0.57664,0.23143,0.13626,0.20889,0.029692,0.12713,2.66E-04,0,0,0,0,1.38E-05,0.036444,10.3,83.323,88.29,0.0042166,NaN,21.362,960.82,344.24,0.05,0.2266,920.68
2.9413,449.8,285.44,5.7747,285.51,5.8229,7.2913,-7.47E-05,7.2913,-5.87E-04,6.2293,0.74778,28.61,-80.6,9.787,0.08916,3.42E-07,1.7434,-0.0021723,15562,59.827,11.672,0.026731,192.21,147.61,4.3299,0.82967,45333617,465.01,222.57,0.57721,0.57722,0.23124,0.13648,0.20949,0.013622,0.059085,-1.70E-04,0,0,0,0,6.56E-05,0.036558,10.3,83.323,88.356,0.0012787,NaN,21.243,959.24,344.17,0.05,0.22961,925.31
2.9913,464.08,285.73,-6.224,285.8,6.2244,7.6035,-5.44E-05,7.6035,-4.10E-04,6.254,0.078439,28.61,-80.6,9.7869,0.036556,3.68E-07,-1.9081,-0.0051901,15543,40.009,11.659,0.026717,192.41,147.51,4.3589,0.83069,45338482,278.2,222.85,0.57746,0.57746,0.2312,0.13656,0.20971,0.0055664,0.024088,7.14E-07,0,0,0,0,-7.84E-05,0.036595,10.3,83.323,88.45,-0.0012341,NaN,21.124,957.66,344.1,0.05,0.23322,926.04
3.0413,478.36,285.42,-16.52,285.49,16.536,7.9159,-3.41E-05,7.9159,-2.47E-04,6.2399,0.72625,28.61,-80.6,9.7869,0.13622,0,-1.3261,-0.0027214,15523,20.191,11.646,0.026703,192.05,147.41,4.3335,0.82998,45247920,117.31,222.06,0.57735,0.57738,0.23129,0.1365,0.20955,0.020876,0.0909,-8.03E-05,0,0,0,0,-3.80E-05,0.036555,10.3,83.323,88.534,6.95E-04,NaN,21.004,956.08,344.03,0.05,0.23649,922.88
3.0913,492.61,284.6,-20.538,284.67,20.559,8.227,-1.33E-05,8.227,-9.30E-05,6.1996,0.94518,28.61,-80.6,9.7868,0.16959,4.88E-07,-0.30176,-0.0015487,15509,6.1522,11.636,0.026694,191.91,147.34,4.3272,0.82775,45075522,53.323,220.34,0.57691,0.57696,0.23151,0.13633,0.20907,0.026039,0.11221,-4.63E-04,0,0,0,0,-1.98E-06,0.03645,10.3,83.323,88.575,0.0045746,NaN,20.885,954.5,343.96,0.05,0.23915,916.41
3.1413,506.82,283.58,-23.453,283.64,23.469,8.5358,8.54E-06,8.5358,5.73E-05,6.1549,0.88638,28.61,-80.6,9.7868,0.13565,6.10E-07,0.70839,-0.0012711,15504,1.336,11.633,0.02669,192.01,147.31,4.3389,0.82494,44871417,6.1383,218.26,0.57635,0.57639,0.23178,0.13611,0.20847,0.020776,0.089698,-1.74E-04,0,0,0,0,1.10E-05,0.036319,10.3,83.323,88.564,0.0056825,NaN,20.767,952.92,343.88,0.05,0.24227,908.7
3.1913,520.97,282.41,-23.704,282.47,23.715,8.8425,3.19E-05,8.8425,2.07E-04,6.1143,0.74712,28.61,-80.6,9.7868,0.094401,7.36E-07,1.4395,-0.0018093,15503,0.32487,11.632,0.026689,192.13,147.31,4.351,0.82171,44645518,0,215.96,0.57571,0.57573,0.23208,0.13585,0.20778,0.014415,0.062711,9.79E-05,0,0,0,0,4.57E-05,0.036169,10.3,83.323,88.51,0.0062735,NaN,20.648,951.36,343.81,0.05,0.24867,900.1
3.2413,535.06,281.23,-23.562,281.29,23.566,9.1474,5.69E-05,9.1474,3.56E-04,6.0833,0.475,28.61,-80.6,9.7867,0.016649,8.67E-07,1.8032,-0.010395,15503,0,11.632,0.026689,192.38,147.31,4.3756,0.81845,44417894,0,213.64,0.57506,0.57506,0.23238,0.1356,0.20708,0.0025284,0.01051,2.31E-04,0,0,0,0,7.23E-05,0.036018,10.3,83.323,88.426,0.0073154,NaN,20.531,949.8,343.74,0.05,0.25198,891.48
3.2913,549.09,280.05,-23.422,280.12,23.423,9.4511,8.35E-05,9.4511,5.06E-04,6.0657,0.2462,28.61,-80.6,9.7867,0.051299,9.23E-07,-1.6833,-0.0034068,15503,0,11.632,0.026689,192.22,147.31,4.3608,0.81521,44192160,0,211.37,0.57443,0.57443,0.23269,0.13535,0.20639,0.0078055,0.034226,-1.55E-04,0,0,0,0,-6.35E-05,0.035867,10.3,83.323,88.338,0.0081655,NaN,20.413,948.24,343.67,0.05,0.25451,882.95
3.3413,563.06,278.88,-23.284,278.95,23.284,9.7541,1.12E-04,9.7541,6.60E-04,6.0588,0.037561,28.61,-80.6,9.7866,0.11331,1.04E-06,-1.1696,-0.0026696,15503,0,11.632,0.026689,191.98,147.31,4.3367,0.81198,43967745,0,209.13,0.5738,0.57382,0.23299,0.1351,0.20571,0.017305,0.075156,-2.62E-04,0,0,0,0,-3.09E-05,0.035718,10.3,83.323,88.265,0.0078752,NaN,20.297,946.7,343.6,0.05,0.26249,874.53
3.3913,576.98,277.72,-23.144,277.79,23.144,10.057,1.43E-04,10.057,8.15E-04,6.06,0.064191,28.61,-80.6,9.7866,0.1441,1.30E-06,-0.36709,-0.0010451,15503,0,11.632,0.026689,191.84,147.31,4.3235,0.80877,43744802,0,206.92,0.57318,0.57321,0.23329,0.13485,0.20503,0.022043,0.095046,1.30E-04,0,0,0,0,-3.07E-06,0.035569,10.3,83.323,88.226,0.0057691,NaN,20.181,945.16,343.53,0.05,0.26558,866.2
3.4413,590.83,276.57,-23.001,276.63,23.001,10.36,1.75E-04,10.36,9.69E-04,6.0619,0.013582,28.61,-80.6,9.7865,0.12217,1.05E-06,0.45795,-0.001656,15503,0,11.632,0.026689,191.89,147.31,4.3285,0.80558,43523638,0,204.73,0.57256,0.57259,0.23359,0.13461,0.20436,0.018656,0.080664,-4.91E-04,0,0,0,0,4.82E-06,0.035421,10.3,83.323,88.229,0.0039494,NaN,20.065,943.62,343.46,0.05,0.26762,857.96
3.4913,604.63,275.42,-22.857,275.49,22.857,10.663,2.08E-04,10.663,0.0011185,6.0579,0.153,28.61,-80.6,9.7865,0.079766,1.06E-06,1.0662,-0.0017137,15503,0,11.632,0.026689,192.02,147.31,4.3406,0.80241,43303693,0,202.57,0.57196,0.57197,0.23389,0.13437,0.2037,0.012143,0.053118,1.40E-04,0,0,0,0,2.64E-05,0.035275,10.3,83.323,88.268,0.0027579,NaN,19.95,942.09,343.39,0.05,0.2693,849.82
3.5413,618.38,274.28,-22.712,274.35,22.715,10.966,2.42E-04,10.966,0.0012627,6.0449,0.37591,28.61,-80.6,9.7865,0.010538,9.97E-07,1.3403,-0.0046832,15503,0,11.632,0.026689,192.24,147.31,4.3622,0.79925,43085396,0,200.44,0.57136,0.57136,0.23418,0.13413,0.20304,0.0015964,0.0072451,-4.64E-04,0,0,0,0,4.20E-05,0.035129,10.3,83.323,88.33,0.0031255,NaN,19.835,940.57,343.32,0.05,0.27138,841.78
3.5913,632.06,273.15,-22.57,273.22,22.579,11.267,2.76E-04,11.267,0.0014027,6.0202,0.61051,28.61,-80.6,9.7864,0.063737,1.08E-06,-1.1801,-9.29E-04,15503,0,11.632,0.026689,192.02,147.31,4.3412,0.79612,42868693,0,198.35,0.57077,0.57077,0.23448,0.13389,0.20239,0.0096858,0.042072,4.31E-04,0,0,0,0,-3.28E-05,0.034984,10.3,83.323,88.394,0.00603,NaN,19.72,939.06,343.25,0.05,0.27367,833.82
3.6413,645.69,272.03,-22.432,272.09,22.447,11.568,3.11E-04,11.568,0.0015414,5.9844,0.80565,28.61,-80.6,9.7864,0.12591,1.27E-06,-0.62264,-1.13E-04,15503,0,11.632,0.026689,191.78,147.31,4.3172,0.793,42653643,0,196.29,0.57018,0.57021,0.23477,0.13366,0.20175,0.019206,0.08326,7.09E-05,0,0,0,0,-9.21E-06,0.03484,10.3,83.323,88.441,0.0090047,NaN,19.607,937.55,343.18,0.05,0.27534,825.96
3.6913,659.26,270.91,-22.299,270.97,22.316,11.866,3.48E-04,11.866,0.0016809,5.9418,0.87703,28.61,-80.6,9.7863,0.15006,1.23E-06,0.18563,0.0019143,15503,0,11.632,0.026689,191.66,147.31,4.3065,0.78991,4.24E+07,0,194.25,0.56961,0.56965,0.23507,0.13343,0.20111,0.022917,0.09834,-1.37E-04,0,0,0,0,8.26E-07,0.034696,10.3,83.323,88.452,0.0076078,NaN,19.493,936.04,343.11,0.05,0.27761,818.18
3.7413,672.78,269.8,-22.169,269.86,22.186,12.162,3.86E-04,12.162,0.0018198,5.8977,0.87475,28.61,-80.6,9.7863,0.14993,1.31E-06,1.0447,0.0039288,15503,0,11.632,0.026689,191.64,147.31,4.3042,0.78684,42228210,0,192.24,0.56904,0.56908,0.23536,0.1332,0.20048,0.022891,0.098201,-3.11E-04,0,0,0,0,2.64E-05,0.034554,10.3,83.323,88.421,0.0029029,NaN,19.38,934.55,343.04,0.05,0.28115,810.5
3.7913,686.24,268.69,-22.042,268.75,22.057,12.456,4.25E-04,12.456,0.0019535,5.8555,0.79987,28.61,-80.6,9.7862,0.12527,1.38E-06,1.8272,0.0058272,15503,0,11.632,0.026689,191.7,147.31,4.3103,0.78379,42018216,0,190.26,0.56848,0.56851,0.23565,0.13297,0.19986,0.019088,0.082665,4.28E-04,0,0,0,0,8.13E-05,0.034412,10.3,83.323,88.349,-0.0028651,NaN,19.268,933.06,342.98,0.05,0.2834,802.89
3.8413,699.65,267.59,-21.926,267.65,21.93,12.747,4.62E-04,12.747,0.0020776,5.824,0.42263,28.61,-80.6,9.7862,0.0050921,1.35E-06,2.2211,0.12933,15503,0,11.632,0.026689,192.11,147.31,4.3496,0.78073,41808145,0,188.28,0.56793,0.56793,0.23594,0.13275,0.19924,7.70E-04,0.0034886,-4.99E-04,0,0,0,0,1.21E-04,0.034272,10.3,83.323,88.245,-0.0044923,NaN,19.156,931.57,342.91,0.05,0.28555,795.37
3.8913,713,266.5,-21.809,266.56,21.81,13.038,4.98E-04,13.038,0.0021905,5.81,0.16669,28.61,-80.6,9.7862,0.080276,1.29E-06,-1.9935,0.0083171,15503,0,11.632,0.026689,191.82,147.31,4.3211,0.7777,4.16E+07,0,186.34,0.56738,0.56739,0.23623,0.13252,0.19863,0.012189,0.053088,4.70E-04,0,0,0,0,-9.84E-05,0.034132,10.3,83.323,88.138,-0.0050714,NaN,19.044,930.09,342.84,0.05,0.28768,787.94
3.9413,726.3,265.41,-21.695,265.47,21.695,13.329,5.33E-04,13.329,0.0022924,5.8077,0.068358,28.61,-80.6,9.7861,0.15832,1.16E-06,-1.3392,0.0038935,15503,0,11.632,0.026689,191.51,147.31,4.2919,0.77468,41393297,0,184.44,0.56684,0.56688,0.23652,0.1323,0.19802,0.024154,0.10384,1.12E-05,0,0,0,0,-4.48E-05,0.033992,10.3,83.323,88.053,-0.003624,NaN,18.933,928.62,342.77,0.05,0.28975,780.58
3.9913,739.54,264.33,-21.577,264.39,21.578,13.619,5.67E-04,13.619,0.0023854,5.8145,0.17598,28.61,-80.6,9.7861,0.19482,1.01E-06,-0.36578,0.002879,15503,0,11.632,0.026689,191.36,147.31,4.2771,0.77168,41187649,0,182.56,0.5663,0.56637,0.23681,0.13208,0.19741,0.029784,0.12732,-2.00E-04,0,0,0,0,-3.37E-06,0.033854,10.3,83.323,88.009,-2.40E-04,NaN,18.823,927.15,342.71,0.05,0.29463,773.3
4.0413,752.73,263.25,-21.454,263.32,21.454,13.91,6.01E-04,13.91,0.0024735,5.8223,0.11329,28.61,-80.6,9.786,0.17515,5.86E-07,0.64034,0.0028894,15503,0,11.632,0.026689,191.41,147.31,4.2816,0.76869,40983454,0,180.69,0.56577,0.56583,0.23709,0.13187,0.19682,0.026736,0.11473,1.16E-04,0,0,0,0,1.04E-05,0.033716,10.3,83.323,88.017,0.0043237,NaN,18.712,925.69,342.64,0.05,0.29909,766.11
4.0913,765.87,262.18,-21.327,262.25,21.328,14.201,6.35E-04,14.201,0.0025613,5.8233,0.094613,28.61,-80.6,9.786,0.10576,9.14E-07,1.3971,0.0045162,15503,0,11.632,0.026689,191.63,147.31,4.3032,0.76573,40782602,0,178.84,0.56525,0.56527,0.23738,0.13165,0.19622,0.016065,0.068655,2.11E-04,0,0,0,0,4.99E-05,0.033579,10.3,83.323,88.069,0.0086834,NaN,18.603,924.28,342.57,0.05,0.30139,759.02
4.1413,778.95,261.12,-21.205,261.18,21.206,14.492,6.71E-04,14.492,0.0026535,5.8148,0.23237,28.61,-80.6,9.786,0.055462,1.07E-06,1.8066,0.0092961,15503,0,11.632,0.026689,191.79,147.31,4.3183,0.76275,40582908,0,177.02,0.56473,0.56474,0.23766,0.13144,0.19563,0.0083947,0.036132,-2.49E-04,0,0,0,0,8.42E-05,0.033443,10.3,83.323,88.15,0.012156,NaN,18.493,922.9,342.51,0.05,0.30308,752.04
4.1913,791.98,260.06,-21.083,260.13,21.087,14.783,7.10E-04,14.783,0.0027524,5.7988,0.41523,28.61,-80.6,9.7859,0.011837,1.03E-06,-1.9234,0.04621,15503,0,11.632,0.026689,191.92,147.31,4.3313,0.7598,40384611,0,175.23,0.56422,0.56422,0.23794,0.13123,0.19505,0.001786,0.0077673,-1.23E-04,0,0,0,0,-9.62E-05,0.033308,10.3,83.323,88.245,0.015224,NaN,18.385,921.51,342.44,0.05,0.30515,745.12
4.2413,804.96,259.01,-20.963,259.08,20.973,15.072,7.52E-04,15.072,0.0028584,5.7723,0.64322,28.61,-80.6,9.7859,0.094757,8.90E-07,-1.6497,0.0062487,15503,0,11.632,0.026689,191.6,147.31,4.3003,0.75687,40188033,0,173.47,0.56371,0.56373,0.23822,0.13102,0.19447,0.014371,0.061456,-3.19E-04,0,0,0,0,-7.13E-05,0.033173,10.3,83.323,88.336,0.015636,NaN,18.276,920.14,342.37,0.05,0.30711,738.28
4.2913,817.88,257.97,-20.847,258.03,20.862,15.36,7.96E-04,15.36,0.0029709,5.736,0.78846,28.61,-80.6,9.7858,0.14938,1.06E-06,-1.0181,0.0043049,15503,0,11.632,0.026689,191.39,147.31,4.2794,0.75396,39992617,0,171.73,0.56321,0.56325,0.2385,0.13081,0.1939,0.02273,0.097761,1.59E-04,0,0,0,0,-2.74E-05,0.033039,10.3,83.323,88.404,0.011288,NaN,18.168,918.77,342.31,0.05,0.30904,731.51
4.3413,830.76,256.93,-20.736,256.99,20.751,15.646,8.43E-04,15.646,0.0030857,5.696,0.78986,28.61,-80.6,9.7858,0.15435,1.33E-06,-0.23623,0.00411,15503,0,11.632,0.026689,191.35,147.31,4.2755,0.75105,39798154,0,170,0.56272,0.56276,0.23878,0.1306,0.19333,0.023487,0.10068,-6.68E-05,0,0,0,0,-1.49E-06,0.032906,10.3,83.323,88.435,0.0049106,NaN,18.061,917.41,342.24,0.05,0.3107,724.82
4.3913,843.58,255.89,-20.626,255.96,20.642,15.929,8.89E-04,15.929,0.0031978,5.6563,0.79959,28.61,-80.6,9.7858,0.15965,1.24E-06,0.54107,0.0047597,15503,0,11.632,0.026689,191.31,147.31,4.2716,0.74818,39605715,0,168.31,0.56223,0.56227,0.23906,0.1304,0.19277,0.024294,0.1037,2.95E-04,0,0,0,0,7.86E-06,0.032774,10.3,83.323,88.428,-0.0028333,NaN,17.954,916.05,342.18,0.05,0.31408,718.19
4.4413,856.34,254.86,-20.522,254.93,20.531,16.211,9.35E-04,16.211,0.0033029,5.6202,0.61273,28.61,-80.6,9.7857,0.095542,1.05E-06,1.1925,0.0066025,15503,0,11.632,0.026689,191.51,147.31,4.2915,0.7453,39413777,0,166.62,0.56175,0.56176,0.23934,0.1302,0.19221,0.014474,0.062006,3.77E-04,0,0,0,0,3.85E-05,0.032642,10.3,83.323,88.383,-0.0076141,NaN,17.847,914.7,342.11,0.05,0.31649,711.64
4.4913,869.06,253.84,-20.422,253.9,20.425,16.492,9.78E-04,16.492,0.0033987,5.5964,0.33748,28.61,-80.6,9.7857,0.0027568,1.03E-06,-1.4081,0.20627,15503,0,11.632,0.026689,191.82,147.31,4.3216,0.74244,39222744,0,164.95,0.56127,0.56127,0.23962,0.13,0.19166,4.15E-04,0.0014634,4.89E-04,0,0,0,0,-5.41E-05,0.032511,10.3,83.323,88.316,-0.0069492,NaN,17.741,913.35,342.05,0.05,0.31848,705.15
4.5413,881.73,252.82,-20.322,252.88,20.322,16.771,0.0010202,16.771,0.0034854,5.5843,0.16388,28.61,-80.6,9.7856,0.067173,1.03E-06,-1.2375,0.008418,15503,0,11.632,0.026689,191.57,147.31,4.2972,0.7396,39033514,0,163.31,0.5608,0.56081,0.23989,0.1298,0.19111,0.010152,0.043856,-5.37E-05,0,0,0,0,-4.21E-05,0.03238,10.3,83.323,88.248,-0.0047255,NaN,17.635,912.01,341.99,0.05,0.32052,698.73
4.5913,894.34,251.81,-20.222,251.87,20.222,17.05,0.001061,17.05,0.0035653,5.5796,0.028351,28.61,-80.6,9.7856,0.1178,1.00E-06,-0.79084,0.003357,15503,0,11.632,0.026689,191.37,147.31,4.2777,0.73677,38845346,0,161.7,0.56034,0.56036,0.24017,0.12961,0.19057,0.017857,0.076896,-1.01E-04,0,0,0,0,-1.73E-05,0.03225,10.3,83.323,88.196,-0.0013345,NaN,17.53,910.67,341.92,0.05,0.32201,692.38
4.6413,906.91,250.8,-20.119,250.86,20.119,17.329,0.0011011,17.329,0.0036406,5.5785,0.04244,28.61,-80.6,9.7856,0.11431,9.04E-07,-0.21958,0.0029931,15503,0,11.632,0.026689,191.36,147.31,4.2769,0.73397,38658844,0,160.1,0.55988,0.5599,0.24044,0.12941,0.19003,0.01732,0.073671,1.15E-05,0,0,0,0,-1.35E-06,0.032121,10.3,83.323,88.171,0.0028144,NaN,17.425,909.34,341.86,0.05,0.32601,686.09
4.6913,919.42,249.8,-20.017,249.86,20.017,17.608,0.0011415,17.608,0.0037144,5.5766,0.029321,28.61,-80.6,9.7855,0.11871,7.47E-07,0.32343,0.0017975,15503,0,11.632,0.026689,191.32,147.31,4.2734,0.73116,38472749,0,158.52,0.55943,0.55945,0.24071,0.12922,0.1895,0.017987,0.077016,6.11E-06,0,0,0,0,2.95E-06,0.031993,10.3,83.323,88.173,0.0066994,NaN,17.32,908.01,341.79,0.05,0.33047,679.86
4.7413,931.89,248.8,-19.911,248.86,19.912,17.887,0.0011829,17.887,0.003789,5.5721,0.17358,28.61,-80.6,9.7855,0.064397,7.35E-07,0.76924,0.0057738,15503,0,11.632,0.026689,191.5,147.31,4.2902,0.72838,38288437,0,156.96,0.55898,0.55899,0.24098,0.12903,0.18897,0.0097202,0.041435,3.87E-04,0,0,0,0,1.68E-05,0.031865,10.3,83.323,88.202,0.01106,NaN,17.216,906.69,341.73,0.05,0.33282,673.7
4.7913,944.3,247.81,-19.808,247.87,19.81,18.165,0.0012261,18.165,0.0038673,5.56,0.30045,28.61,-80.6,9.7855,0.014159,7.37E-07,0.9417,0.022272,15503,0,11.632,0.026689,191.66,147.31,4.3056,0.72561,38104868,0,155.41,0.55854,0.55854,0.24125,0.12884,0.18845,0.0021296,0.0089478,-1.04E-04,0,0,0,0,2.54E-05,0.031738,10.3,83.323,88.246,0.016527,NaN,17.112,905.38,341.67,0.05,0.33452,667.61
4.8413,956.67,246.82,-19.705,246.88,19.71,18.443,0.0012721,18.443,0.003952,5.5416,0.43889,28.61,-80.6,9.7854,0.041617,7.67E-07,-0.88127,0.0065798,15503,0,11.632,0.026689,191.54,147.31,4.2942,0.72286,37922466,0,153.89,0.55811,0.55811,0.24153,0.12865,0.18793,0.0062689,0.026738,4.92E-04,0,0,0,0,-2.24E-05,0.031612,10.3,83.323,88.292,0.019378,NaN,17.009,904.07,341.61,0.05,0.33611,661.57
4.8913,968.99,245.83,-19.605,245.9,19.613,18.719,0.0013212,18.719,0.0040438,5.5166,0.55563,28.61,-80.6,9.7854,0.089277,7.57E-07,-0.58261,9.60E-04,15503,0,11.632,0.026689,191.35,147.31,4.2758,0.72011,37741184,0,152.39,0.55768,0.55769,0.2418,0.12847,0.18741,0.013487,0.0575,-8.00E-05,0,0,0,0,-9.88E-06,0.031486,10.3,83.323,88.33,0.022261,NaN,16.906,902.76,341.54,0.05,0.33766,655.6
4.9413,981.25,244.86,-19.507,244.92,19.517,18.994,0.0013736,18.994,0.0041436,5.4871,0.61312,28.61,-80.6,9.7853,0.11399,6.81E-07,-0.11964,0.0010828,15503,0,11.632,0.026689,191.24,147.31,4.2654,0.71738,37560909,0,150.9,0.55725,0.55727,0.24206,0.12828,0.1869,0.017245,0.073306,1.50E-04,0,0,0,0,-4.20E-07,0.03136,10.3,83.323,88.348,0.023647,NaN,16.804,901.46,341.48,0.05,0.33904,649.69
4.9913,993.47,243.88,-19.414,243.94,19.421,19.268,0.0014296,19.268,0.0042511,5.4579,0.53458,28.61,-80.6,9.7853,0.085919,7.31E-07,0.33872,-5.25E-04,15503,0,11.632,0.026689,191.32,147.31,4.2731,0.71465,37381104,0,149.42,0.55683,0.55684,0.24233,0.1281,0.18639,0.01297,0.054924,2.59E-04,0,0,0,0,3.39E-06,0.031236,10.3,83.323,88.342,0.022304,NaN,16.702,900.17,341.42,0.05,0.34059,643.83
5.0413,1005.6,242.92,-19.322,242.98,19.328,19.54,0.0014887,19.54,0.0043651,5.4328,0.47267,28.61,-80.6,9.7853,0.062362,8.16E-07,0.65737,1.22E-04,15503,0,11.632,0.026689,191.39,147.31,4.2794,0.71194,37202800,0,147.97,0.55641,0.55642,0.2426,0.12792,0.18589,0.0093973,0.040428,-4.63E-04,0,0,0,0,1.29E-05,0.031112,10.3,83.323,88.316,0.018889,NaN,16.6,898.88,341.36,0.05,0.34294,638.04
5.0913,1017.8,241.95,-19.232,242.01,19.235,19.811,0.0015501,19.811,0.0044829,5.4115,0.37491,28.61,-80.6,9.7852,0.023457,7.74E-07,0.84953,3.69E-04,15503,0,11.632,0.026689,191.51,147.31,4.2911,0.70925,37025461,0,146.53,0.556,0.556,0.24287,0.12774,0.18539,0.0035248,0.015481,-1.21E-04,0,0,0,0,2.17E-05,0.030988,10.3,83.323,88.278,0.012461,NaN,16.499,897.6,341.3,0.05,0.34634,632.3
5.1413,1029.8,240.99,-19.142,241.05,19.144,20.081,0.0016128,20.081,0.0046017,5.3944,0.31401,28.61,-80.6,9.7852,0.002102,7.92E-07,-0.88993,0.034124,15503,0,11.632,0.026689,191.56,147.31,4.2967,0.70657,36849492,0,145.11,0.5556,0.5556,0.24314,0.12756,0.1849,3.15E-04,0.0013705,-2.32E-04,0,0,0,0,-2.40E-05,0.030865,10.3,83.323,88.234,0.0069028,NaN,16.398,896.32,341.24,0.05,0.35046,626.62
5.1913,1041.9,240.04,-19.054,240.1,19.055,20.351,0.0016759,20.351,0.0047183,5.3805,0.24217,28.61,-80.6,9.7852,0.032395,8.15E-07,-0.81938,0.0025482,15503,0,11.632,0.026689,191.44,147.31,4.2843,0.7039,36674405,0,143.71,0.5552,0.5552,0.2434,0.12739,0.18441,0.0048684,0.020527,3.81E-04,0,0,0,0,-2.05E-05,0.030743,10.3,83.323,88.191,0.0033545,NaN,16.297,895.04,341.18,0.05,0.35261,621
5.2413,1053.8,239.09,-18.966,239.15,18.967,20.619,0.0017386,20.619,0.0048311,5.3701,0.17549,28.61,-80.6,9.7851,0.060583,8.15E-07,-0.62144,7.37E-04,15503,0,11.632,0.026689,191.32,147.31,4.2728,0.70124,3.65E+07,0,142.32,0.5548,0.55481,0.24367,0.12721,0.18393,0.0091192,0.038887,-3.60E-04,0,0,0,0,-1.19E-05,0.030621,10.3,83.323,88.154,-5.54E-04,NaN,16.197,893.77,341.11,0.05,0.35519,615.43
5.2913,1065.8,238.14,-18.879,238.2,18.88,20.888,0.0018004,20.888,0.0049385,5.363,0.11436,28.61,-80.6,9.7851,0.086115,7.19E-07,-0.31412,5.24E-04,15503,0,11.632,0.026689,191.21,147.31,4.2622,0.69859,36326765,0,140.94,0.55441,0.55443,0.24393,0.12704,0.18344,0.012981,0.055583,2.47E-04,0,0,0,0,-3.06E-06,0.0305,10.3,83.323,88.13,-0.0027028,NaN,16.098,892.51,341.05,0.05,0.35741,609.92
5.3413,1077.7,237.2,-18.792,237.26,18.792,21.156,0.0018607,21.156,0.0050393,5.3576,0.11136,28.61,-80.6,9.785,0.087331,7.24E-07,0.052713,-2.37E-04,15503,0,11.632,0.026689,191.19,147.31,4.26,0.69595,36154432,0,139.59,0.55403,0.55404,0.2442,0.12687,0.18296,0.013162,0.055812,3.63E-06,0,0,0,0,8.68E-08,0.03038,10.3,83.323,88.124,-0.0039649,NaN,15.998,891.25,340.99,0.05,0.36629,604.46
5.3913,1089.5,236.26,-18.704,236.32,18.705,21.423,0.0019195,21.423,0.0051336,5.3515,0.13301,28.61,-80.6,9.785,0.077323,7.23E-07,0.39107,-2.74E-04,15503,0,11.632,0.026689,191.2,147.31,4.2618,0.69332,35982937,0,138.24,0.55365,0.55366,0.24446,0.1267,0.18249,0.011644,0.049629,-2.35E-05,0,0,0,0,4.82E-06,0.03026,10.3,83.323,88.135,-0.0026148,NaN,15.899,890,340.93,0.05,0.3687,599.06
5.4413,1101.3,235.33,-18.618,235.39,18.618,21.691,0.0019771,21.691,0.0052224,5.3443,0.15548,28.61,-80.6,9.785,0.065786,7.52E-07,0.68152,0.0013134,15503,0,11.632,0.026689,191.23,147.31,4.264,0.6907,35812128,0,136.91,0.55327,0.55328,0.24472,0.12653,0.18202,0.0098965,0.042467,2.92E-04,0,0,0,0,1.47E-05,0.03014,10.3,83.323,88.162,0.0015153,NaN,15.801,888.75,340.87,0.05,0.37046,593.7
5.4913,1113,234.4,-18.53,234.46,18.531,21.958,0.0020342,21.958,0.005308,5.3346,0.24477,28.61,-80.6,9.7849,0.025181,6.76E-07,0.87175,0.0027019,15503,0,11.632,0.026689,191.35,147.31,4.2764,0.68809,35642601,0,135.59,0.5529,0.5529,0.24498,0.12636,0.18155,0.003777,0.016561,-3.73E-04,0,0,0,0,2.43E-05,0.030021,10.3,83.323,88.202,0.0076623,NaN,15.703,887.5,340.81,0.05,0.37275,588.4
5.5413,1124.7,233.48,-18.442,233.54,18.446,22.224,0.0020919,22.224,0.0053932,5.3187,0.39297,28.61,-80.6,9.7849,0.041596,6.97E-07,-0.8439,-0.00105,15503,0,11.632,0.026689,191.28,147.31,4.269,0.68551,35474456,0,134.3,0.55253,0.55253,0.24525,0.12619,0.18109,0.0062447,0.027108,-3.12E-04,0,0,0,0,-2.30E-05,0.029903,10.3,83.323,88.246,0.015049,NaN,15.605,886.26,340.76,0.05,0.37478,583.15
5.5913,1136.4,232.56,-18.358,232.62,18.362,22.49,0.0021513,22.49,0.0054809,5.2978,0.4256,28.61,-80.6,9.7849,0.059427,6.99E-07,-0.62724,0.0017924,15503,0,11.632,0.026689,191.2,147.31,4.2612,0.68292,35306447,0,133.01,0.55217,0.55217,0.24551,0.12603,0.18063,0.0089301,0.037654,2.35E-04,0,0,0,0,-1.28E-05,0.029785,10.3,83.323,88.283,0.020239,NaN,15.508,885.03,340.7,0.05,0.3788,577.96
5.6413,1148,231.64,-18.275,231.7,18.28,22.754,0.0022132,22.754,0.005573,5.2759,0.45254,28.61,-80.6,9.7848,0.074277,7.22E-07,-0.36857,0.0011852,15503,0,11.632,0.026689,191.13,147.31,4.2544,0.68034,3.51E+07,0,131.74,0.55181,0.55182,0.24577,0.12587,0.18017,0.01117,0.047041,4.40E-04,0,0,0,0,-4.45E-06,0.029668,10.3,83.323,88.308,0.022486,NaN,15.411,883.8,340.64,0.05,0.38254,572.81
5.6913,1159.5,230.73,-18.194,230.79,18.199,23.017,0.0022778,23.017,0.0056701,5.2532,0.44659,28.61,-80.6,9.7848,0.074173,6.67E-07,-0.076555,0.0020378,15503,0,11.632,0.026689,191.11,147.31,4.2528,0.67778,34973518,0,130.48,0.55145,0.55146,0.24603,0.1257,0.17972,0.011152,0.047049,-3.55E-04,0,0,0,0,-1.94E-07,0.029551,10.3,83.323,88.319,0.022183,NaN,15.314,882.58,340.58,0.05,0.38557,567.71
5.7413,1171.1,229.82,-18.112,229.88,18.119,23.279,0.0023449,23.279,0.0057713,5.2298,0.4962,28.61,-80.6,9.7848,0.097365,6.25E-07,0.24519,0.0035405,15503,0,11.632,0.026689,191.01,147.31,4.2432,0.67523,34809120,0,129.25,0.5511,0.55112,0.24629,0.12554,0.17927,0.014658,0.061807,-1.85E-04,0,0,0,0,2.00E-06,0.029435,10.3,83.323,88.315,0.017298,NaN,15.218,881.36,340.52,0.05,0.38881,562.66
5.7913,1182.5,228.92,-18.034,228.98,18.04,23.54,0.0024136,23.54,0.0058746,5.2057,0.4521,28.61,-80.6,9.7847,0.078536,6.36E-07,0.59251,0.0058246,15503,0,11.632,0.026689,191.06,147.31,4.2481,0.6727,34645147,0,128.02,0.55076,0.55077,0.24655,0.12538,0.17883,0.011806,0.050518,2.26E-04,0,0,0,0,1.18E-05,0.029319,10.3,83.323,88.294,0.0089762,NaN,15.122,880.14,340.46,0.05,0.39407,557.66
5.8413,1193.9,228.02,-17.959,228.08,17.962,23.8,0.0024827,23.8,0.0059769,5.1861,0.32298,28.61,-80.6,9.7847,0.02034,5.77E-07,0.78364,0.016023,15503,0,11.632,0.026689,191.25,147.31,4.2666,0.67016,34481564,0,126.8,0.55042,0.55042,0.24681,0.12523,0.17838,0.0030452,0.013078,2.07E-04,0,0,0,0,2.08E-05,0.029204,10.3,83.323,88.259,0.0010854,NaN,15.027,878.93,340.41,0.05,0.39755,552.71
5.8913,1205.3,227.12,-17.883,227.18,17.885,24.059,0.0025511,24.059,0.0060753,5.1715,0.27796,28.61,-80.6,9.7847,0.0014428,5.82E-07,-0.76224,0.26616,15503,0,11.632,0.026689,191.31,147.31,4.2716,0.66764,3.43E+07,0,125.6,0.55008,0.55008,0.24706,0.12507,0.17795,2.16E-04,5.60E-04,-2.36E-05,0,0,0,0,-1.98E-05,0.029089,10.3,83.323,88.218,-0.0044966,NaN,14.932,877.73,340.35,0.05,0.40125,547.8
5.9413,1216.7,226.23,-17.808,226.29,17.809,24.317,0.0026177,24.317,0.0061679,5.1585,0.23981,28.61,-80.6,9.7846,0.020258,5.78E-07,-0.76953,0.020427,15503,0,11.632,0.026689,191.22,147.31,4.2636,0.66514,34158533,0,124.41,0.54975,0.54975,0.24732,0.12491,0.17751,0.0030317,0.013138,-1.20E-04,0,0,0,0,-2.03E-05,0.028975,10.3,83.323,88.179,-0.0080708,NaN,14.837,876.52,340.29,0.05,0.40394,542.94
5.9913,1227.9,225.34,-17.736,225.4,17.736,24.575,0.0026822,24.575,0.0062534,5.1498,0.09656,28.61,-80.6,9.7846,0.087325,6.16E-07,-0.5835,0.0055082,15503,0,11.632,0.026689,190.97,147.31,4.2388,0.66263,33997313,0,123.23,0.54942,0.54943,0.24758,0.12476,0.17708,0.013124,0.056033,-4.50E-04,0,0,0,0,-1.18E-05,0.028861,10.3,83.323,88.144,-0.0084433,NaN,14.743,875.33,340.23,0.05,0.40699,538.13
6.0413,1239.2,224.46,-17.663,224.51,17.663,24.832,0.0027445,24.832,0.0063324,5.1465,0.054077,28.61,-80.6,9.7846,0.10782,6.38E-07,-0.21554,0.0037799,15503,0,11.632,0.026689,190.88,147.31,4.2303,0.66013,33837506,0,122.07,0.54909,0.54911,0.24784,0.12461,0.17665,0.016222,0.068333,-1.41E-04,0,0,0,0,-1.62E-06,0.028748,10.3,83.323,88.124,-0.0045561,NaN,14.649,874.14,340.18,0.05,0.41042,533.36
6.0913,1250.4,223.57,-17.586,223.63,17.587,25.089,0.0028053,25.089,0.0064064,5.1427,0.10758,28.61,-80.6,9.7845,0.082812,6.05E-07,0.13439,0.003797,15503,0,11.632,0.026689,190.95,147.31,4.2374,0.65766,33679029,0,120.92,0.54877,0.54879,0.24809,0.12445,0.17623,0.012436,0.05267,-3.70E-04,0,0,0,0,6.35E-07,0.028635,10.3,83.323,88.122,0.001287,NaN,14.556,872.95,340.12,0.05,0.41393,528.63
6.1413,1261.5,222.7,-17.511,222.76,17.512,25.346,0.0028656,25.346,0.0064777,5.1359,0.16271,28.61,-80.6,9.7845,0.055549,5.63E-07,0.37934,0.0045,15503,0,11.632,0.026689,191.03,147.31,4.2453,0.65519,33521977,0,119.78,0.54846,0.54846,0.24835,0.1243,0.17581,0.0083254,0.03519,4.70E-04,0,0,0,0,5.10E-06,0.028523,10.3,83.323,88.135,0.0088309,NaN,14.462,871.79,340.06,0.05,0.41689,523.97
6.1913,1272.7,221.82,-17.438,221.88,17.439,25.603,0.0029265,25.603,0.006549,5.1271,0.18612,28.61,-80.6,9.7844,0.042225,5.21E-07,0.54808,0.0066596,15503,0,11.632,0.026689,191.07,147.31,4.2484,0.65273,33366474,0,118.66,0.54814,0.54814,0.2486,0.12415,0.17539,0.0063216,0.026789,2.46E-04,0,0,0,0,1.07E-05,0.028411,10.3,83.323,88.159,0.015703,NaN,14.37,870.66,340.01,0.05,0.42041,519.36
6.2413,1283.7,220.95,-17.366,221.01,17.367,25.859,0.002989,25.859,0.0066226,5.1182,0.16865,28.61,-80.6,9.7844,0.047868,5.65E-07,0.70252,0.0087181,15503,0,11.632,0.026689,191.03,147.31,4.245,0.65026,33211284,0,117.54,0.54783,0.54783,0.24886,0.124,0.17497,0.0071677,0.030631,1.60E-05,0,0,0,0,1.78E-05,0.028299,10.3,83.323,88.19,0.021997,NaN,14.277,869.54,339.95,0.05,0.42579,514.8
6.2913,1294.8,220.09,-17.293,220.15,17.295,26.115,0.0030541,26.115,0.0067006,5.1083,0.2394,28.61,-80.6,9.7844,0.010274,5.82E-07,0.81193,0.038794,15503,0,11.632,0.026689,191.15,147.31,4.2566,0.64782,33057535,0,116.44,0.54752,0.54752,0.24911,0.12386,0.17456,0.0015342,0.0063828,4.58E-04,0,0,0,0,2.39E-05,0.028188,10.3,83.323,88.228,0.026359,NaN,14.185,868.43,339.89,0.05,0.4316,510.28
6.3413,1305.7,219.22,-17.221,219.28,17.224,26.37,0.0031221,26.37,0.0067837,5.0942,0.31956,28.61,-80.6,9.7843,0.032795,5.84E-07,-0.77136,0.011337,15503,0,11.632,0.026689,191.06,147.31,4.2473,0.64538,32904643,0,115.36,0.54722,0.54722,0.24936,0.12371,0.17415,0.0049038,0.020628,1.06E-04,0,0,0,0,-2.18E-05,0.028078,10.3,83.323,88.268,0.027637,NaN,14.093,867.31,339.84,0.05,0.43535,505.8
6.3913,1316.7,218.36,-17.149,218.42,17.154,26.624,0.0031932,26.624,0.0068719,5.0761,0.40772,28.61,-80.6,9.7843,0.0799,5.48E-07,-0.58122,0.0041372,15503,0,11.632,0.026689,190.87,147.31,4.2297,0.64296,32752709,0,114.29,0.54692,0.54693,0.24961,0.12357,0.17374,0.011982,0.050836,-6.13E-05,0,0,0,0,-1.25E-05,0.027968,10.3,83.323,88.303,0.027525,NaN,14.002,866.21,339.78,0.05,0.43878,501.36
6.4413,1327.6,217.51,-17.078,217.57,17.086,26.877,0.0032671,26.877,0.0069646,5.0529,0.51759,28.61,-80.6,9.7843,0.13734,5.56E-07,-0.21759,0.0034728,15503,0,11.632,0.026689,190.66,147.31,4.2086,0.64056,32601982,0,113.23,0.54663,0.54666,0.24986,0.12342,0.17334,0.020671,0.087108,1.22E-04,0,0,0,0,-1.76E-06,0.027858,10.3,83.323,88.324,0.024197,NaN,13.911,865.1,339.73,0.05,0.44169,496.96
6.4913,1338.4,216.66,-17.01,216.71,17.018,27.129,0.0033432,27.129,0.0070607,5.027,0.49956,28.61,-80.6,9.7842,0.13059,5.51E-07,0.24446,0.0027534,15503,0,11.632,0.026689,190.67,147.31,4.2095,0.63815,32451252,0,112.18,0.54633,0.54636,0.25011,0.12328,0.17294,0.019643,0.082997,-4.36E-05,0,0,0,0,2.24E-06,0.027749,10.3,83.323,88.323,0.019109,NaN,13.82,864,339.67,0.05,0.44482,492.6
6.5413,1349.2,215.81,-16.944,215.87,16.95,27.38,0.0034208,27.38,0.0071583,5.0034,0.44314,28.61,-80.6,9.7842,0.10301,6.08E-07,0.63041,0.0034291,15503,0,11.632,0.026689,190.75,147.31,4.2176,0.63575,32301271,0,111.13,0.54605,0.54606,0.25036,0.12314,0.17254,0.015463,0.064821,3.34E-04,0,0,0,0,1.50E-05,0.02764,10.3,83.323,88.301,0.013411,NaN,13.73,862.91,339.62,0.05,0.44906,488.28
6.5913,1360,214.96,-16.881,215.02,16.884,27.63,0.003499,27.63,0.0072558,4.9842,0.31438,28.61,-80.6,9.7842,0.036788,6.61E-07,0.86717,0.0066998,15503,0,11.632,0.026689,190.97,147.31,4.239,0.63335,32151617,0,110.09,0.54576,0.54576,0.25061,0.123,0.17215,0.005497,0.022963,2.47E-04,0,0,0,0,2.86E-05,0.027532,10.3,83.323,88.262,0.0081064,NaN,13.64,861.82,339.56,0.05,0.46313,484
6.6413,1370.7,214.12,-16.818,214.18,16.819,27.879,0.0035772,27.879,0.0073517,4.9707,0.23233,28.61,-80.6,9.7841,0.0072667,6.49E-07,-0.90637,0.034437,15503,0,11.632,0.026689,191.06,147.31,4.2479,0.63097,32003177,0,109.07,0.54548,0.54548,0.25086,0.12286,0.17176,0.0010835,0.0046389,1.59E-04,0,0,0,0,-3.15E-05,0.027424,10.3,83.323,88.217,0.003827,NaN,13.55,860.73,339.51,0.05,0.46594,479.76
6.6913,1381.4,213.28,-16.755,213.34,16.756,28.127,0.0036547,28.127,0.0074449,4.9613,0.14202,28.61,-80.6,9.7841,0.05621,6.44E-07,-0.80753,0.0046955,15503,0,11.632,0.026689,190.87,147.31,4.2297,0.6286,31855333,0,108.06,0.5452,0.54521,0.25111,0.12272,0.17137,0.0084068,0.03603,2.82E-04,0,0,0,0,-2.52E-05,0.027317,10.3,83.323,88.174,7.27E-04,NaN,13.461,859.65,339.46,0.05,0.46976,475.56
6.7413,1392.1,212.44,-16.693,212.5,16.693,28.375,0.0037313,28.375,0.0075345,4.9558,0.084802,28.61,-80.6,9.7841,0.087822,6.33E-07,-0.57362,0.0030185,15503,0,11.632,0.026689,190.75,147.31,4.2175,0.62623,31708338,0,107.06,0.54493,0.54494,0.25136,0.12258,0.17098,0.01316,0.055198,6.35E-05,0,0,0,0,-1.28E-05,0.02721,10.3,83.323,88.139,2.49E-04,NaN,13.372,858.57,339.4,0.05,0.47409,471.39
6.7913,1402.7,211.61,-16.631,211.67,16.631,28.623,0.0038069,28.623,0.0076205,4.9534,0.010915,28.61,-80.6,9.784,0.12772,6.07E-07,-0.23739,0.0020135,15503,0,11.632,0.026689,190.59,147.31,4.2025,0.62387,31561657,0,106.07,0.54466,0.54468,0.25161,0.12245,0.1706,0.019186,0.080512,4.34E-04,0,0,0,0,-2.21E-06,0.027103,10.3,83.323,88.118,0.001266,NaN,13.284,857.5,339.35,0.05,0.47695,467.26
6.8413,1413.2,210.78,-16.567,210.84,16.567,28.87,0.0038816,28.87,0.0077033,4.9527,0.0344,28.61,-80.6,9.784,0.11535,5.66E-07,0.15252,0.0021164,15503,0,11.632,0.026689,190.62,147.31,4.2054,0.62153,31416240,0,105.09,0.54439,0.54441,0.25186,0.12231,0.17022,0.017311,0.072312,-3.87E-04,0,0,0,0,9.21E-07,0.026997,10.3,83.323,88.116,0.0038615,NaN,13.195,856.43,339.3,0.05,0.48009,463.17
6.8913,1423.7,209.95,-16.501,210.01,16.502,29.118,0.0039558,29.118,0.007784,4.9488,0.12715,28.61,-80.6,9.784,0.064358,5.63E-07,0.43499,0.0038954,15503,0,11.632,0.026689,190.79,147.31,4.2217,0.6192,31271900,0,104.12,0.54413,0.54413,0.25211,0.12218,0.16984,0.0096235,0.040899,-4.69E-04,0,0,0,0,7.55E-06,0.026891,10.3,83.323,88.132,0.0094413,NaN,13.108,855.36,339.24,0.05,0.48208,459.12
6.9413,1434.2,209.13,-16.436,209.19,16.438,29.365,0.0040304,29.365,0.007864,4.9398,0.2309,28.61,-80.6,9.784,0.0054559,5.46E-07,0.54209,0.017111,15503,0,11.632,0.026689,190.99,147.31,4.2408,0.61688,31128249,0,103.17,0.54387,0.54387,0.25236,0.12204,0.16947,8.12E-04,0.0038455,1.62E-04,0,0,0,0,1.18E-05,0.026786,10.3,83.323,88.157,0.016829,NaN,13.02,854.3,339.19,0.05,0.48451,455.1
6.9913,1444.7,208.31,-16.373,208.37,16.376,29.612,0.0041063,29.612,0.0079452,4.9271,0.27005,28.61,-80.6,9.7839,0.019028,5.46E-07,-0.51556,0.0051764,15503,0,11.632,0.026689,190.93,147.31,4.2349,0.61455,30984676,0,102.21,0.54361,0.54361,0.2526,0.12191,0.1691,0.0028356,0.01191,3.13E-04,0,0,0,0,-1.08E-05,0.026681,10.3,83.323,88.183,0.022426,NaN,12.933,853.24,339.14,0.05,0.48671,451.11
