# Time (s),Altitude (m),Vertical velocity (m/s),Vertical acceleration (m/s²),Total velocity (m/s),Total acceleration (m/s²),Position East of launch (m),Position North of launch (m),Lateral distance (m),Lateral direction (°),Lateral velocity (m/s),Lateral acceleration (m/s²),Latitude (°),Longitude (°),Gravitational acceleration (m/s²),Angle of attack (°),Roll rate (°/s),Pitch rate (°/s),Yaw rate (°/s),Mass (g),Propellant mass (g),Longitudinal moment of inertia (kg·m²),Rotational moment of inertia (kg·m²),CP location (cm),CG location (cm),Stability margin calibers (?),Mach number (?),Reynolds number (?),Thrust (N),Drag force (N),Drag coefficient (?),Axial drag coefficient (?),Friction drag coefficient (?),Pressure drag coefficient (?),Base drag coefficient (?),Normal force coefficient (?),Pitch moment coefficient (?),Yaw moment coefficient (?),Side force coefficient (?),Roll moment coefficient (?),Roll forcing coefficient (?),Roll damping coefficient (?),Pitch damping coefficient (?),Coriolis acceleration (m/s²),Reference length (cm),Reference area (cm²),Vertical orientation (zenith) (°),Lateral orientation (azimuth) (°),Wind velocity (m/s),Air temperature (°C),Air pressure (mbar),Speed of sound (m/s),Simulation time step (s),Computation time (s),Dynamic Pressure (mbar)
0,0,0,25.39,0,25.39,0,0,0,0,0,0,28.61,-80.6,9.7922,90,0,0,0,18166,2663.3,13.153,0.028562,NaN,158.95,NaN,0.0057417,340616,639.11,0,0.8161,0,0.59135,0.10474,0.12,NaN,NaN,NaN,NaN,NaN,NaN,NaN,NaN,0,10.3,83.323,90,0,NaN,15,1013.2,340.39,0.01,0.0047531,0
0.01,0.0012695,0.2539,93.963,0.2539,93.963,0,0,0,0,0,0,28.61,-80.6,9.7922,82.594,0,0,0,18166,2663.3,13.153,0.028562,NaN,158.95,NaN,0.0057867,343286,1884.8,8.10E-05,0.81507,0.0040889,0.59033,0.10474,0.12,NaN,NaN,NaN,NaN,NaN,NaN,NaN,NaN,3.25E-05,10.3,83.323,90,0,NaN,15,1013.2,340.39,0.01,0.0058544,7.90E-04
0.02,0.0085077,1.1938,103.88,1.1938,103.88,0,0,0,0,0,0,28.61,-80.6,9.7922,58.553,0,0,0,18160,2657.3,13.15,0.028558,NaN,158.93,NaN,0.0067225,398802,2064.3,0.0059848,0.79592,0.22396,0.57117,0.10474,0.12001,NaN,NaN,NaN,NaN,NaN,NaN,NaN,NaN,1.53E-04,10.3,83.323,90,0,NaN,15,1013.2,340.39,0.01,0.0066621,0.017458
0.03,0.025641,2.233,97.962,2.233,97.962,0,0,0,0,0,0,28.61,-80.6,9.7922,41.145,0,0,0,18152,2649.1,13.146,0.028552,NaN,158.9,NaN,0.0087116,516797,1956,0.026649,0.76493,0.59384,0.54018,0.10474,0.12001,NaN,NaN,NaN,NaN,NaN,NaN,NaN,NaN,2.86E-04,10.3,83.323,90,0,NaN,15,1013.2,340.39,0.01,0.0075136,0.061084
0.04,0.052872,3.2131,98.262,3.2131,98.262,0,0,0,0,0,0,28.61,-80.6,9.7922,31.253,0,0,0,18142,2639.4,13.141,0.028545,NaN,158.87,NaN,0.011042,655036,1960.4,0.057223,0.73875,0.79372,0.51399,0.10474,0.12002,NaN,NaN,NaN,NaN,NaN,NaN,NaN,NaN,4.11E-04,10.3,83.323,90,0,NaN,15,1013.2,340.39,0.01,0.0082781,0.12647
0.05,0.089918,4.1962,98.56,4.1962,98.56,0,0,0,0,0,0,28.61,-80.6,9.7922,24.912,0,0,0,18133,2629.9,13.137,0.028538,NaN,158.83,NaN,0.013592,806335,1964.8,0.095691,0.71733,0.87592,0.49256,0.10475,0.12002,NaN,NaN,NaN,NaN,NaN,NaN,NaN,NaN,5.37E-04,10.3,83.323,90,0,NaN,14.999,1013.2,340.39,0.01,0.0090053,0.2157
0.06,0.13681,5.1823,98.857,5.1823,98.857,0,0,0,0,0,0,28.61,-80.6,9.7922,20.845,0,0,0,18123,2620.4,13.132,0.028532,NaN,158.79,NaN,0.016291,966410,1969.2,0.14054,0.69975,0.89558,0.47497,0.10475,0.12003,NaN,NaN,NaN,NaN,NaN,NaN,NaN,NaN,6.64E-04,10.3,83.323,90,0,NaN,14.999,1013.2,340.39,0.01,0.009766,0.32898
0.07,0.19358,6.1713,99.155,6.1713,99.155,0,0,0,0,0,0,28.61,-80.6,9.7922,17.935,0,0,0,18114,2611,13.127,0.028525,NaN,158.76,NaN,0.019056,1130456,1973.6,0.19111,0.68528,0.89,0.46048,0.10475,0.12005,NaN,NaN,NaN,NaN,NaN,NaN,NaN,NaN,7.90E-04,10.3,83.323,90,0,NaN,14.999,1013.2,340.39,0.01,0.010507,0.46653
0.08,0.26025,7.1633,99.453,7.1633,99.453,0,0,0,0,0,0,28.61,-80.6,9.7922,15.761,0,0,0,18104,2601.5,13.123,0.028518,NaN,158.72,NaN,0.021867,1297172,1978,0.24654,0.67313,0.87201,0.4483,0.10476,0.12006,NaN,NaN,NaN,NaN,NaN,NaN,NaN,NaN,9.17E-04,10.3,83.323,90,0,NaN,14.998,1013.2,340.39,0.01,0.011199,0.62857
0.09,0.33686,8.1583,99.751,8.1583,99.751,0,0,0,0,0,0,28.61,-80.6,9.7922,14.079,0,0,0,18095,2592.1,13.118,0.028512,NaN,158.69,NaN,0.02471,1465831,1982.5,0.30542,0.66273,0.84596,0.43789,0.10477,0.12008,NaN,NaN,NaN,NaN,NaN,NaN,NaN,NaN,0.0010445,10.3,83.323,90,0,NaN,14.998,1013.2,340.39,0.01,0.011977,0.81531
0.1,0.42343,9.1563,100.05,9.1563,100.05,0,0,0,0,0,0,28.61,-80.6,9.7922,12.741,0,0,0,18085,2582.6,13.113,0.028505,NaN,158.65,NaN,0.027579,1635996,1986.9,0.36835,0.6537,0.81906,0.42883,0.10477,0.1201,NaN,NaN,NaN,NaN,NaN,NaN,NaN,NaN,0.0011723,10.3,83.323,90,0,NaN,14.997,1013.2,340.39,0.01,0.012769,1.027
0.11,0.52,10.157,100.35,10.157,100.35,0,0,0,0,0,0,28.61,-80.6,9.7922,11.49,0,0,0,18076,2573.2,13.109,0.028499,NaN,158.62,NaN,0.03045,1806336,1991.3,0.43404,0.6458,0.79167,0.4209,0.10478,0.12012,NaN,NaN,NaN,NaN,NaN,NaN,NaN,NaN,0.0013005,10.3,83.323,90,0,NaN,14.997,1013.2,340.39,0.0098452,0.013485,1.2638
0.11985,0.62486,11.146,100.64,11.146,100.64,0,0,0,0,0,0,28.61,-80.6,9.7922,10.466,0,0,0,18066,2563.8,13.104,0.028492,NaN,158.58,NaN,0.033298,1975233,1995.4,0.50305,0.63887,0.76735,0.41393,0.10479,0.12014,NaN,NaN,NaN,NaN,NaN,NaN,NaN,NaN,0.001427,10.3,83.323,90,0,NaN,14.996,1013.2,340.39,0.0089722,0.01425,1.5217
0.12882,0.72891,12.049,100.9,12.049,100.9,0,0,0,0,0,0,28.61,-80.6,9.7922,9.6725,0,0,0,18058,2554.9,13.1,0.028486,NaN,158.55,NaN,0.035908,2130051,1999.2,0.56999,0.63315,0.74764,0.40818,0.1048,0.12017,NaN,NaN,NaN,NaN,NaN,NaN,NaN,NaN,0.0015427,10.3,83.323,90,0,NaN,14.995,1013.2,340.39,0.0082995,0.014946,1.7783
0.13712,0.83239,12.887,101.14,12.887,101.14,0,0,0,0,0,0,28.61,-80.6,9.7922,9.0336,0,0,0,18049,2546.7,13.095,0.02848,NaN,158.52,NaN,0.038334,2273944,2002.8,0.63548,0.62829,0.7314,0.40329,0.1048,0.12019,NaN,NaN,NaN,NaN,NaN,NaN,NaN,NaN,0.0016499,10.3,83.323,90,0,NaN,14.995,1013.2,340.39,0.00776,0.015695,2.0341
0.14488,0.93544,13.672,101.37,13.672,101.37,0,0,0,0,0,0,28.61,-80.6,9.7922,8.5041,0,0,0,18042,2539.1,13.092,0.028475,NaN,158.49,NaN,0.040612,2409027,2006.1,0.69993,0.62408,0.71776,0.39905,0.10481,0.12021,NaN,NaN,NaN,NaN,NaN,NaN,NaN,NaN,0.0017504,10.3,83.323,90,0,NaN,14.994,1013.1,340.39,0.0073144,0.016386,2.2895
0.15219,1.0381,14.413,101.56,14.413,101.56,0,0,0,0,0,0.11037,28.61,-80.6,9.7922,8.0475,0,0,0,18035,2532,13.088,0.02847,171.32,158.46,1.2481,0.042765,2536750,2009.2,0.76341,0.62037,0.706,0.39531,0.10482,0.12024,1.81,2.2594,-2.53E-04,0,0,0,0,0,0.0018454,10.3,83.323,90,0,NaN,14.993,1013.1,340.38,0.010972,0.017236,2.5446
0.16316,1.2024,15.528,101.7,15.528,101.7,-6.73E-06,0,6.73E-06,-180,0.0012335,0.11434,28.61,-80.6,9.7922,7.4098,0,0.012799,9.61E-07,18026,2523.2,13.084,0.028463,172.27,158.43,1.3441,0.046004,2728805,2010.9,0.86317,0.61522,0.68985,0.39011,0.10483,0.12028,1.6206,2.1782,-4.91E-04,0,0,0,0,1.18E-06,0.0019881,10.3,83.323,90,-0.0068242,NaN,14.992,1013.1,340.38,0.016457,0.01796,2.9535
0.17962,1.4717,17.203,101.9,17.203,101.9,-4.28E-05,0,4.28E-05,-180,0.0031604,0.11962,28.61,-80.6,9.7922,6.6041,0,0.034622,4.05E-07,18012,2509.8,13.077,0.028454,173.57,158.38,1.4747,0.050878,3017879,2013.3,1.0246,0.60829,0.66952,0.3831,0.10485,0.12034,1.3924,2.0536,-5.79E-05,0,0,0,0,7.04E-06,0.0022026,10.3,83.323,90,-0.0026942,NaN,14.99,1013.1,340.38,0.024686,0.018782,3.6249
0.20431,1.9275,19.722,102.2,19.722,102.2,-1.58E-04,0,1.58E-04,-180,0.0061945,0.12565,28.61,-80.6,9.7922,5.6428,0,0.07312,-6.72E-07,17992,2489.5,13.067,0.02844,175.25,158.3,1.6457,0.058222,3453343,2016.9,1.2938,0.59934,0.64561,0.374,0.10489,0.12044,1.1365,1.87,-9.61E-05,0,0,0,0,2.40E-05,0.0025251,10.3,83.323,89.998,5.30E-05,NaN,14.987,1013,340.38,0.037029,0.019599,4.7637
0.24134,2.7279,23.513,102.64,23.513,102.64,-4.75E-04,0,4.75E-04,-180,0.010936,0.12923,28.61,-80.6,9.7922,4.5598,0,0.14321,-1.49E-06,17962,2459.1,13.052,0.028418,177.36,158.18,1.8618,0.069297,4.11E+06,2022.1,1.7588,0.58829,0.61957,0.36271,0.10495,0.12062,0.86982,1.6199,-1.45E-04,0,0,0,0,6.49E-05,0.0030104,10.3,83.323,89.994,-3.31E-04,NaN,14.982,1012.9,340.38,0.05,0.021961,6.7706
0.29134,4.0321,28.657,103.24,28.657,103.24,-0.0011854,0,0.0011854,-180,0.017528,0.1336,28.61,-80.6,9.7922,3.7506,0,0.26201,-2.30E-05,17919,2416.2,13.03,0.028388,179.11,158.02,2.0475,0.084374,5003588,2027.9,2.5164,0.57651,0.59805,0.35053,0.10506,0.12093,0.68556,1.4034,4.65E-04,0,0,0,0,1.47E-04,0.003669,10.3,83.323,89.984,0.0016634,NaN,14.974,1012.8,340.37,0.05,0.022826,10.056
0.34134,5.5942,33.83,103.83,33.83,103.83,-0.0022276,-7.26E-09,0.0022276,-180,0.024099,0.12622,28.61,-80.6,9.7922,3.2036,0,0.41207,-2.01E-05,17870,2366.9,13.005,0.028354,180.39,157.83,2.1899,0.099553,5902913,2033.8,3.4147,0.5672,0.58305,0.34073,0.10518,0.12129,0.5683,1.244,2.13E-04,0,0,0,0,2.60E-04,0.0043315,10.3,83.323,89.968,0.0028561,NaN,14.964,1012.6,340.37,0.05,0.023718,14.013
0.39134,7.4158,39.034,104.42,39.034,104.42,-0.0035787,-6.52E-09,0.0035787,-180,0.029645,0.090081,28.61,-80.6,9.7922,2.6549,0,0.59069,-1.91E-05,17820,2317.6,12.98,0.028319,181.75,157.64,2.3409,0.11481,6806624,2039.7,4.444,0.55962,0.57062,0.33258,0.10533,0.12171,0.45662,1.0682,4.98E-04,0,0,0,0,4.02E-04,0.0049977,10.3,83.323,89.943,0.002791,NaN,14.952,1012.4,340.36,0.05,0.024608,18.652
0.44134,9.4982,44.266,105,44.266,105,-0.0051562,5.11E-09,0.0051562,180,0.033085,0.04552,28.61,-80.6,9.7921,2.3535,0,0.79554,-8.56E-05,17771,2268.4,12.955,0.028284,182.55,157.45,2.4366,0.13018,7716206,2045.5,5.6251,0.55331,0.56197,0.32561,0.1055,0.1222,0.39781,0.96907,3.67E-05,0,0,0,0,5.67E-04,0.0056676,10.3,83.323,89.908,0.0035892,NaN,14.938,1012.1,340.35,0.05,0.025376,23.983
0.49134,11.843,49.527,105.57,49.527,105.57,-0.0068392,4.18E-08,0.0068392,180,0.033588,0.032524,28.61,-80.6,9.7921,2.0304,0,1.0299,-4.85E-05,17722,2219.1,12.929,0.02825,183.43,157.26,2.5412,0.14563,8630116,2051.4,6.9434,0.54799,0.55446,0.31954,0.10569,0.12276,0.33677,0.85524,-4.39E-04,0,0,0,0,7.60E-04,0.0063412,10.3,83.323,89.863,0.0035634,NaN,14.923,1011.9,340.34,0.05,0.026193,30.016
0.54134,14.452,54.817,106.14,54.817,106.14,-0.0084321,1.16E-07,0.0084321,180,0.029129,0.15354,28.61,-80.6,9.7921,1.6653,0,1.28,-5.53E-05,17672,2169.8,12.904,0.028215,184.47,157.06,2.6611,0.16115,9548216,2057.3,8.3991,0.54346,0.54784,0.31418,0.1059,0.12338,0.27024,0.71773,9.11E-05,0,0,0,0,9.59E-04,0.0070185,10.3,83.323,89.805,0.002849,NaN,14.906,1011.6,340.33,0.05,0.026956,36.761
0.59134,17.325,60.136,106.71,60.136,106.71,-0.0096474,2.39E-07,0.0096474,180,0.018499,0.27268,28.61,-80.6,9.7921,1.5418,0,1.5467,-8.88E-05,17623,2120.5,12.878,0.02818,184.84,156.87,2.7163,0.17679,10472014,2063.1,10.021,0.53957,0.54332,0.30936,0.10614,0.12406,0.24838,0.67344,2.93E-04,0,0,0,0,0.0011632,0.0076995,10.3,83.323,89.734,0.0026698,NaN,14.887,1011.2,340.32,0.05,0.027713,44.228
0.64134,20.466,65.482,107.27,65.482,107.27,-0.01017,4.27E-07,0.01017,180,0.0011011,0.43283,28.61,-80.6,9.7921,1.3842,0,1.8453,-8.22E-05,17574,2071.2,12.853,0.028146,185.33,156.67,2.7821,0.19251,1.14E+07,2069,11.789,0.53622,0.53925,0.305,0.1064,0.12482,0.22088,0.61312,-2.95E-04,0,0,0,0,0.0013965,0.008384,10.3,83.323,89.65,0.0025768,NaN,14.867,1010.8,340.31,0.05,0.028439,52.427
0.69134,23.874,70.857,107.82,70.857,107.82,-0.0095982,7.00E-07,0.0095982,180,0.025817,0.65507,28.61,-80.6,9.7921,1.1352,0,2.1528,-2.15E-04,17525,2022,12.827,0.028111,186.1,156.47,2.8763,0.2083,12331447,2074.9,13.698,0.53334,0.53539,0.30102,0.10668,0.12564,0.1784,0.51144,-1.56E-04,0,0,0,0,0.0016236,0.0090721,10.3,83.323,89.55,0.0026191,NaN,14.845,1010.4,340.29,0.05,0.02918,61.367
0.74134,27.552,76.259,108.37,76.259,108.37,-0.007386,1.09E-06,0.007386,179.99,0.064762,0.90932,28.61,-80.6,9.7921,0.93942,0,2.4508,-2.15E-04,17475,1972.7,12.801,0.028076,186.73,156.28,2.9568,0.22418,13267381,2080.7,15.768,0.53087,0.53228,0.29735,0.10699,0.12653,0.14586,0.42968,4.53E-04,0,0,0,0,0.0018168,0.0097638,10.3,83.323,89.434,0.0029371,NaN,14.821,1010,340.28,0.05,0.029912,71.056
0.79134,31.501,81.688,108.91,81.688,108.92,-0.0029002,1.67E-06,0.0029002,179.97,0.11692,1.183,28.61,-80.6,9.7921,0.8231,0,2.7468,-3.16E-04,17426,1923.4,12.775,0.028042,187.12,156.08,3.0142,0.24016,14207790,2086.6,18.003,0.52876,0.52984,0.29394,0.10732,0.1275,0.1269,0.38018,4.30E-04,0,0,0,0,0.0019889,0.010459,10.3,83.323,89.305,0.0032322,NaN,14.795,1009.6,340.26,0.05,0.03063,81.504
0.84134,35.721,87.144,109.44,87.144,109.45,0.0045546,2.50E-06,0.0045546,0.031388,0.18395,1.5101,28.61,-80.6,9.7921,0.66913,0,3.0394,-4.10E-04,17377,1874.1,12.748,0.028007,187.65,155.88,3.0844,0.25621,15151841,2092.5,20.397,0.52697,0.52769,0.29076,0.10768,0.12853,0.10219,0.31338,1.92E-04,0,0,0,0,0.0021397,0.011157,10.3,83.323,89.16,0.0035374,NaN,14.768,1009.1,340.25,0.05,0.031442,92.718
0.89134,40.216,92.626,109.97,92.627,109.98,0.0158,3.66E-06,0.0158,0.013261,0.26912,1.9095,28.61,-80.6,9.7921,0.43869,0,3.2891,-6.03E-04,17328,1824.9,12.722,0.027972,188.44,155.67,3.1807,0.27233,16099091,2098.4,22.951,0.52548,0.52579,0.28778,0.10806,0.12964,0.066021,0.20772,4.93E-04,0,0,0,0,0.002218,0.011859,10.3,83.323,89.001,0.0036625,NaN,14.739,1008.5,340.23,0.05,0.032157,104.71
0.94134,44.985,98.135,110.48,98.136,110.51,0.03181,5.25E-06,0.03181,0.009448,0.37462,2.313,28.61,-80.6,9.792,0.29917,0,3.4739,-0.001014,17278,1775.6,12.695,0.027938,188.94,155.47,3.2492,0.28855,17050571,2104.2,25.683,0.52426,0.5244,0.28496,0.10847,0.13082,0.044632,0.14276,-2.30E-05,0,0,0,0,0.0022044,0.012565,10.3,83.323,88.832,0.0039222,NaN,14.708,1008,340.21,0.05,0.032894,117.48
0.99134,50.03,103.67,110.99,103.67,111.02,0.053617,7.37E-06,0.053617,0.0078723,0.50135,2.7679,28.61,-80.6,9.792,0.11722,0,3.595,-0.0025976,17229,1726.3,12.669,0.027903,189.6,155.27,3.3332,0.30484,18005172,2110.1,28.588,0.52329,0.52331,0.2823,0.10891,0.13208,0.017285,0.055798,-2.36E-05,0,0,0,0,0.0021153,0.013273,10.3,83.323,88.655,0.0041715,NaN,14.675,1007.4,340.19,0.05,0.033634,131.04
1.0413,55.352,109.23,111.49,109.23,111.53,0.082343,1.02E-05,0.082343,0.0070753,0.65163,3.2485,28.61,-80.6,9.792,0.062487,0,-3.608,-0.0044474,17180,1677,12.642,0.027868,189.82,155.06,3.3749,0.3212,18963036,2116,31.674,0.52255,0.52256,0.27977,0.10937,0.13341,0.0091858,0.03261,3.26E-04,0,0,0,0,-0.0019194,0.013985,10.3,83.323,88.474,0.0042572,NaN,14.64,1006.8,340.17,0.05,0.034492,145.4
1.0913,60.953,114.81,111.8,114.81,111.87,0.11919,1.38E-05,0.11919,0.00662,0.82629,3.7372,28.61,-80.6,9.792,0.23208,0,-3.4943,-0.0011479,17130,1627.8,12.615,0.027834,189.26,154.86,3.3404,0.33765,19924031,2118.9,34.948,0.52203,0.52212,0.27735,0.10986,0.13482,0.034529,0.11653,2.17E-04,0,0,0,0,-0.0016294,0.0147,10.3,83.323,88.296,0.0039214,NaN,14.604,1006.1,340.15,0.05,0.035247,160.57
1.1413,66.834,120.41,111.43,120.42,111.51,0.16537,1.82E-05,0.16537,0.0063218,1.0247,4.1682,28.61,-80.6,9.792,0.3397,0,-3.2528,-6.14E-04,17081,1578.3,12.588,0.027799,188.93,154.65,3.328,0.35415,20886990,2110.3,38.405,0.52172,0.52191,0.27504,0.11038,0.1363,0.050938,0.17119,3.54E-04,0,0,0,0,-0.0012836,0.015418,10.3,83.323,88.127,0.003575,NaN,14.566,1005.4,340.13,0.05,0.036014,176.52
1.1913,72.994,125.99,110.98,126,111.07,0.22203,2.36E-05,0.22203,0.0060985,1.2454,4.6369,28.61,-80.6,9.792,0.52809,0,-2.8608,-1.59E-04,17031,1528.6,12.56,0.027764,188.33,154.44,3.2902,0.37058,21844436,2100.4,42.034,0.52161,0.52205,0.27284,0.11091,0.13785,0.080231,0.26489,-5.61E-05,0,0,0,0,-9.07E-04,0.016132,10.3,83.323,87.973,0.0033027,NaN,14.526,1004.7,340.1,0.05,0.036779,193.15
1.2413,79.432,131.55,110.51,131.56,110.63,0.29027,3.00E-05,0.29027,0.0059168,1.4872,4.978,28.61,-80.6,9.7919,0.59031,0,-2.292,1.36E-04,16981,1478.8,12.532,0.027729,188.16,154.23,3.2944,0.38697,22797553,2090.5,45.815,0.52168,0.52224,0.27074,0.11148,0.13947,0.090112,0.29726,2.71E-04,0,0,0,0,-5.34E-04,0.016844,10.3,83.323,87.844,0.0035212,NaN,14.484,1003.9,340.08,0.05,0.037547,210.45
1.2913,86.148,137.08,110.04,137.1,110.17,0.37099,3.74E-05,0.37099,0.0057768,1.7441,5.2572,28.61,-80.6,9.7919,0.64661,0,-1.6175,4.39E-04,16932,1429,12.504,0.027694,188.01,154.01,3.3009,0.40329,23744963,2080.7,49.756,0.52193,0.52259,0.26873,0.11206,0.14114,0.099142,0.32708,-1.02E-04,0,0,0,0,-2.45E-04,0.017553,10.3,83.323,87.746,0.0041006,NaN,14.44,1003.1,340.05,0.05,0.038367,228.39
1.3413,93.14,142.59,109.56,142.61,109.69,0.46486,4.62E-05,0.46486,0.0056926,2.0121,5.4024,28.61,-80.6,9.7919,0.63437,0,-0.8464,7.09E-04,16882,1379.2,12.476,0.027659,188.09,153.8,3.3296,0.41955,24687189,2070.8,53.845,0.52234,0.52298,0.26679,0.11267,0.14288,0.097262,0.32404,-2.58E-04,0,0,0,0,-6.20E-05,0.018259,10.3,83.323,87.684,0.0049551,NaN,14.395,1002.3,340.02,0.05,0.039117,246.97
1.3913,100.41,148.08,109.07,148.1,109.21,0.57226,5.67E-05,0.57226,0.0056726,2.2846,5.4475,28.61,-80.6,9.7919,0.60664,0,-0.037611,9.96E-04,16832,1329.4,12.448,0.027624,188.23,153.58,3.3636,0.43574,25623455,2060.9,58.088,0.52291,0.5235,0.26493,0.1133,0.14468,0.092917,0.31218,-4.40E-04,0,0,0,0,-1.13E-07,0.018962,10.3,83.323,87.662,0.0061622,NaN,14.347,1001.5,339.99,0.05,0.039879,266.17
1.4413,107.95,153.54,108.49,153.56,108.63,0.6933,6.93E-05,0.6933,0.0057243,2.5563,5.3568,28.61,-80.6,9.7918,0.53934,0,0.77979,8.34E-04,16782,1279.6,12.42,0.027589,188.49,153.36,3.4106,0.45186,26553909,2049.6,62.482,0.52362,0.52409,0.26313,0.11395,0.14654,0.082316,0.28115,-3.92E-04,0,0,0,0,4.54E-05,0.019662,10.3,83.323,87.68,0.0073094,NaN,14.298,1000.6,339.96,0.05,0.040676,285.97
1.4913,115.76,158.98,107.72,159,107.84,0.82775,8.44E-05,0.82775,0.0058392,2.8203,5.1408,28.61,-80.6,9.7918,0.44931,0,1.5433,8.47E-04,16733,1230.5,12.392,0.027554,188.84,153.15,3.4652,0.4679,27477437,2035.3,67.025,0.52448,0.5248,0.2614,0.11462,0.14846,0.068231,0.23621,4.90E-04,0,0,0,0,1.66E-04,0.020359,10.3,83.323,87.739,0.008121,NaN,14.248,999.67,339.93,0.05,0.041735,306.35
1.5413,123.84,164.37,106.92,164.4,107.03,0.97509,1.02E-04,0.97509,0.0060017,3.071,4.8301,28.61,-80.6,9.7918,0.35209,0,2.2119,5.93E-04,16685,1182.4,12.364,0.027521,189.22,152.94,3.5223,0.48382,28392059,2020.8,71.713,0.52546,0.52566,0.25972,0.11531,0.15043,0.053176,0.18661,4.75E-04,0,0,0,0,3.18E-04,0.02105,10.3,83.323,87.833,0.0081042,NaN,14.195,998.73,339.9,0.05,0.042475,327.25
1.5913,132.2,169.72,106.12,169.75,106.21,1.1345,1.23E-04,1.1345,0.0061897,3.3032,4.3957,28.61,-80.6,9.7918,0.21666,0,2.7275,1.61E-04,16637,1134.6,12.336,0.027487,189.73,152.73,3.5929,0.49963,29298126,2006.4,76.544,0.52657,0.52665,0.2581,0.11602,0.15245,0.032459,0.11614,-2.12E-04,0,0,0,0,4.54E-04,0.021736,10.3,83.323,87.958,0.0071605,NaN,14.141,997.75,339.87,0.05,0.043213,348.65
1.6413,140.82,175.04,105.3,175.07,105.37,1.305,1.45E-04,1.305,0.0063783,3.5113,3.8848,28.61,-80.6,9.7917,0.067272,0,3.0016,-1.46E-04,16589,1086.7,12.308,0.027453,190.31,152.51,3.6695,0.51532,30195276,1991.9,81.524,0.5278,0.52781,0.25653,0.11675,0.15452,0.0099885,0.036412,-3.36E-04,0,0,0,0,5.17E-04,0.022416,10.3,83.323,88.102,0.0057433,NaN,14.085,996.73,339.83,0.05,0.043943,370.52
1.6913,149.7,180.31,104.47,180.34,104.52,1.4852,1.70E-04,1.4852,0.0065459,3.6925,3.3236,28.61,-80.6,9.7917,0.094332,0,-2.9693,3.83E-05,16541,1038.8,12.28,0.02742,190.27,152.3,3.6866,0.5309,31083550,1977.5,86.657,0.52914,0.52915,0.255,0.1175,0.15664,0.014046,0.051843,1.60E-04,0,0,0,0,-4.77E-04,0.023092,10.3,83.323,88.253,0.0038297,NaN,14.027,995.69,339.8,0.05,0.044791,392.85
1.7413,158.84,185.54,103.61,185.58,103.65,1.6738,1.95E-04,1.6738,0.00668,3.847,2.8403,28.61,-80.6,9.7917,0.20071,0,-2.6249,-8.41E-05,16494,990.94,12.252,0.027386,189.96,152.08,3.6773,0.54635,31961866,1963,91.932,0.53058,0.53065,0.25352,0.11826,0.1588,0.030128,0.11144,2.16E-05,0,0,0,0,-3.52E-04,0.023762,10.3,83.323,88.393,0.0019728,NaN,13.968,994.62,339.76,0.05,0.045694,415.61
1.7913,168.25,190.72,102.68,190.76,102.71,1.8695,2.21E-04,1.8695,0.0067795,3.977,2.333,28.61,-80.6,9.7917,0.33658,0,-1.9852,-9.08E-05,16446,943.47,12.224,0.027353,189.55,151.87,3.6591,0.56169,32831752,1947.5,97.363,0.53213,0.53231,0.25207,0.11904,0.16101,0.051029,0.187,9.93E-05,0,0,0,0,-1.91E-04,0.024426,10.3,83.323,88.51,6.25E-05,NaN,13.906,993.52,339.73,0.05,0.04644,438.78
1.8413,177.92,195.86,101.69,195.9,101.71,2.0711,2.47E-04,2.0711,0.006841,4.0865,2.0624,28.61,-80.6,9.7916,0.3704,3.32E-07,-1.0656,-6.30E-04,16401,898.15,12.197,0.027321,189.51,151.66,3.6747,0.57687,3.37E+07,1931.5,102.9,0.53377,0.53399,0.25067,0.11984,0.16326,0.05634,0.20732,9.98E-05,0,0,0,0,-5.20E-05,0.025084,10.3,83.323,88.587,-2.67E-04,NaN,13.844,992.38,339.69,0.05,0.047189,462.31
1.8913,187.84,200.95,100.66,200.99,100.68,2.278,2.73E-04,2.278,0.0068746,4.1867,1.9413,28.61,-80.6,9.7916,0.37233,0,-0.058818,-0.0011078,16357,854.56,12.171,0.02729,189.58,151.46,3.7007,0.59192,34538443,1915.6,108.57,0.5355,0.53572,0.2493,0.12065,0.16555,0.0567,0.2103,-3.15E-04,0,0,0,0,-1.51E-07,0.025736,10.3,83.323,88.615,7.40E-04,NaN,13.779,991.22,339.65,0.05,0.047924,486.19
1.9413,198.01,205.99,99.625,206.03,99.645,2.4897,3.00E-04,2.4897,0.0068944,4.2851,1.9984,28.61,-80.6,9.7916,0.33447,3.93E-07,0.96319,-0.0010263,16314,810.97,12.145,0.027259,189.78,151.26,3.7403,0.60682,35375847,1899.6,114.34,0.53731,0.53749,0.24796,0.12147,0.16787,0.050864,0.19019,1.93E-04,0,0,0,0,3.85E-05,0.026381,10.3,83.323,88.593,0.0025107,NaN,13.713,990.03,339.61,0.05,0.048642,510.36
1.9913,208.43,210.97,98.569,211.02,98.596,2.7066,3.27E-04,2.7066,0.0069117,4.3925,2.3077,28.61,-80.6,9.7915,0.22287,6.57E-07,1.8234,-0.0020543,16270,767.39,12.119,0.027229,190.25,151.05,3.8051,0.62157,36201668,1883.6,120.21,0.5392,0.53928,0.24666,0.12231,0.17022,0.033683,0.1282,4.90E-04,0,0,0,0,1.31E-04,0.027019,10.3,83.323,88.522,0.0055736,NaN,13.645,988.8,339.57,0.05,0.04938,534.83
2.0413,219.11,215.9,97.495,215.95,97.534,2.9293,3.55E-04,2.9293,0.0069403,4.5191,2.738,28.61,-80.6,9.7915,0.092997,7.14E-07,2.3313,-0.0043708,16226,723.8,12.092,0.027198,190.79,150.85,3.8772,0.63616,37016519,1867.7,126.21,0.54117,0.54118,0.24539,0.12316,0.17261,0.013951,0.05414,-2.58E-04,0,0,0,0,2.05E-04,0.027651,10.3,83.323,88.416,0.0092531,NaN,13.576,987.55,339.53,0.05,0.050115,559.55
2.0913,230.02,220.78,96.407,220.83,96.459,3.1589,3.86E-04,3.1589,0.0069935,4.6678,3.1711,28.61,-80.6,9.7915,0.017126,7.08E-07,-2.4527,-0.018583,16183,680.22,12.066,0.027168,191.14,150.65,3.9317,0.65062,37820616,1851.7,132.33,0.54321,0.54321,0.24415,0.12403,0.17503,0.0025592,0.010213,1.01E-04,0,0,0,0,-2.17E-04,0.028276,10.3,83.323,88.295,0.01008,NaN,13.505,986.27,339.48,0.05,0.050877,584.51
2.1413,241.18,225.6,95.303,225.65,95.372,3.3964,4.19E-04,3.3964,0.0070721,4.8388,3.6314,28.61,-80.6,9.7914,0.13327,6.91E-07,-2.1782,-0.0026622,16139,636.63,12.039,0.027137,190.82,150.44,3.9202,0.66492,38612961,1835.7,138.57,0.54531,0.54534,0.24293,0.1249,0.17748,0.020094,0.078441,-4.00E-04,0,0,0,0,-1.64E-04,0.028893,10.3,83.323,88.178,0.0088601,NaN,13.432,984.96,339.44,0.05,0.051615,609.67
2.1913,252.58,230.37,94.188,230.42,94.273,3.6431,4.56E-04,3.6431,0.0071664,5.0312,4.0012,28.61,-80.6,9.7914,0.22139,9.43E-07,-1.4915,-0.0017345,16096,593.05,12.012,0.027106,190.6,150.23,3.9191,0.67906,39393679,1819.8,144.92,0.54748,0.54756,0.24175,0.12578,0.17995,0.033613,0.13215,-2.44E-04,0,0,0,0,-7.37E-05,0.029504,10.3,83.323,88.084,0.0070834,NaN,13.358,983.63,339.39,0.05,0.052352,635.02
2.2413,264.22,235.08,93.067,235.14,93.161,3.8998,4.94E-04,3.8998,0.007265,5.2378,4.1878,28.61,-80.6,9.7914,0.26234,1.20E-06,-0.51269,-0.0020726,16052,549.46,11.985,0.027076,190.55,150.03,3.9345,0.69304,40162709,1803.8,151.36,0.5497,0.54982,0.24058,0.12668,0.18244,0.039987,0.15689,-3.37E-04,0,0,0,0,-8.37E-06,0.030108,10.3,83.323,88.033,0.0045224,NaN,13.283,982.26,339.35,0.05,0.053257,660.53
2.2913,276.09,239.73,91.942,239.8,92.037,4.167,5.35E-04,4.167,0.0073531,5.4492,4.1932,28.61,-80.6,9.7913,0.26914,1.17E-06,0.60985,-2.97E-04,16009,505.88,11.958,0.027045,190.62,149.82,3.9617,0.70686,40919496,1787.9,157.88,0.55198,0.55211,0.23945,0.12758,0.18495,0.041091,0.16302,-4.07E-04,0,0,0,0,1.14E-05,0.030705,10.3,83.323,88.036,0.002848,NaN,13.205,980.87,339.3,0.05,0.053984,686.17
2.3413,288.19,244.33,90.815,244.4,90.9,4.4446,5.76E-04,4.4446,0.0074241,5.6545,3.9308,28.61,-80.6,9.7913,0.21671,1.61E-06,1.6952,8.83E-04,15965,462.29,11.931,0.027014,190.9,149.61,4.0091,0.72052,41664452,1771.9,164.49,0.55431,0.55439,0.23833,0.1285,0.18749,0.033015,0.1319,3.63E-04,0,0,0,0,8.47E-05,0.031294,10.3,83.323,88.094,0.0039578,NaN,13.127,979.45,339.25,0.05,0.054758,711.92
2.3913,300.52,248.87,89.684,248.94,89.75,4.7321,6.18E-04,4.7321,0.0074861,5.8405,3.4419,28.61,-80.6,9.7913,0.11864,1.42E-06,2.4758,-6.87E-04,15921,418.71,11.903,0.026984,191.34,149.4,4.0726,0.73402,42397446,1755.9,171.17,0.55669,0.55672,0.23724,0.12942,0.19004,0.017982,0.07302,1.01E-05,0,0,0,0,1.74E-04,0.031876,10.3,83.323,88.2,0.004837,NaN,13.047,978,339.21,0.05,0.055481,737.77
2.4413,313.08,253.36,88.544,253.43,88.589,5.0282,6.62E-04,5.0282,0.0075427,5.9987,2.842,28.61,-80.6,9.7912,0.0043223,1.34E-06,2.7701,0.0067168,15878,375.12,11.876,0.026953,191.85,149.18,4.1425,0.74735,43118205,1740,177.94,0.55912,0.55912,0.23617,0.13034,0.19261,6.51E-04,0.0026709,-4.80E-04,0,0,0,0,2.10E-04,0.032451,10.3,83.323,88.333,0.0071683,NaN,12.965,976.53,339.16,0.05,0.056273,763.67
2.4913,325.85,257.79,87.392,257.86,87.417,5.3314,7.08E-04,5.3314,0.0076054,6.1229,2.0796,28.61,-80.6,9.7912,0.15491,1.45E-06,-2.3943,6.24E-04,15834,331.53,11.848,0.026922,191.42,148.97,4.1209,0.76053,43827893,1724,184.81,0.56158,0.56163,0.23511,0.13128,0.19519,0.023595,0.097825,-3.56E-04,0,0,0,0,-1.52E-04,0.033018,10.3,83.323,88.466,0.01168,NaN,12.882,975.03,339.11,0.05,0.057024,789.62
2.5413,338.85,262.16,86.222,262.23,86.235,5.6398,7.56E-04,5.6398,0.007684,6.2118,1.5,28.61,-80.6,9.7911,0.26643,1.76E-06,-1.2485,0.001708,15791,287.95,11.82,0.026892,191.13,148.76,4.1136,0.77355,44525193,1708,191.77,0.56409,0.56421,0.23408,0.13222,0.19779,0.04093,0.16854,6.73E-05,0,0,0,0,-3.99E-05,0.033578,10.3,83.323,88.559,0.01147,NaN,12.797,973.51,339.05,0.05,0.057771,815.58
2.5913,352.07,266.47,83.738,266.54,83.748,5.9522,8.08E-04,5.9522,0.007776,6.281,1.277,28.61,-80.6,9.7911,0.29198,2.02E-06,0.32696,0.0032457,15747,244.36,11.792,0.026861,191.14,148.54,4.1358,0.78639,4.52E+07,1671.7,198.77,0.56663,0.56678,0.23307,0.13316,0.20039,0.044988,0.18611,4.54E-04,0,0,0,0,2.65E-06,0.03413,10.3,83.323,88.583,0.0077151,NaN,12.712,971.96,339,0.05,0.058483,841.53
2.6413,365.5,270.66,76.799,270.73,76.813,6.2679,8.61E-04,6.2679,0.0078685,6.3516,1.448,28.61,-80.6,9.7911,0.21016,2.13E-06,1.8053,0.0060078,15705,202.42,11.765,0.026832,191.53,148.33,4.1936,0.79886,4.59E+07,1565.8,205.68,0.56916,0.56923,0.23209,0.1341,0.20296,0.032253,0.13495,1.30E-04,0,0,0,0,7.82E-05,0.034666,10.3,83.323,88.528,7.40E-04,NaN,12.624,970.38,338.95,0.05,0.0592,867.03
2.6913,379.13,274.49,65.942,274.57,65.964,6.5875,9.13E-04,6.5875,0.0079417,6.4371,1.6947,28.61,-80.6,9.791,0.10223,1.92E-06,2.7364,0.012099,15668,165.64,11.741,0.026806,192,148.15,4.2577,0.81032,4.65E+07,1399.1,212.14,0.57154,0.57156,0.23121,0.13497,0.20536,0.015598,0.066656,4.30E-04,0,0,0,0,1.75E-04,0.035157,10.3,83.323,88.412,-0.0054129,NaN,12.536,968.78,338.9,0.05,0.059947,890.6
2.7413,392.93,277.79,53.754,277.86,53.792,6.9118,9.63E-04,6.9118,0.007983,6.539,2.0318,28.61,-80.6,9.791,0.0391,2.00E-06,-2.9376,0.028725,15642,139.1,11.724,0.026787,192.31,148.01,4.3006,0.82017,46975305,1212.2,217.75,0.57363,0.57364,0.23045,0.13573,0.20745,0.0059478,0.026013,-2.63E-05,0,0,0,0,-1.97E-04,0.035579,10.3,83.323,88.267,-0.0058855,NaN,12.446,967.17,338.84,0.05,0.060685,910.87
2.7913,406.89,280.47,41.568,280.55,41.627,7.2416,0.0010099,7.2416,0.0079907,6.6557,2.2143,28.61,-80.6,9.7909,0.1517,2.15E-06,-2.3043,0.0076122,15622,119.28,11.711,0.026773,191.98,147.91,4.2779,0.82824,47376277,1025.4,222.37,0.57538,0.57542,0.22984,0.13637,0.20918,0.023266,0.099587,4.00E-04,0,0,0,0,-1.19E-04,0.035923,10.3,83.323,88.133,-0.002578,NaN,12.355,965.53,338.79,0.05,0.061431,927.28
2.8413,420.96,282.54,29.427,282.63,29.504,7.5773,0.0010553,7.5773,0.00798,6.7757,2.1296,28.61,-80.6,9.7909,0.2139,2.04E-06,-1.091,0.003602,15602,99.46,11.698,0.026759,191.81,147.81,4.2716,0.83451,47673190,838.62,225.92,0.57677,0.57685,0.22938,0.13686,0.21053,0.032962,0.14038,3.11E-04,0,0,0,0,-2.62E-05,0.036189,10.3,83.323,88.046,0.001458,NaN,12.264,963.88,338.73,0.05,0.06214,939.75
2.8913,435.13,284.01,17.339,284.1,17.421,7.9188,0.0011007,7.9188,0.0079642,6.883,1.6906,28.61,-80.6,9.7908,0.20265,1.97E-06,0.31235,0.0034649,15582,79.642,11.685,0.026745,191.89,147.71,4.2889,0.83901,47866995,651.8,228.37,0.57779,0.57786,0.22906,0.13722,0.21151,0.031222,0.13413,4.65E-04,0,0,0,0,2.13E-06,0.036378,10.3,83.323,88.027,0.0055279,NaN,12.172,962.22,338.67,0.05,0.062906,948.24
2.9413,449.35,284.88,5.3022,284.97,5.398,8.2649,0.0011476,8.2649,0.0079553,6.9615,1.0125,28.61,-80.6,9.7908,0.13812,2.16E-06,1.4667,0.0049445,15562,59.824,11.672,0.026731,192.14,147.61,4.3231,0.84171,47958127,464.99,229.68,0.57842,0.57846,0.22888,0.13744,0.2121,0.021199,0.091845,4.75E-04,0,0,0,0,4.66E-05,0.036489,10.3,83.323,88.073,0.010748,NaN,12.079,960.55,338.62,0.05,0.063668,952.69
2.9913,463.6,285.15,-6.6915,285.23,6.6972,8.6141,0.0011975,8.6141,0.0079648,7.0036,0.27648,28.61,-80.6,9.7908,0.054736,2.17E-06,2.1167,0.011697,15543,40.007,11.659,0.026717,192.45,147.51,4.3625,0.84263,47947054,278.18,229.86,0.57867,0.57867,0.22885,0.13751,0.2123,0.008356,0.036642,-4.63E-04,0,0,0,0,9.69E-05,0.036523,10.3,83.323,88.165,0.01455,NaN,11.987,958.88,338.56,0.05,0.064584,953.13
3.0413,477.85,284.81,-16.973,284.9,16.981,8.9644,0.0012514,8.9644,0.0079982,7.0055,0.52514,28.61,-80.6,9.7907,0.06984,2.21E-06,-2.0784,0.0096585,15523,20.189,11.646,0.026703,192.38,147.41,4.3664,0.8418,47835941,117.3,228.95,0.57853,0.57854,0.22896,0.13744,0.21212,0.010671,0.046299,-4.26E-05,0,0,0,0,-9.36E-05,0.03648,10.3,83.323,88.273,0.017611,NaN,11.894,957.21,338.51,0.05,0.065616,949.56
3.0913,492.07,283.97,-20.975,284.05,20.998,9.3139,0.0013093,9.3139,0.0080541,6.9697,0.99156,28.61,-80.6,9.7907,0.16304,2.07E-06,-1.2728,0.0034749,15509,6.1511,11.636,0.026694,192.03,147.34,4.3392,0.83944,47638674,53.317,227.11,0.57806,0.57811,0.2292,0.13725,0.21161,0.025056,0.10842,4.97E-04,0,0,0,0,-3.53E-05,0.036372,10.3,83.323,88.36,0.01605,NaN,11.802,955.54,338.45,0.05,0.066357,942.59
3.1413,506.24,282.92,-23.873,283.01,23.907,9.661,0.0013704,9.661,0.0081274,6.9143,1.2779,28.61,-80.6,9.7906,0.21849,2.10E-06,0.011729,0.0034202,15504,1.3358,11.633,0.02669,191.81,147.31,4.3201,0.8365,47410553,6.1355,224.91,0.57746,0.57755,0.22948,0.13702,0.21097,0.033687,0.14594,-1.96E-04,0,0,0,0,0,0.036238,10.3,83.323,88.393,0.012188,NaN,11.709,953.91,338.39,0.05,0.067061,934.37
3.1913,520.36,281.73,-24.114,281.82,24.142,10.005,0.0014334,10.005,0.0082084,6.8522,1.1668,28.61,-80.6,9.7906,0.18804,1.70E-06,1.3892,0.0024724,15503,0.3248,11.632,0.026689,191.89,147.31,4.3282,0.83312,4.72E+07,0,222.46,0.57677,0.57684,0.22979,0.13675,0.21023,0.028924,0.12539,4.58E-04,0,0,0,0,4.28E-05,0.036085,10.3,83.323,88.357,0.0066503,NaN,11.618,952.33,338.34,0.05,0.067951,925.28
3.2413,534.42,280.53,-23.966,280.61,23.978,10.346,0.001497,10.346,0.00829,6.8035,0.7506,28.61,-80.6,9.7905,0.075658,2.03E-06,2.2732,0.0020635,15503,0,11.632,0.026689,192.26,147.31,4.3643,0.82969,46908352,0,219.98,0.57608,0.57609,0.23011,0.13648,0.20949,0.011549,0.050673,3.80E-04,0,0,0,0,1.15E-04,0.035931,10.3,83.323,88.262,0.0058785,NaN,11.526,950.76,338.28,0.05,0.068668,916.18
3.2913,548.41,279.34,-23.823,279.42,23.825,10.686,0.0015609,10.686,0.0083694,6.7768,0.32733,28.61,-80.6,9.7905,0.043967,2.06E-06,-2.3644,0.0018194,15503,0,11.632,0.026689,192.34,147.31,4.3725,0.8263,46658462,0,217.56,0.5754,0.5754,0.23042,0.13621,0.20876,0.0066949,0.029493,-3.48E-04,0,0,0,0,-1.26E-04,0.035778,10.3,83.323,88.143,0.0080508,NaN,11.435,949.2,338.23,0.05,0.069512,907.19
3.3413,562.35,278.15,-23.683,278.23,23.683,11.025,0.0016258,11.025,0.0084496,6.7704,0.056123,28.61,-80.6,9.7904,0.15323,2.09E-06,-1.7264,9.98E-04,15503,0,11.632,0.026689,191.93,147.31,4.3319,0.82291,4.64E+07,0,215.19,0.57472,0.57476,0.23074,0.13595,0.20803,0.02349,0.1019,-7.14E-06,0,0,0,0,-6.77E-05,0.035626,10.3,83.323,88.038,0.010482,NaN,11.345,947.64,338.17,0.05,0.070243,898.31
3.3913,576.23,276.97,-23.541,277.05,23.543,11.363,0.0016925,11.363,0.0085341,6.78,0.2918,28.61,-80.6,9.7904,0.22053,2.40E-06,-0.52569,0.0016548,15503,0,11.632,0.026689,191.66,147.31,4.3061,0.81955,46163615,0,212.85,0.57405,0.57414,0.23105,0.13569,0.20732,0.033943,0.14608,4.23E-04,0,0,0,0,-6.34E-06,0.035475,10.3,83.323,87.98,0.013673,NaN,11.255,946.09,338.12,0.05,0.070936,889.53
3.4413,590.05,275.8,-23.389,275.88,23.39,11.703,0.0017619,11.703,0.0086262,6.7942,0.23219,28.61,-80.6,9.7904,0.2046,1.92E-06,0.83397,0.0011225,15503,0,11.632,0.026689,191.69,147.31,4.3088,0.81621,45919220,0,210.53,0.5734,0.57347,0.23136,0.13543,0.20661,0.031447,0.13596,-1.16E-04,0,0,0,0,1.61E-05,0.035325,10.3,83.323,87.988,0.014435,NaN,11.165,944.55,338.06,0.05,0.071769,880.86
3.4913,603.81,274.63,-23.229,274.71,23.229,12.042,0.001834,12.042,0.0087259,6.7985,0.090706,28.61,-80.6,9.7903,0.1117,1.50E-06,1.8325,0.0028813,15503,0,11.632,0.026689,191.99,147.31,4.338,0.8129,45677096,0,208.23,0.57275,0.57277,0.23167,0.13517,0.20591,0.017058,0.07345,-1.67E-04,0,0,0,0,7.83E-05,0.035176,10.3,83.323,88.057,0.015169,NaN,11.075,943.01,338.01,0.05,0.072461,872.28
3.5413,617.51,273.47,-23.071,273.56,23.075,12.382,0.0019088,12.382,0.0088324,6.7851,0.44319,28.61,-80.6,9.7903,0.0052159,1.40E-06,2.1829,0.076151,15503,0,11.632,0.026689,192.34,147.31,4.3724,0.80961,45436337,0,205.97,0.57211,0.57211,0.23198,0.13492,0.20521,7.91E-04,0.0034053,7.88E-05,0,0,0,0,1.12E-04,0.035028,10.3,83.323,88.16,0.015549,NaN,10.986,941.48,337.96,0.05,0.073206,863.82
3.5913,631.15,272.32,-22.919,272.41,22.931,12.721,0.0019859,12.721,0.0089449,6.7548,0.75776,28.61,-80.6,9.7902,0.092755,1.44E-06,-1.9124,0.0047681,15503,0,11.632,0.026689,192,147.31,4.3393,0.80633,45197157,0,203.76,0.57148,0.57149,0.23229,0.13467,0.20452,0.014138,0.06147,3.86E-04,0,0,0,0,-8.67E-05,0.034881,10.3,83.323,88.265,0.015707,NaN,10.897,939.96,337.9,0.05,0.073988,855.45
3.6413,644.74,271.18,-22.772,271.26,22.792,13.057,0.0020652,13.057,0.0090621,6.7113,0.95652,28.61,-80.6,9.7902,0.15671,1.76E-06,-1.1491,0.0016243,15503,0,11.632,0.026689,191.75,147.31,4.3146,0.80307,4.50E+07,0,201.57,0.57086,0.5709,0.2326,0.13442,0.20384,0.023977,0.10308,-3.96E-04,0,0,0,0,-3.16E-05,0.034734,10.3,83.323,88.343,0.014232,NaN,10.809,938.44,337.85,0.05,0.074749,847.18
3.6913,658.27,270.05,-22.63,270.13,22.657,13.392,0.0021459,13.392,0.0091811,6.6592,1.1161,28.61,-80.6,9.7902,0.20714,1.70E-06,-0.071018,0.0020359,15503,0,11.632,0.026689,191.54,147.31,4.2948,0.79984,44724568,0,199.43,0.57024,0.57032,0.2329,0.13417,0.20317,0.031786,0.13646,3.61E-04,0,0,0,0,-1.22E-07,0.034589,10.3,83.323,88.375,0.011745,NaN,10.721,936.93,337.8,0.05,0.075507,839
3.7413,671.75,268.92,-22.493,269,22.519,13.723,0.0022275,13.723,0.0093,6.6034,1.08,28.61,-80.6,9.7901,0.19822,2.13E-06,1.139,0.0015125,15503,0,11.632,0.026689,191.55,147.31,4.2953,0.79663,44491224,0,197.3,0.56964,0.56971,0.23321,0.13393,0.2025,0.030389,0.13082,-4.35E-04,0,0,0,0,3.15E-05,0.034444,10.3,83.323,88.348,0.0090489,NaN,10.634,935.42,337.74,0.05,0.076544,830.92
3.7913,685.16,267.8,-22.362,267.88,22.379,14.052,0.0023092,14.052,0.0094156,6.5541,0.87042,28.61,-80.6,9.7901,0.13476,2.25E-06,2.1169,0.0041105,15503,0,11.632,0.026689,191.75,147.31,4.3145,0.79345,4.43E+07,0,195.19,0.56904,0.56907,0.23351,0.13369,0.20184,0.020569,0.088605,2.60E-04,0,0,0,0,1.10E-04,0.0343,10.3,83.323,88.265,0.0060441,NaN,10.546,933.92,337.69,0.05,0.077212,822.94
3.8413,698.53,266.68,-22.242,266.76,22.245,14.379,0.0023907,14.379,0.0095261,6.5215,0.40435,28.61,-80.6,9.79,0.0098887,2.29E-06,-2.4988,0.040561,15503,0,11.632,0.026689,192.17,147.31,4.3553,0.79025,44028311,0,193.1,0.56845,0.56845,0.23381,0.13345,0.20119,0.0014965,0.0065823,-4.13E-04,0,0,0,0,-1.54E-04,0.034158,10.3,83.323,88.146,0.0059833,NaN,10.46,932.43,337.64,0.05,0.077951,815.04
3.8913,711.83,265.57,-22.122,265.65,22.122,14.705,0.0024719,14.705,0.0096317,6.5104,0.073787,28.61,-80.6,9.79,0.11629,2.33E-06,-2.1124,0.0045971,15503,0,11.632,0.026689,191.76,147.31,4.3159,0.78709,4.38E+07,0,191.07,0.56786,0.56789,0.23411,0.13322,0.20054,0.017716,0.07644,-1.27E-04,0,0,0,0,-1.11E-04,0.034016,10.3,83.323,88.028,0.010605,NaN,10.373,930.94,337.58,0.05,0.078651,807.24
3.9413,725.08,264.47,-21.999,264.55,21.999,15.03,0.0025543,15.03,0.0097371,6.5114,0.08946,28.61,-80.6,9.7899,0.17094,2.28E-06,-1.2876,0.0013301,15503,0,11.632,0.026689,191.54,147.31,4.2947,0.78396,43572716,0,189.06,0.56729,0.56734,0.23441,0.13298,0.1999,0.026126,0.11207,1.25E-04,0,0,0,0,-4.17E-05,0.033874,10.3,83.323,87.942,0.015541,NaN,10.287,929.46,337.53,0.05,0.079384,799.52
3.9913,738.28,263.37,-21.876,263.45,21.877,15.356,0.002639,15.356,0.0098467,6.5195,0.22567,28.61,-80.6,9.7899,0.21497,2.22E-06,-0.21398,0.0032852,15503,0,11.632,0.026689,191.36,147.31,4.2773,0.78083,43346530,0,187.08,0.56672,0.5668,0.23471,0.13275,0.19926,0.032938,0.14076,4.44E-04,0,0,0,0,-1.16E-06,0.033734,10.3,83.323,87.904,0.019585,NaN,10.201,927.99,337.48,0.05,0.080068,791.89
4.0413,751.42,262.28,-21.747,262.36,21.748,15.682,0.0027272,15.682,0.009964,6.5308,0.1921,28.61,-80.6,9.7899,0.20414,2.42E-06,0.96057,0.0020729,15503,0,11.632,0.026689,191.38,147.31,4.2786,0.77771,43121822,0,185.11,0.56616,0.56623,0.235,0.13252,0.19863,0.031248,0.13413,1.26E-04,0,0,0,0,2.36E-05,0.033595,10.3,83.323,87.923,0.021857,NaN,10.116,926.52,337.43,0.05,0.080759,784.34
4.0913,764.51,261.2,-21.612,261.28,21.612,16.009,0.0028193,16.009,0.01009,6.5355,0.027818,28.61,-80.6,9.7898,0.13176,2.23E-06,1.8915,0.0036873,15503,0,11.632,0.026689,191.61,147.31,4.301,0.77461,42898892,0,183.15,0.5656,0.56563,0.2353,0.1323,0.198,0.020067,0.086405,4.69E-04,0,0,0,0,9.22E-05,0.033456,10.3,83.323,87.996,0.021652,NaN,10.031,925.06,337.38,0.05,0.081455,776.88
4.1413,777.54,260.12,-21.478,260.2,21.48,16.335,0.0029147,16.335,0.010223,6.527,0.31529,28.61,-80.6,9.7898,0.033531,2.14E-06,2.3377,0.0061477,15503,0,11.632,0.026689,191.93,147.31,4.3326,0.77153,42677351,0,181.23,0.56505,0.56505,0.2356,0.13207,0.19738,0.0050724,0.021494,-4.35E-04,0,0,0,0,1.42E-04,0.033318,10.3,83.323,88.104,0.017814,NaN,9.946,923.6,337.33,0.05,0.082218,769.51
4.1913,790.52,259.05,-21.345,259.13,21.355,16.661,0.0030123,16.661,0.010359,6.5024,0.67237,28.61,-80.6,9.7897,0.089979,2.15E-06,-2.192,0.002639,15503,0,11.632,0.026689,191.71,147.31,4.3107,0.76848,42457825,0,179.34,0.56451,0.56453,0.23589,0.13185,0.19677,0.013658,0.059133,-4.13E-04,0,0,0,0,-1.26E-04,0.033181,10.3,83.323,88.219,0.011306,NaN,9.8616,922.15,337.28,0.05,0.082972,762.22
4.2413,803.45,257.99,-21.219,258.07,21.238,16.985,0.0031101,16.985,0.010491,6.4621,0.91202,28.61,-80.6,9.7897,0.17504,2.38E-06,-1.4747,9.28E-04,15503,0,11.632,0.026689,191.38,147.31,4.2792,0.76543,42239467,0,177.49,0.56398,0.56403,0.23618,0.13163,0.19616,0.026709,0.11435,3.40E-04,0,0,0,0,-5.75E-05,0.033044,10.3,83.323,88.313,0.0042008,NaN,9.7776,920.71,337.22,0.05,0.083729,755.01
4.2913,816.32,256.93,-21.098,257.01,21.121,17.307,0.0032067,17.307,0.010616,6.4139,0.99112,28.61,-80.6,9.7897,0.20648,2.05E-06,-0.46355,4.91E-04,15503,0,11.632,0.026689,191.25,147.31,4.2662,0.7624,42022388,0,175.65,0.56345,0.56352,0.23648,0.13141,0.19556,0.031562,0.1349,1.03E-04,0,0,0,0,-5.72E-06,0.032909,10.3,83.323,88.362,1.01E-04,NaN,9.6939,919.27,337.17,0.05,0.084422,747.88
4.3413,829.14,255.88,-20.981,255.95,21.005,17.627,0.0033012,17.627,0.010731,6.3637,1.003,28.61,-80.6,9.7896,0.21322,2.50E-06,0.62396,-6.09E-04,15503,0,11.632,0.026689,191.2,147.31,4.2616,0.7594,41807435,0,173.84,0.56293,0.56301,0.23677,0.1312,0.19497,0.032597,0.13938,2.82E-05,0,0,0,0,1.05E-05,0.032774,10.3,83.323,88.358,3.23E-06,NaN,9.6106,917.84,337.12,0.05,0.086157,740.82
4.3913,841.91,254.83,-20.87,254.91,20.885,17.944,0.0033937,17.944,0.010836,6.3181,0.78822,28.61,-80.6,9.7896,0.14226,2.59E-06,1.5557,-0.0032613,15503,0,11.632,0.026689,191.43,147.31,4.2836,0.7564,41593293,0,172.03,0.56242,0.56245,0.23706,0.13098,0.19438,0.021641,0.092747,-3.89E-04,0,0,0,0,6.55E-05,0.03264,10.3,83.323,88.302,0.0067121,NaN,9.5276,916.41,337.07,0.05,0.086823,733.85
4.4413,854.62,253.79,-20.762,253.87,20.769,18.259,0.0034857,18.259,0.010938,6.285,0.53441,28.61,-80.6,9.7896,0.053786,2.65E-06,2.0517,-0.01239,15503,0,11.632,0.026689,191.72,147.31,4.3119,0.75342,41380951,0,170.25,0.56191,0.56192,0.23735,0.13077,0.19379,0.0081325,0.034915,1.06E-05,0,0,0,0,1.15E-04,0.032507,10.3,83.323,88.21,0.016939,NaN,9.445,914.99,337.02,0.05,0.087756,726.95
4.4913,867.29,252.75,-20.66,252.83,20.661,18.573,0.0035793,18.573,0.011042,6.2668,0.18478,28.61,-80.6,9.7895,0.070657,2.66E-06,-2.0178,-0.0075818,15503,0,11.632,0.026689,191.64,147.31,4.3039,0.75045,41169389,0,168.5,0.56141,0.56142,0.23763,0.13056,0.19321,0.010692,0.046278,2.34E-04,0,0,0,0,-1.12E-04,0.032374,10.3,83.323,88.106,0.027001,NaN,9.3626,913.57,336.97,0.05,0.088448,720.12
4.5413,879.9,251.72,-20.557,251.8,20.557,18.886,0.0036768,18.886,0.011155,6.2638,0.034474,28.61,-80.6,9.7895,0.15055,2.62E-06,-1.4486,-0.0051599,15503,0,11.632,0.026689,191.33,147.31,4.2742,0.7475,4.10E+07,0,166.78,0.56091,0.56095,0.23792,0.13035,0.19264,0.022895,0.097987,4.55E-04,0,0,0,0,-5.82E-05,0.032242,10.3,83.323,88.017,0.030513,NaN,9.2807,912.16,336.92,0.05,0.089274,713.37
4.5913,892.46,250.7,-20.45,250.78,20.45,19.199,0.0037791,19.199,0.011278,6.2673,0.082202,28.61,-80.6,9.7894,0.17037,2.67E-06,-0.64366,-0.0028457,15503,0,11.632,0.026689,191.24,147.31,4.2653,0.74458,40752050,0,165.09,0.56043,0.56048,0.23821,0.13015,0.19207,0.025936,0.1107,-1.73E-05,0,0,0,0,-1.16E-05,0.032111,10.3,83.323,87.965,0.028815,NaN,9.199,910.76,336.87,0.05,0.090007,706.69
4.6413,904.97,249.68,-20.342,249.76,20.342,19.513,0.003886,19.513,0.011411,6.2719,0.093227,28.61,-80.6,9.7894,0.17516,2.60E-06,0.19498,-0.0017968,15503,0,11.632,0.026689,191.2,147.31,4.2616,0.74167,40545052,0,163.4,0.55995,0.56,0.23849,0.12995,0.19151,0.026665,0.11339,-3.36E-04,0,0,0,0,1.07E-06,0.03198,10.3,83.323,87.954,0.026046,NaN,9.1177,909.36,336.82,0.05,0.090736,700.09
4.6913,917.43,248.66,-20.23,248.74,20.23,19.826,0.0039967,19.826,0.01155,6.2744,0.012521,28.61,-80.6,9.7894,0.13663,2.41E-06,0.95586,-0.0021086,15503,0,11.632,0.026689,191.32,147.31,4.2727,0.73876,40339460,0,161.73,0.55947,0.5595,0.23878,0.12974,0.19095,0.020742,0.08894,-2.82E-04,0,0,0,0,2.60E-05,0.031851,10.3,83.323,87.983,0.021782,NaN,9.0367,907.97,336.78,0.05,0.091446,693.55
4.7413,929.83,247.65,-20.12,247.73,20.12,20.14,0.0041098,20.14,0.011692,6.2713,0.10886,28.61,-80.6,9.7893,0.098401,2.55E-06,1.5123,-0.0025709,15503,0,11.632,0.026689,191.43,147.31,4.2837,0.73586,40134463,0,160.08,0.559,0.55902,0.23906,0.12954,0.19039,0.014897,0.064068,2.89E-04,0,0,0,0,6.56E-05,0.031721,10.3,83.323,88.046,0.017359,NaN,8.9561,906.59,336.73,0.05,0.092214,687.08
4.7913,942.19,246.65,-20.007,246.73,20.01,20.453,0.0042242,20.453,0.011833,6.2605,0.33845,28.61,-80.6,9.7893,0.0097132,2.65E-06,1.7814,-0.028874,15503,0,11.632,0.026689,191.73,147.31,4.3124,0.73299,39931481,0,158.46,0.55854,0.55854,0.23934,0.12934,0.18985,0.0014615,0.0065518,2.33E-04,0,0,0,0,9.17E-05,0.031593,10.3,83.323,88.13,0.012143,NaN,8.8758,905.2,336.68,0.05,0.093278,680.69
4.8413,954.5,245.65,-19.897,245.73,19.904,20.766,0.0043387,20.766,0.011971,6.2387,0.52272,28.61,-80.6,9.7892,0.064489,2.60E-06,-1.644,-0.0053223,15503,0,11.632,0.026689,191.51,147.31,4.2914,0.73013,39729453,0,156.85,0.55808,0.55808,0.23963,0.12915,0.1893,0.0097357,0.042099,-9.74E-05,0,0,0,0,-7.88E-05,0.031465,10.3,83.323,88.217,0.0070019,NaN,8.7958,903.83,336.63,0.05,0.094608,674.36
4.8913,966.76,244.66,-19.791,244.74,19.803,21.077,0.0044521,21.077,0.012103,6.2088,0.66517,28.61,-80.6,9.7892,0.12309,2.63E-06,-1.2073,-0.0022822,15503,0,11.632,0.026689,191.28,147.31,4.2691,0.72728,39528723,0,155.27,0.55762,0.55765,0.23991,0.12895,0.18876,0.018649,0.080109,-4.83E-05,0,0,0,0,-4.28E-05,0.031338,10.3,83.323,88.289,0.0037138,NaN,8.7161,902.46,336.58,0.05,0.095941,668.1
4.9413,978.96,243.67,-19.688,243.75,19.703,21.387,0.0045638,21.387,0.012227,6.1724,0.78356,28.61,-80.6,9.7892,0.17167,2.54E-06,-0.52964,-3.37E-04,15503,0,11.632,0.026689,191.09,147.31,4.2505,0.72445,3.93E+07,0,153.72,0.55718,0.55723,0.24019,0.12876,0.18823,0.026085,0.11117,4.38E-04,0,0,0,0,-8.31E-06,0.031212,10.3,83.323,88.333,0.0014737,NaN,8.6367,901.1,336.53,0.05,0.097106,661.9
4.9913,991.12,242.69,-19.588,242.77,19.604,21.694,0.0046734,21.694,0.012343,6.1325,0.79202,28.61,-80.6,9.7891,0.17795,2.71E-06,0.27291,-5.18E-04,15503,0,11.632,0.026689,191.05,147.31,4.2464,0.72163,39131791,0,152.17,0.55674,0.55679,0.24047,0.12857,0.1877,0.027043,0.11469,-2.72E-04,0,0,0,0,2.22E-06,0.031086,10.3,83.323,88.34,0.0017959,NaN,8.5577,899.74,336.48,0.05,0.098196,655.77
5.0413,1003.2,241.72,-19.491,241.79,19.505,22,0.0047809,22,0.012451,6.0941,0.73496,28.61,-80.6,9.7891,0.15737,2.63E-06,1.0296,-0.0013715,15503,0,11.632,0.026689,191.1,147.31,4.2515,0.71883,38936155,0,150.65,0.5563,0.55634,0.24075,0.12838,0.18717,0.023877,0.10101,-1.04E-05,0,0,0,0,3.19E-05,0.030961,10.3,83.323,88.307,0.0056917,NaN,8.479,898.4,336.44,0.05,0.099394,649.71
5.0913,1015.3,240.74,-19.398,240.82,19.407,22.304,0.0048873,22.304,0.012555,6.0609,0.57794,28.61,-80.6,9.7891,0.096275,2.51E-06,1.6017,-0.0041491,15503,0,11.632,0.026689,191.29,147.31,4.2705,0.71604,38743602,0,149.15,0.55587,0.55589,0.24102,0.12819,0.18665,0.014546,0.062385,2.74E-04,0,0,0,0,7.78E-05,0.030836,10.3,83.323,88.24,0.013178,NaN,8.4006,897.12,336.39,0.05,0.10059,643.75
5.1413,1027.3,239.78,-19.31,239.85,19.313,22.606,0.0049939,22.606,0.012657,6.0382,0.31914,28.61,-80.6,9.789,0.0072183,2.45E-06,-1.8054,-0.037582,15503,0,11.632,0.026689,191.59,147.31,4.2995,0.71326,38551687,0,147.66,0.55544,0.55544,0.2413,0.12801,0.18614,0.0010839,0.0043869,4.79E-04,0,0,0,0,-9.97E-05,0.030712,10.3,83.323,88.153,0.021199,NaN,8.3225,895.84,336.34,0.05,0.10184,637.86
5.1913,1039.3,238.81,-19.222,238.89,19.223,22.908,0.0051024,22.908,0.012762,6.027,0.14785,28.61,-80.6,9.789,0.078451,2.45E-06,-1.6039,-0.0051117,15503,0,11.632,0.026689,191.32,147.31,4.2729,0.7105,38361557,0,146.2,0.55502,0.55503,0.24157,0.12782,0.18563,0.011833,0.050399,-3.11E-04,0,0,0,0,-7.93E-05,0.030589,10.3,83.323,88.066,0.025139,NaN,8.2447,894.57,336.3,0.05,0.10307,632.02
5.2413,1051.2,237.85,-19.134,237.93,19.134,23.209,0.0052136,23.209,0.012871,6.0231,0.011755,28.61,-80.6,9.7889,0.13553,2.41E-06,-1.1408,-0.002878,15503,0,11.632,0.026689,191.1,147.31,4.2514,0.70775,38172465,0,144.76,0.5546,0.55464,0.24184,0.12764,0.18512,0.020514,0.087232,-3.19E-04,0,0,0,0,-4.04E-05,0.030466,10.3,83.323,87.997,0.025783,NaN,8.1673,893.3,336.25,0.05,0.10425,626.24
5.2913,1063.1,236.9,-19.045,236.98,19.046,23.51,0.0053278,23.51,0.012984,6.0249,0.072629,28.61,-80.6,9.7889,0.17115,2.22E-06,-0.48075,-0.0013971,15503,0,11.632,0.026689,190.95,147.31,4.2373,0.70501,37984313,0,143.34,0.55419,0.55424,0.24212,0.12746,0.18462,0.025959,0.11047,-3.93E-04,0,0,0,0,-7.24E-06,0.030344,10.3,83.323,87.956,0.025248,NaN,8.0901,892.04,336.2,0.05,0.10545,620.52
5.3413,1074.9,235.95,-18.954,236.03,18.955,23.811,0.0054447,23.811,0.013101,6.029,0.074699,28.61,-80.6,9.7889,0.1726,1.98E-06,0.2521,-0.0013686,15503,0,11.632,0.026689,190.93,147.31,4.235,0.70228,37797237,0,141.93,0.55379,0.55384,0.24239,0.12728,0.18412,0.026175,0.11105,1.18E-04,0,0,0,0,2.01E-06,0.030222,10.3,83.323,87.95,0.024087,NaN,8.0133,890.78,336.15,0.05,0.10657,614.86
5.3913,1086.7,235,-18.861,235.08,18.861,24.113,0.005564,24.113,0.013221,6.0309,0.010234,28.61,-80.6,9.7888,0.1371,2.15E-06,0.90684,-0.0012124,15503,0,11.632,0.026689,191.03,147.31,4.2453,0.69957,37611316,0,140.53,0.55339,0.55342,0.24266,0.1271,0.18362,0.020738,0.088432,4.61E-04,0,0,0,0,2.62E-05,0.030101,10.3,83.323,87.98,0.021579,NaN,7.9368,889.53,336.11,0.05,0.10775,609.25
5.4413,1098.4,234.06,-18.764,234.14,18.766,24.414,0.0056852,24.414,0.013342,6.0258,0.2066,28.61,-80.6,9.7888,0.053655,2.12E-06,1.3123,-0.0048275,15503,0,11.632,0.026689,191.31,147.31,4.2723,0.69687,37426980,0,139.15,0.55299,0.553,0.24293,0.12693,0.18313,0.0080695,0.034864,3.10E-04,0,0,0,0,5.53E-05,0.029981,10.3,83.323,88.037,0.016737,NaN,7.8605,888.28,336.06,0.05,0.10889,603.7
5.4913,1110.1,233.13,-18.671,233.2,18.675,24.715,0.005807,24.715,0.013462,6.0117,0.34583,28.61,-80.6,9.7888,0.0091858,2.13E-06,-1.394,-0.036209,15503,0,11.632,0.026689,191.45,147.31,4.2859,0.69418,37243075,0,137.78,0.5526,0.5526,0.2432,0.12675,0.18265,0.0013771,0.0063463,3.52E-04,0,0,0,0,-6.29E-05,0.029861,10.3,83.323,88.105,0.0098872,NaN,7.7846,887.04,336.02,0.05,0.10999,598.21
5.5413,1121.7,232.2,-18.58,232.27,18.586,25.015,0.0059282,25.015,0.013578,5.9905,0.50539,28.61,-80.6,9.7887,0.081232,2.11E-06,-1.2128,-0.0038448,15503,0,11.632,0.026689,191.18,147.31,4.2592,0.6915,37060530,0,136.44,0.55221,0.55223,0.24347,0.12658,0.18216,0.012233,0.052154,-1.03E-04,0,0,0,0,-4.80E-05,0.029742,10.3,83.323,88.172,0.0037553,NaN,7.709,885.8,335.97,0.05,0.11102,592.77
5.5913,1133.3,231.27,-18.492,231.35,18.5,25.314,0.0060476,25.314,0.013688,5.9633,0.5662,28.61,-80.6,9.7887,0.11183,2.09E-06,-0.81065,-0.0040081,15503,0,11.632,0.026689,191.05,147.31,4.2469,0.68883,36878512,0,135.1,0.55183,0.55185,0.24374,0.12641,0.18168,0.016872,0.071272,3.81E-05,0,0,0,0,-2.16E-05,0.029623,10.3,83.323,88.223,0.0015387,NaN,7.6337,884.57,335.92,0.05,0.11206,587.39
5.6413,1144.8,230.35,-18.405,230.42,18.416,25.612,0.0061648,25.612,0.013791,5.9331,0.64392,28.61,-80.6,9.7887,0.14842,2.24E-06,-0.29609,-0.0029195,15503,0,11.632,0.026689,190.9,147.31,4.2327,0.68618,36698172,0,133.79,0.55146,0.55149,0.24401,0.12624,0.18121,0.022441,0.094802,1.18E-04,0,0,0,0,-2.91E-06,0.029505,10.3,83.323,88.251,0.0029931,NaN,7.5587,883.34,335.88,0.05,0.11307,582.06
5.6913,1156.3,229.43,-18.318,229.5,18.334,25.907,0.0062803,25.907,0.013889,5.8976,0.77697,28.61,-80.6,9.7886,0.20682,2.28E-06,0.39919,-0.0025835,15503,0,11.632,0.026689,190.68,147.31,4.2111,0.68356,3.65E+07,0,132.51,0.55109,0.55116,0.24427,0.12607,0.18074,0.031383,0.13181,-4.65E-04,0,0,0,0,5.32E-06,0.029387,10.3,83.323,88.249,0.0076376,NaN,7.484,882.12,335.83,0.05,0.11417,576.78
5.7413,1167.8,228.51,-18.237,228.59,18.25,26.201,0.0063946,26.201,0.013983,5.8606,0.66421,28.61,-80.6,9.7886,0.15952,2.30E-06,1.1417,-0.004292,15503,0,11.632,0.026689,190.83,147.31,4.2255,0.68093,36341390,0,131.21,0.55072,0.55076,0.24454,0.1259,0.18028,0.024126,0.10215,1.54E-04,0,0,0,0,4.39E-05,0.02927,10.3,83.323,88.21,0.013783,NaN,7.4095,880.9,335.79,0.05,0.11525,571.56
5.7913,1179.2,227.6,-18.162,227.68,18.167,26.494,0.006509,26.494,0.014077,5.8332,0.42225,28.61,-80.6,9.7886,0.053038,2.36E-06,1.5609,-0.0088011,15503,0,11.632,0.026689,191.19,147.31,4.2604,0.67829,36163141,0,129.92,0.55036,0.55036,0.24481,0.12574,0.17981,0.0079633,0.033752,-1.70E-04,0,0,0,0,8.27E-05,0.029154,10.3,83.323,88.141,0.021502,NaN,7.3354,879.69,335.74,0.05,0.11628,566.38
5.8413,1190.5,226.7,-18.085,226.77,18.087,26.785,0.0066248,26.785,0.014171,5.816,0.28039,28.61,-80.6,9.7885,0.01311,2.39E-06,-1.6213,-0.03756,15503,0,11.632,0.026689,191.32,147.31,4.2726,0.67568,35986951,0,128.66,0.55,0.55,0.24507,0.12557,0.17935,0.0019627,0.0082306,-1.62E-04,0,0,0,0,-8.99E-05,0.029038,10.3,83.323,88.06,0.027271,NaN,7.2616,878.48,335.7,0.05,0.11729,561.26
5.8913,1201.8,225.8,-18.009,225.87,18.01,27.075,0.0067431,27.075,0.01427,5.8049,0.16739,28.61,-80.6,9.7885,0.067245,2.37E-06,-1.4678,-0.0069959,15503,0,11.632,0.026689,191.11,147.31,4.2522,0.67309,35811923,0,127.42,0.54965,0.54965,0.24534,0.12541,0.1789,0.010101,0.042931,2.05E-04,0,0,0,0,-7.43E-05,0.028922,10.3,83.323,87.982,0.031454,NaN,7.1881,877.28,335.65,0.05,0.1183,556.18
5.9413,1213.1,224.9,-17.932,224.97,17.933,27.365,0.0068648,27.365,0.014373,5.7983,0.10706,28.61,-80.6,9.7884,0.097712,2.43E-06,-1.1514,-0.0054727,15503,0,11.632,0.026689,190.98,147.31,4.2401,0.67052,35638099,0,126.2,0.5493,0.54932,0.2456,0.12525,0.17845,0.014705,0.062206,2.26E-04,0,0,0,0,-4.61E-05,0.028807,10.3,83.323,87.916,0.034594,NaN,7.1148,876.08,335.61,0.05,0.11943,551.16
5.9913,1224.3,224,-17.855,224.08,17.856,27.655,0.0069905,27.655,0.014483,5.7938,0.075843,28.61,-80.6,9.7884,0.11435,2.35E-06,-0.75427,-0.0057125,15503,0,11.632,0.026689,190.91,147.31,4.2328,0.66795,35465149,0,124.99,0.54896,0.54898,0.24587,0.12509,0.178,0.017223,0.072439,-3.17E-04,0,0,0,0,-1.99E-05,0.028692,10.3,83.323,87.868,0.034002,NaN,7.0419,874.88,335.57,0.05,0.12045,546.18
6.0413,1235.5,223.11,-17.778,223.19,17.778,27.945,0.0071201,27.945,0.014598,5.7902,0.074335,28.61,-80.6,9.7884,0.11643,2.33E-06,-0.32713,-0.0041972,15503,0,11.632,0.026689,190.88,147.31,4.2305,0.66539,35293022,0,123.79,0.54862,0.54864,0.24613,0.12493,0.17756,0.017536,0.073929,-4.70E-04,0,0,0,0,-3.78E-06,0.028578,10.3,83.323,87.841,0.030688,NaN,6.9692,873.69,335.52,0.05,0.12163,541.25
6.0913,1246.6,222.23,-17.701,222.3,17.701,28.234,0.0072529,28.234,0.014718,5.7867,0.068609,28.61,-80.6,9.7883,0.11911,2.27E-06,0.10054,-0.004417,15503,0,11.632,0.026689,190.86,147.31,4.228,0.66284,35121368,0,122.6,0.54828,0.5483,0.24639,0.12477,0.17712,0.017938,0.07592,7.56E-05,0,0,0,0,3.60E-07,0.028465,10.3,83.323,87.835,0.025999,NaN,6.8969,872.51,335.48,0.05,0.12272,536.37
6.1413,1257.7,221.34,-17.625,221.42,17.625,28.524,0.0073879,28.524,0.01484,5.7832,0.076053,28.61,-80.6,9.7883,0.1144,2.33E-06,0.52343,-0.0039152,15503,0,11.632,0.026689,190.86,147.31,4.2281,0.66028,3.50E+07,0,121.41,0.54795,0.54797,0.24666,0.12461,0.17668,0.01722,0.072625,-8.46E-05,0,0,0,0,9.83E-06,0.028352,10.3,83.323,87.851,0.019903,NaN,6.8248,871.33,335.43,0.05,0.12361,531.53
6.1913,1268.8,220.46,-17.546,220.54,17.546,28.813,0.0075239,28.813,0.014962,5.7774,0.16838,28.61,-80.6,9.7883,0.068706,2.35E-06,0.86063,-0.0070428,15503,0,11.632,0.026689,191,147.31,4.2423,0.65775,34780762,0,120.25,0.54762,0.54763,0.24692,0.12446,0.17624,0.010308,0.043803,1.53E-04,0,0,0,0,2.68E-05,0.028239,10.3,83.323,87.886,0.014424,NaN,6.753,870.16,335.39,0.05,0.12438,526.75
6.2413,1279.8,219.59,-17.466,219.66,17.469,29.101,0.0076599,29.101,0.015081,5.7657,0.30224,28.61,-80.6,9.7882,0.0014187,2.32E-06,0.95424,-0.25221,15503,0,11.632,0.026689,191.23,147.31,4.2641,0.65523,34612343,0,119.09,0.5473,0.5473,0.24718,0.12431,0.17581,2.12E-04,0.0011631,-3.36E-04,0,0,0,0,3.32E-05,0.028127,10.3,83.323,87.934,0.0096559,NaN,6.6815,868.99,335.35,0.05,0.12523,522
6.2913,1290.7,218.72,-17.389,218.79,17.394,29.389,0.0077949,29.389,0.015197,5.7478,0.40632,28.61,-80.6,9.7882,0.05296,2.30E-06,-0.89187,-0.0065695,15503,0,11.632,0.026689,191.03,147.31,4.2447,0.65272,34444580,0,117.96,0.54698,0.54698,0.24744,0.12415,0.17539,0.0079344,0.033812,4.22E-04,0,0,0,0,-2.92E-05,0.028016,10.3,83.323,87.981,0.0079388,NaN,6.6103,867.82,335.3,0.05,0.12611,517.31
6.3413,1301.6,217.85,-17.315,217.92,17.321,29.676,0.0079286,29.676,0.015308,5.7262,0.4483,28.61,-80.6,9.7882,0.07746,2.34E-06,-0.65952,-0.004132,15503,0,11.632,0.026689,190.93,147.31,4.2347,0.65021,34277287,0,116.83,0.54666,0.54667,0.2477,0.124,0.17496,0.011621,0.048819,1.89E-04,0,0,0,0,-1.61E-05,0.027905,10.3,83.323,88.02,0.0087976,NaN,6.5393,866.66,335.26,0.05,0.12687,512.65
6.3913,1312.5,216.98,-17.242,217.06,17.248,29.962,0.0080612,29.962,0.015415,5.7029,0.48201,28.61,-80.6,9.7881,0.097414,2.33E-06,-0.36035,-0.0032264,15503,0,11.632,0.026689,190.84,147.31,4.2264,0.64771,34111096,0,115.71,0.54635,0.54637,0.24796,0.12385,0.17454,0.014632,0.061867,2.22E-05,0,0,0,0,-4.85E-06,0.027794,10.3,83.323,88.046,0.010954,NaN,6.4687,865.5,335.22,0.05,0.12765,508.05
6.4413,1323.3,216.12,-17.17,216.2,17.177,30.246,0.0081931,30.246,0.01552,5.6785,0.48984,28.61,-80.6,9.7881,0.10398,2.32E-06,-0.015594,-0.0018117,15503,0,11.632,0.026689,190.8,147.31,4.2227,0.64522,33945866,0,114.61,0.54605,0.54606,0.24822,0.1237,0.17412,0.015621,0.06548,4.42E-04,0,0,0,0,-9.15E-09,0.027684,10.3,83.323,88.056,0.013687,NaN,6.3983,864.35,335.18,0.05,0.12833,503.48
6.4913,1334.1,215.27,-17.099,215.34,17.107,30.529,0.0083246,30.529,0.015623,5.6535,0.50945,28.61,-80.6,9.7881,0.1153,2.34E-06,0.35244,-0.0022933,15503,0,11.632,0.026689,190.75,147.31,4.2174,0.64275,33781997,0,113.52,0.54574,0.54577,0.24848,0.12355,0.17371,0.017331,0.072759,2.28E-04,0,0,0,0,4.71E-06,0.027574,10.3,83.323,88.047,0.017051,NaN,6.3282,863.2,335.13,0.05,0.12913,498.96
6.5413,1344.9,214.41,-17.033,214.49,17.037,30.812,0.0084564,30.812,0.015725,5.6307,0.3801,28.61,-80.6,9.788,0.051431,2.40E-06,0.64873,-0.003629,15503,0,11.632,0.026689,190.96,147.31,4.2379,0.64027,33617779,0,112.43,0.54544,0.54545,0.24874,0.12341,0.17329,0.0076967,0.032302,1.42E-04,0,0,0,0,1.61E-05,0.027465,10.3,83.323,88.022,0.021202,NaN,6.2583,862.06,335.09,0.05,0.12988,494.48
6.5913,1355.6,213.56,-16.967,213.64,16.969,31.093,0.008589,31.093,0.015827,5.6142,0.29227,28.61,-80.6,9.788,0.0063811,2.39E-06,0.73508,-0.025272,15503,0,11.632,0.026689,191.1,147.31,4.2521,0.63781,33454994,0,111.36,0.54515,0.54515,0.249,0.12326,0.17288,9.52E-04,0.0038452,7.33E-05,0,0,0,0,2.08E-05,0.027356,10.3,83.323,87.986,0.025768,NaN,6.1888,860.92,335.05,0.05,0.13057,490.04
6.6413,1366.2,212.72,-16.9,212.79,16.902,31.373,0.0087232,31.373,0.015931,5.6006,0.25822,28.61,-80.6,9.788,0.012114,2.39E-06,-0.72162,-0.016219,15503,0,11.632,0.026689,191.07,147.31,4.2487,0.63537,33293628,0,110.3,0.54486,0.54486,0.24926,0.12312,0.17248,0.0018074,0.0075547,4.02E-04,0,0,0,0,-2.02E-05,0.027247,10.3,83.323,87.95,0.028747,NaN,6.1195,859.79,335.01,0.05,0.13126,485.65
6.6913,1376.8,211.87,-16.837,211.95,16.837,31.653,0.0088596,31.653,0.016037,5.5906,0.12545,28.61,-80.6,9.7879,0.081492,2.34E-06,-0.58199,-0.0021733,15503,0,11.632,0.026689,190.81,147.31,4.2234,0.63291,33131984,0,109.25,0.54457,0.54458,0.24952,0.12297,0.17208,0.012213,0.051913,-4.20E-04,0,0,0,0,-1.33E-05,0.027139,10.3,83.323,87.916,0.02944,NaN,6.0505,858.66,334.97,0.05,0.13207,481.29
6.7413,1387.4,211.03,-16.77,211.11,16.771,31.932,0.0089981,31.932,0.016145,5.585,0.12136,28.61,-80.6,9.7879,0.084435,2.39E-06,-0.29687,-0.0018637,15503,0,11.632,0.026689,190.78,147.31,4.221,0.63049,32972276,0,108.22,0.54429,0.5443,0.24978,0.12283,0.17168,0.012654,0.053854,2.03E-04,0,0,0,0,-3.48E-06,0.027032,10.3,83.323,87.894,0.028878,NaN,5.9818,857.54,334.92,0.05,0.13281,476.97
6.7913,1397.9,210.2,-16.705,210.27,16.705,32.211,0.0091387,32.211,0.016255,5.5791,0.11273,28.61,-80.6,9.7879,0.088902,2.45E-06,-0.024075,-0.001412,15503,0,11.632,0.026689,190.75,147.31,4.2181,0.62807,32813088,0,107.19,0.54401,0.54402,0.25004,0.12269,0.17128,0.013324,0.056068,1.07E-04,0,0,0,0,-2.31E-08,0.026925,10.3,83.323,87.886,0.027039,NaN,5.9134,856.42,334.88,0.05,0.13371,472.7
6.8413,1408.4,209.36,-16.637,209.44,16.638,32.49,0.0092811,32.49,0.016367,5.5722,0.17431,28.61,-80.6,9.7878,0.055534,2.47E-06,0.21243,-2.60E-04,15503,0,11.632,0.026689,190.86,147.31,4.2283,0.62566,32655231,0,106.18,0.54373,0.54374,0.25029,0.12255,0.17089,0.0083034,0.035195,2.34E-04,0,0,0,0,1.81E-06,0.026818,10.3,83.323,87.891,0.025437,NaN,5.8452,855.3,334.84,0.05,0.13466,468.46
6.8913,1418.9,208.53,-16.572,208.61,16.573,32.768,0.0094249,32.768,0.01648,5.5636,0.15676,28.61,-80.6,9.7878,0.063141,2.52E-06,0.3876,-3.73E-04,15503,0,11.632,0.026689,190.82,147.31,4.2243,0.62325,32497170,0,105.17,0.54346,0.54346,0.25055,0.12241,0.1705,0.0094438,0.039647,3.11E-04,0,0,0,0,6.07E-06,0.026712,10.3,83.323,87.906,0.024105,NaN,5.7773,854.19,334.8,0.05,0.13543,464.27
6.9413,1429.3,207.71,-16.506,207.78,16.508,33.046,0.0095699,33.046,0.016592,5.5548,0.20589,28.61,-80.6,9.7878,0.034383,2.50E-06,0.5491,-2.97E-04,15503,0,11.632,0.026689,190.91,147.31,4.233,0.62086,3.23E+07,0,104.18,0.54319,0.54319,0.25081,0.12227,0.17011,0.0051317,0.022123,-4.04E-04,0,0,0,0,1.23E-05,0.026606,10.3,83.323,87.93,0.023212,NaN,5.7096,853.08,334.76,0.05,0.1363,460.11
6.9913,1439.7,206.88,-16.44,206.96,16.443,33.324,0.0097158,33.324,0.016705,5.5428,0.27595,28.61,-80.6,9.7878,0.0067856,2.50E-06,-0.59267,2.21E-04,15503,0,11.632,0.026689,190.99,147.31,4.2412,0.61848,32184750,0,103.2,0.54292,0.54292,0.25106,0.12213,0.16973,0.0010107,0.0046442,2.16E-04,0,0,0,0,-1.44E-05,0.0265,10.3,83.323,87.959,0.022351,NaN,5.6423,851.98,334.72,0.05,0.13701,455.99
