# Time (s),Altitude (m),Vertical velocity (m/s),Vertical acceleration (m/s²),Total velocity (m/s),Total acceleration (m/s²),Position East of launch (m),Position North of launch (m),Lateral distance (m),Lateral direction (°),Lateral velocity (m/s),Lateral acceleration (m/s²),Latitude (°),Longitude (°),Gravitational acceleration (m/s²),Angle of attack (°),Roll rate (°/s),Pitch rate (°/s),Yaw rate (°/s),Mass (g),Propellant mass (g),Longitudinal moment of inertia (kg·m²),Rotational moment of inertia (kg·m²),CP location (cm),CG location (cm),Stability margin calibers (?),Mach number (?),Reynolds number (?),Thrust (N),Drag force (N),Drag coefficient (?),Axial drag coefficient (?),Friction drag coefficient (?),Pressure drag coefficient (?),Base drag coefficient (?),Normal force coefficient (?),Pitch moment coefficient (?),Yaw moment coefficient (?),Side force coefficient (?),Roll moment coefficient (?),Roll forcing coefficient (?),Roll damping coefficient (?),Pitch damping coefficient (?),Coriolis acceleration (m/s²),Reference length (cm),Reference area (cm²),Vertical orientation (zenith) (°),Lateral orientation (azimuth) (°),Wind velocity (m/s),Air temperature (°C),Air pressure (mbar),Speed of sound (m/s),Simulation time step (s),Computation time (s),Dynamic Pressure (mbar)
0,0,0,26.73,0,26.73,0,0,0,0,0,0,28.61,-80.6,9.7922,90,0,0,0,17499,2663.3,13.052,0.024794,0,160.48,0,0.0058681,348114,639.11,0,0.81325,0,0.5885,0.10474,0.12,0,0,0,0,0,0,0,0,0,10.3,83.323,90,0,0,15,1013.2,340.39,0.01,0.0053441,0
0.01,0.0013365,0.2673,97.917,0.2673,97.917,0,0,0,0,0,0,28.61,-80.6,9.7922,82.416,0,0,0,17499,2663.3,13.052,0.024794,0,160.48,0,0.0059501,352976,1884.8,9.13E-05,0.81145,0.0043629,0.5867,0.10474,0.12,0,0,0,0,0,0,0,0,3.42E-05,10.3,83.323,90,0,0,15,1013.2,340.39,0.01,0.0091333,8.75E-04
0.02,0.0089067,1.2468,108.21,1.2468,108.21,0,0,0,0,0,0,28.61,-80.6,9.7922,58.288,0,0,0,17493,2657.3,13.049,0.02479,0,160.46,0,0.0069682,413378,2064.3,0.006531,0.79147,0.22746,0.56672,0.10474,0.12001,0,0,0,0,0,0,0,0,1.60E-04,10.3,83.323,90,0,0,15,1013.2,340.39,0.01,0.011209,0.019042
0.03,0.026787,2.3294,102.07,2.3294,102.07,0,0,0,0,0,0,28.61,-80.6,9.7922,41.043,0,0,0,17485,2649.1,13.046,0.024784,0,160.43,0,0.0090734,538261,1956,0.028853,0.7603,0.59269,0.53554,0.10474,0.12001,0,0,0,0,0,0,0,0,2.98E-04,10.3,83.323,90,0,0,15,1013.2,340.39,0.01,0.013374,0.066469
0.04,0.055186,3.3506,102.39,3.3506,102.39,0,0,0,0,0,0,28.61,-80.6,9.7922,31.312,0,0,0,17475,2639.4,13.041,0.024778,0,160.39,0,0.011522,683495,1960.4,0.061831,0.73425,0.78771,0.50949,0.10474,0.12002,0,0,0,0,0,0,0,0,4.29E-04,10.3,83.323,90,0,0,15,1013.2,340.39,0.01,0.015601,0.13753
0.05,0.093814,4.375,102.7,4.375,102.7,0,0,0,0,0,0,28.61,-80.6,9.7922,25.089,0,0,0,17466,2629.9,13.037,0.024771,0,160.35,0,0.014192,841898,1964.8,0.10342,0.71306,0.86835,0.48828,0.10475,0.12003,0,0,0,0,0,0,0,0,5.60E-04,10.3,83.323,90,0,0,14.999,1013.2,340.39,0.01,0.017944,0.23447
0.06,0.1427,5.4024,103.01,5.4024,103.01,0,0,0,0,0,0,28.61,-80.6,9.7922,20.675,0,0,0,17456,2620.4,13.032,0.024764,0,160.32,0,0.016964,1006339,1969.2,0.15176,0.69595,0.89188,0.47116,0.10475,0.12004,0,0,0,0,0,0,0,0,6.92E-04,10.3,83.323,90,0,0,14.999,1013.2,340.39,0.01,0.020136,0.35753
0.07,0.20188,6.433,103.32,6.433,103.32,0,0,0,0,0,0,28.61,-80.6,9.7922,17.506,0,0,0,17447,2611,13.028,0.024758,0,160.28,0,0.019817,1175579,1973.6,0.20575,0.68177,0.88605,0.45696,0.10476,0.12005,0,0,0,0,0,0,0,0,8.24E-04,10.3,83.323,90,0,0,14.999,1013.2,340.39,0.01,0.022494,0.50694
0.08,0.27137,7.4667,103.63,7.4667,103.63,0,0,0,0,0,0,28.61,-80.6,9.7922,15.134,0,0,0,17437,2601.5,13.023,0.024751,0,160.25,0,0.022724,1348028,1978,0.26382,0.66982,0.86403,0.44499,0.10476,0.12007,0,0,0,0,0,0,0,0,9.56E-04,10.3,83.323,90,0,0,14.998,1013.2,340.39,0.01,0.024708,0.68294
0.09,0.35123,8.5035,103.94,8.5035,103.94,0,0,0,0,0,0,28.61,-80.6,9.7922,13.298,0,0,0,17428,2592.1,13.019,0.024744,0,160.21,0,0.02567,1522787,1982.5,0.32471,0.65957,0.83337,0.43471,0.10477,0.12009,0,0,0,0,0,0,0,0,0.0010887,10.3,83.323,90,0,0,14.998,1013.2,340.39,0.01,0.027112,0.88577
0.1,0.44146,9.5434,104.25,9.5434,104.25,0,0,0,0,0,0,28.61,-80.6,9.7922,11.837,0,0,0,17418,2582.6,13.014,0.024738,0,160.17,0,0.028646,1699316,1986.9,0.38951,0.65065,0.80277,0.42577,0.10478,0.12011,0,0,0,0,0,0,0,0,0.0012219,10.3,83.323,90,0,0,14.997,1013.2,340.39,0.01,0.029454,1.1157
0.11,0.54211,10.586,104.57,10.586,104.57,0,0,0,0,0,0,28.61,-80.6,9.7922,10.602,0,0,0,17409,2573.2,13.01,0.024731,0,160.14,0,0.031641,1876980,1991.2,0.45834,0.6428,0.77426,0.41789,0.10478,0.12013,0,0,0,0,0,0,0,0,0.0013554,10.3,83.323,90,0,0,14.996,1013.2,340.39,0.009446,0.031506,1.3728
0.11945,0.64677,11.575,104.86,11.575,104.86,0,0,0,0,0,0,28.61,-80.6,9.7922,9.6297,0,0,0,17400,2564,13.005,0.024725,0,160.1,0,0.03449,2045958,1995.2,0.52789,0.63618,0.75052,0.41124,0.10479,0.12015,0,0,0,0,0,0,0,0,0.001482,10.3,83.323,90,0,0,14.996,1013.2,340.39,0.0086396,0.033817,1.6411
0.12809,0.75069,12.481,105.12,12.481,105.12,0,0,0,0,0,0,28.61,-80.6,9.7922,8.8699,0,0,0,17391,2555.4,13.001,0.024719,0,160.07,0,0.03711,2201368,1998.9,0.59562,0.63069,0.73146,0.40571,0.1048,0.12018,0,0,0,0,0,0,0,0,0.001598,10.3,83.323,90,0,0,14.995,1013.2,340.39,0.0080123,0.036234,1.9081
0.1361,0.85406,13.323,105.36,13.323,105.36,0,0,0,0,0,0,28.61,-80.6,9.7922,8.254,0,0,0,17383,2547.6,12.997,0.024713,0,160.04,0,0.039552,2346152,2002.3,0.66208,0.626,0.71583,0.40099,0.10481,0.1202,0,0,0,0,0,0,0,0,0.0017058,10.3,83.323,90,0,0,14.994,1013.1,340.39,0.0075056,0.038627,2.1744
0.1436,0.95703,14.114,105.59,14.114,105.59,0,0,0,0,0,0,28.61,-80.6,9.7922,7.7413,0,0,0,17376,2540.2,12.994,0.024708,0,160.01,0,0.041847,2482309,2005.5,0.72763,0.62192,0.70275,0.39688,0.10482,0.12023,0,0,0,0,0,0,0,0,0.0018071,10.3,83.323,90,0,0,14.994,1013.1,340.39,0.007085,0.040711,2.4402
0.15069,1.0597,14.863,105.8,14.863,105.8,0,0,0,0,0,0.10684,28.61,-80.6,9.7922,7.3071,0,0,0,17369,2533.3,12.991,0.024703,172.43,159.99,1.2083,0.044022,2611283,2008.8,0.7925,0.61831,0.69166,0.39324,0.10483,0.12025,1.5908,1.9221,4.53E-04,0,0,0,0,0,0.0019029,10.3,83.323,90,0,0,14.993,1013.1,340.38,0.010627,0.043733,2.7058
0.16132,1.2236,15.988,105.96,15.988,105.96,-6.11E-06,0,6.11E-06,-180,0.0011579,0.11094,28.61,-80.6,9.7922,6.7432,0,0.011265,8.30E-07,17361,2524.8,12.987,0.024697,173.33,159.95,1.2992,0.047297,2805500,2010.7,0.89562,0.61329,0.67717,0.38816,0.10484,0.12029,1.4309,1.8586,1.81E-04,0,0,0,0,8.62E-07,0.002047,10.3,83.323,90,-0.0016372,0,14.992,1013.1,340.38,0.015941,0.046716,3.1309
0.17726,1.4919,17.678,106.16,17.678,106.16,-3.89E-05,0,3.89E-05,-180,0.0029719,0.11647,28.61,-80.6,9.7922,6.0287,0,0.030483,1.11E-06,17348,2511.8,12.98,0.024688,174.55,159.9,1.4225,0.052225,3097738,2013,1.0626,0.60653,0.65895,0.38131,0.10486,0.12035,1.2371,1.7594,2.67E-04,0,0,0,0,5.18E-06,0.0022634,10.3,83.323,90,-0.0027286,0,14.99,1013.1,340.38,0.023912,0.049769,3.8278
0.20117,1.945,20.22,106.46,20.22,106.46,-1.44E-04,0,1.44E-04,-180,0.0058426,0.12325,28.61,-80.6,9.7922,5.1784,0,0.064437,0,17328,2492.2,12.971,0.024674,176.13,159.83,1.5824,0.059646,3537803,2016.5,1.3409,0.59777,0.63755,0.37241,0.1049,0.12046,1.0193,1.6131,3.46E-04,0,0,0,0,1.77E-05,0.0025888,10.3,83.323,89.998,-0.0016634,0,14.987,1013,340.38,0.035868,0.052666,5.0073
0.23704,2.7388,24.045,106.92,24.045,106.92,-4.35E-04,0,4.35E-04,-180,0.01043,0.13156,28.61,-80.6,9.7922,4.2919,0,0.12689,-9.70E-06,17298,2462.7,12.957,0.024653,177.92,159.71,1.7678,0.07084,4201482,2021.5,1.8242,0.58693,0.61494,0.36132,0.10496,0.12065,0.80739,1.427,-8.70E-05,0,0,0,0,4.87E-05,0.0030786,10.3,83.323,89.995,0.0017127,0,14.982,1012.9,340.38,0.05,0.056627,7.0806
0.28704,4.075,29.403,107.55,29.403,107.55,-0.0011221,0,0.0011221,-180,0.017037,0.12926,28.61,-80.6,9.7922,3.3547,0,0.23607,-2.57E-05,17256,2420.4,12.936,0.024624,180.02,159.55,1.9876,0.086535,5131745,2027.4,2.6226,0.57505,0.59255,0.349,0.10507,0.12097,0.60006,1.193,4.54E-04,0,0,0,0,1.13E-04,0.0037647,10.3,83.323,89.986,0.0040826,0,14.974,1012.8,340.37,0.05,0.06,10.587
0.33704,5.6799,34.793,108.17,34.793,108.17,-0.0021308,0,0.0021308,-180,0.023186,0.11461,28.61,-80.6,9.7922,2.7305,0,0.36852,-5.97E-05,17207,2371.1,12.912,0.024589,181.55,159.36,2.1549,0.10234,6068255,2033.3,3.5738,0.5657,0.57742,0.33913,0.10521,0.12136,0.4716,1.0161,-4.76E-04,0,0,0,0,1.97E-04,0.0044548,10.3,83.323,89.971,0.0067206,0,14.963,1012.6,340.37,0.05,0.062785,14.822
0.38704,7.555,40.214,108.78,40.214,108.78,-0.0034228,1.24E-08,0.0034228,180,0.028238,0.083797,28.61,-80.6,9.7922,2.2767,0,0.524,-5.56E-05,17158,2321.9,12.888,0.024554,182.74,159.16,2.2891,0.11825,7010372,2039.2,4.6784,0.5581,0.56631,0.33092,0.10536,0.12182,0.38304,0.87632,-4.05E-04,0,0,0,0,2.98E-04,0.0051488,10.3,83.323,89.949,0.0066703,0,14.951,1012.4,340.36,0.05,0.065094,19.797
0.43704,9.7019,45.666,109.39,45.666,109.39,-0.0049229,5.28E-08,0.0049229,180,0.031418,0.041426,28.61,-80.6,9.7921,1.9952,0,0.70285,-8.47E-05,17108,2272.6,12.864,0.02452,183.52,158.97,2.3834,0.13426,7958096,2045,5.9818,0.55548,0.56183,0.32759,0.10555,0.12234,0.33017,0.78692,-2.30E-04,0,0,0,0,4.16E-04,0.0058468,10.3,83.323,89.918,0.0064124,0,14.937,1012.1,340.35,0.05,0.067769,25.523
0.48704,12.122,51.148,109.99,51.148,109.99,-0.0065216,1.37E-07,0.0065216,180,0.031982,0.02471,28.61,-80.6,9.7921,1.7509,0,0.90825,-9.23E-05,17059,2223.3,12.84,0.024485,184.22,158.77,2.4702,0.15036,8910677,2050.9,7.4906,0.55613,0.56108,0.32744,0.10575,0.12294,0.28557,0.70441,-3.19E-04,0,0,0,0,5.54E-04,0.0065487,10.3,83.323,89.878,0.0064433,0,14.921,1011.8,340.34,0.05,0.070732,32.011
0.53704,14.817,56.659,110.58,56.659,110.58,-0.0080574,2.87E-07,0.0080574,180,0.028787,0.10519,28.61,-80.6,9.7921,1.6108,0,1.1399,-1.63E-05,17010,2174,12.815,0.02445,184.63,158.58,2.5299,0.16656,9868389,2056.8,9.1887,0.55686,0.56107,0.32727,0.10598,0.12361,0.26055,0.65862,1.61E-04,0,0,0,0,7.12E-04,0.0072544,10.3,83.323,89.827,0.0054095,0,14.904,1011.5,340.33,0.05,0.073981,39.272
0.58704,17.789,62.2,111.17,62.2,111.17,-0.0093148,5.22E-07,0.0093148,180,0.020313,0.24971,28.61,-80.6,9.7921,1.3058,0,1.3939,-1.56E-04,16960,2124.8,12.791,0.024416,185.55,158.38,2.6382,0.18284,1.08E+07,2062.6,11.056,0.55767,0.56048,0.32709,0.10624,0.12435,0.20732,0.54653,-4.78E-04,0,0,0,0,8.83E-04,0.0079638,10.3,83.323,89.764,0.004703,0,14.884,1011.2,340.32,0.05,0.077489,47.316
0.63704,21.038,67.771,111.75,67.771,111.75,-0.0099498,8.63E-07,0.0099498,180,0.0037518,0.41213,28.61,-80.6,9.7921,1.1116,0,1.644,-1.23E-04,16911,2075.5,12.766,0.024381,186.16,158.18,2.7169,0.19921,11796029,2068.5,13.123,0.55855,0.56061,0.32688,0.10652,0.12516,0.17441,0.4733,-4.81E-04,0,0,0,0,0.0010351,0.008677,10.3,83.323,89.688,0.0045994,0,14.863,1010.8,340.31,0.05,0.080818,56.153
0.68704,24.566,73.369,112.32,73.369,112.32,-0.0095421,1.34E-06,0.0095421,179.99,0.021799,0.62318,28.61,-80.6,9.7921,0.88087,0,1.8975,-1.23E-04,16862,2026.2,12.741,0.024346,186.9,157.98,2.8085,0.21566,12766400,2074.4,15.38,0.55952,0.56083,0.32666,0.10682,0.12605,0.13623,0.38144,3.27E-04,0,0,0,0,0.0011767,0.0093938,10.3,83.323,89.599,0.0041926,0,14.84,1010.4,340.29,0.05,0.083239,65.792
0.73704,28.376,78.996,112.87,78.996,112.88,-0.0075779,1.99E-06,0.0075779,179.98,0.058641,0.85096,28.61,-80.6,9.7921,0.73484,0,2.1356,-1.40E-04,16813,1976.9,12.716,0.024312,187.4,157.78,2.8757,0.23221,13741319,2080.2,17.844,0.56058,0.56149,0.32641,0.10715,0.12701,0.11263,0.32305,1.30E-04,0,0,0,0,0.0012858,0.010114,10.3,83.323,89.498,0.0040422,0,14.816,1009.9,340.28,0.05,0.085203,76.244
0.78704,32.467,84.651,113.42,84.651,113.43,-0.0034783,2.86E-06,0.0034783,179.95,0.1075,1.113,28.61,-80.6,9.7921,0.59659,0,2.37,-3.65E-04,16763,1927.7,12.691,0.024277,187.87,157.57,2.9417,0.24884,1.47E+07,2086.1,20.512,0.56171,0.56232,0.32615,0.10751,0.12805,0.090658,0.2651,1.30E-04,0,0,0,0,0.0013791,0.010838,10.3,83.323,89.386,0.0039443,0,14.789,1009.4,340.26,0.05,0.087416,87.517
0.83704,36.841,90.333,113.96,90.333,113.97,0.0034162,3.99E-06,0.0034162,0.066991,0.17095,1.4387,28.61,-80.6,9.7921,0.38674,0,2.572,-4.72E-04,16714,1878.4,12.666,0.024243,188.6,157.37,3.0322,0.26555,15702644,2092,23.383,0.56294,0.56319,0.32587,0.1079,0.12917,0.057992,0.17461,7.53E-05,0,0,0,0,0.0014264,0.011566,10.3,83.323,89.262,0.0041319,0,14.761,1008.9,340.24,0.05,0.089782,99.619
0.88704,41.501,96.042,114.49,96.042,114.51,0.013901,5.49E-06,0.013901,0.02263,0.25112,1.7651,28.61,-80.6,9.792,0.26493,0,2.7184,-6.55E-04,16665,1829.1,12.641,0.024208,189.05,157.16,3.0953,0.28234,16689162,2097.9,26.475,0.56424,0.56437,0.32557,0.10831,0.13036,0.039426,0.12079,-3.59E-04,0,0,0,0,0.0014097,0.012297,10.3,83.323,89.129,0.0042305,0,14.73,1008.4,340.23,0.05,0.091718,112.56
0.93704,46.446,101.78,115.01,101.78,115.03,0.028805,7.41E-06,0.028805,0.014741,0.34787,2.1131,28.61,-80.6,9.792,0.15544,0,2.8313,-0.0014744,16616,1779.8,12.615,0.024173,189.46,156.96,3.1551,0.29922,17679261,2103.7,29.788,0.56564,0.56568,0.32524,0.10876,0.13164,0.022976,0.071009,2.28E-04,0,0,0,0,0.0013617,0.013031,10.3,83.323,88.991,0.0045186,0,14.698,1007.8,340.21,0.05,0.09406,126.34
0.98704,51.679,107.54,115.51,107.54,115.54,0.049002,9.90E-06,0.049002,0.011575,0.46333,2.5181,28.61,-80.6,9.792,0.021154,0,-2.8734,-0.0091546,16566,1730.5,12.589,0.024139,189.96,156.75,3.2244,0.31618,18672252,2109.6,33.323,0.56712,0.56713,0.3249,0.10923,0.133,0.0031004,0.011201,3.00E-05,0,0,0,0,-0.0012562,0.013769,10.3,83.323,88.848,0.0050017,0,14.664,1007.2,340.19,0.05,0.096289,140.98
1.037,57.2,113.32,116.01,113.32,116.04,0.075483,1.31E-05,0.075483,0.00996,0.59901,2.9014,28.61,-80.6,9.792,0.12373,0,-2.8139,-0.0013966,16517,1681.3,12.563,0.024104,189.63,156.54,3.2127,0.33321,19668826,2115.5,37.091,0.5687,0.56873,0.32454,0.10973,0.13443,0.018273,0.059422,4.38E-04,0,0,0,0,-0.0010849,0.01451,10.3,83.323,88.705,0.0053043,0,14.628,1006.5,340.16,0.05,0.09837,156.48
1.087,63.012,119.13,116.36,119.13,116.4,0.10922,1.72E-05,0.10922,0.009029,0.75375,3.2938,28.61,-80.6,9.792,0.23634,0,-2.6765,-9.77E-04,16468,1632,12.538,0.024069,189.27,156.33,3.1983,0.35032,20668248,2119.2,41.095,0.57036,0.57046,0.32416,0.11025,0.13595,0.035191,0.11384,1.25E-04,0,0,0,0,-8.88E-04,0.015254,10.3,83.323,88.567,0.0052921,0,14.59,1005.9,340.14,0.05,0.10146,172.85
1.137,69.114,124.96,115.98,124.96,116.04,0.15119,2.23E-05,0.15119,0.0084512,0.92782,3.6385,28.61,-80.6,9.792,0.31464,0,-2.4353,-5.41E-04,16418,1582.6,12.511,0.024035,189.04,156.12,3.1963,0.36749,2.17E+07,2111.1,45.334,0.57212,0.57229,0.32375,0.11081,0.13756,0.047128,0.15154,3.82E-04,0,0,0,0,-6.68E-04,0.016,10.3,83.323,88.439,0.0048319,0,14.551,1005.1,340.12,0.05,0.10404,190.06
1.187,75.507,130.77,115.47,130.77,115.54,0.20228,2.84E-05,0.20228,0.0080463,1.119,3.9882,28.61,-80.6,9.7919,0.42848,0,-2.0882,-6.61E-04,16369,1532.9,12.485,0.024,188.69,155.9,3.1834,0.3846,22665614,2101.3,49.788,0.57395,0.57427,0.32333,0.11139,0.13923,0.064712,0.20661,-4.53E-04,0,0,0,0,-4.49E-04,0.016744,10.3,83.323,88.325,0.0042216,0,14.509,1004.4,340.09,0.05,0.10609,208.02
1.237,82.19,136.55,114.96,136.56,115.04,0.26335,3.55E-05,0.26335,0.0077281,1.3262,4.2507,28.61,-80.6,9.7919,0.4771,0,-1.6083,-9.76E-04,16319,1483.1,12.458,0.023965,188.57,155.69,3.1924,0.40164,23656192,2091.4,54.444,0.57586,0.57626,0.32289,0.112,0.14097,0.072342,0.23108,-4.02E-04,0,0,0,0,-2.44E-04,0.017484,10.3,83.323,88.233,0.003295,0,14.466,1003.6,340.07,0.05,0.10842,226.68
1.287,89.161,142.31,114.43,142.31,114.51,0.33506,4.35E-05,0.33506,0.0074385,1.5438,4.4077,28.61,-80.6,9.7919,0.46792,0,-1.0663,-3.13E-04,16269,1433.3,12.431,0.02393,188.64,155.47,3.2207,0.41862,24641053,2081.5,59.297,0.57785,0.57823,0.32243,0.11263,0.14278,0.070965,0.22819,2.61E-04,0,0,0,0,-9.88E-05,0.018221,10.3,83.323,88.166,0.0022973,0,14.42,1002.8,340.04,0.05,0.11079,246.04
1.337,96.42,148.04,113.89,148.05,113.98,0.41781,5.22E-05,0.41781,0.0071561,1.7669,4.4708,28.61,-80.6,9.7919,0.42855,0,-0.50443,-4.78E-04,16219,1383.5,12.404,0.023895,188.82,155.25,3.2591,0.43553,2.56E+07,2071.6,64.35,0.57991,0.58023,0.32196,0.11329,0.14466,0.06488,0.21119,1.87E-04,0,0,0,0,-2.04E-05,0.018955,10.3,83.323,88.126,0.001617,0,14.373,1001.9,340.01,0.05,0.11277,266.08
1.387,103.96,153.74,113.33,153.75,113.42,0.51177,6.14E-05,0.51177,0.0068775,1.992,4.5041,28.61,-80.6,9.7919,0.42163,0,0.068826,-9.63E-04,16169,1333.6,12.377,0.02386,188.89,155.03,3.2872,0.45234,26591483,2061.8,69.608,0.58204,0.58235,0.32147,0.11397,0.1466,0.063858,0.20962,6.21E-05,0,0,0,0,3.53E-07,0.019686,10.3,83.323,88.115,3.48E-04,0,14.324,1001.1,339.98,0.05,0.11501,286.77
1.437,111.79,159.41,112.69,159.43,112.78,0.61701,7.09E-05,0.61701,0.0065862,2.2172,4.4542,28.61,-80.6,9.7918,0.40123,0,0.68322,-0.0018264,16120,1283.8,12.35,0.023825,189.01,154.81,3.3201,0.46908,27556381,2050.8,75.065,0.58424,0.58453,0.32096,0.11467,0.1486,0.060742,0.20189,-3.00E-04,0,0,0,0,3.23E-05,0.020413,10.3,83.323,88.134,-0.0015073,0,14.273,1000.1,339.95,0.05,0.11723,308.11
1.487,119.9,165.05,111.83,165.07,111.92,0.73339,8.02E-05,0.73339,0.0062656,2.4369,4.2771,28.61,-80.6,9.7918,0.34094,0,1.2852,-0.0015949,16070,1234.7,12.323,0.02379,189.26,154.59,3.3661,0.48573,28513991,2036.5,80.713,0.58651,0.58672,0.32044,0.1154,0.15067,0.051459,0.17343,4.81E-04,0,0,0,0,1.07E-04,0.021136,10.3,83.323,88.183,-0.0035612,0,14.221,999.19,339.92,0.05,0.11917,330.06
1.537,128.3,170.65,110.94,170.67,111.02,0.86049,8.87E-05,0.86049,0.0059063,2.6449,3.9877,28.61,-80.6,9.7918,0.24983,0,1.8037,-0.0020968,16022,1186.5,12.296,0.023756,189.63,154.37,3.4225,0.50226,29462274,2022.1,86.542,0.58884,0.58895,0.3199,0.11614,0.15279,0.037518,0.128,-3.08E-04,0,0,0,0,1.97E-04,0.021853,10.3,83.323,88.261,-0.0053985,0,14.166,998.2,339.88,0.05,0.12295,352.55
1.587,136.97,176.2,110.04,176.23,110.1,0.99759,9.61E-05,0.99759,0.0055181,2.8364,3.6329,28.61,-80.6,9.7918,0.15545,0,2.1835,-0.0043398,15974,1138.7,12.269,0.023722,190.01,154.16,3.4808,0.51865,30400627,2007.6,92.553,0.59123,0.59128,0.31935,0.11691,0.15497,0.023222,0.08057,-3.83E-04,0,0,0,0,2.70E-04,0.022564,10.3,83.323,88.361,-0.0067881,0,14.11,997.19,339.85,0.05,0.12703,375.57
1.637,145.92,181.71,109.11,181.74,109.16,1.1438,1.02E-04,1.1438,0.0051129,3.0079,3.177,28.61,-80.6,9.7917,0.024261,0,2.3717,-0.026318,15926,1090.8,12.242,0.023689,190.53,153.94,3.5528,0.53492,31329436,1993.2,98.747,0.59369,0.59369,0.31879,0.1177,0.1572,0.0035963,0.01214,4.56E-04,0,0,0,0,3.00E-04,0.02327,10.3,83.323,88.476,-0.0087085,0,14.052,996.14,339.81,0.05,0.12986,399.08
1.687,155.14,187.17,108.17,187.2,108.2,1.298,1.06E-04,1.298,0.0046962,3.1547,2.6621,28.61,-80.6,9.7917,0.12668,0,-2.2577,-0.00428,15879,1042.9,12.215,0.023655,190.24,153.72,3.5453,0.55107,32248489,1978.7,105.13,0.59619,0.59622,0.31822,0.1185,0.15948,0.018927,0.067598,3.96E-04,0,0,0,0,-2.56E-04,0.023969,10.3,83.323,88.594,-0.010972,0,13.992,995.05,339.78,0.05,0.13227,423.06
1.737,164.63,192.59,107.21,192.61,107.23,1.4588,1.09E-04,1.4588,0.0042678,3.2773,2.2392,28.61,-80.6,9.7917,0.22428,0,-1.8301,-0.003361,15831,995.06,12.188,0.023621,189.97,153.5,3.5405,0.56706,33156728,1964.2,111.69,0.59876,0.59885,0.31763,0.11932,0.1618,0.033765,0.12,4.33E-04,0,0,0,0,-1.59E-04,0.024662,10.3,83.323,88.697,-0.01146,0,13.93,993.94,339.74,0.05,0.13806,447.48
1.787,174.4,197.95,106.17,197.98,106.19,1.6254,1.09E-04,1.6254,0.0038457,3.3807,1.8827,28.61,-80.6,9.7916,0.30485,0,-1.1686,-0.003343,15783,947.41,12.161,0.023588,189.76,153.28,3.5422,0.58293,34054661,1948.9,118.42,0.60137,0.60154,0.31703,0.12016,0.16417,0.04619,0.16378,-2.42E-04,0,0,0,0,-6.13E-05,0.025349,10.3,83.323,88.773,-0.0074468,0,13.866,992.8,339.7,0.05,0.14524,472.32
1.837,184.43,203.26,105.06,203.29,105.07,1.7966,1.09E-04,1.7966,0.0034634,3.4692,1.6619,28.61,-80.6,9.7916,0.34821,0,-0.28958,-0.002806,15738,901.89,12.135,0.023556,189.69,153.06,3.5561,0.59864,34941363,1932.9,125.3,0.60403,0.60425,0.31642,0.12102,0.16659,0.052969,0.18877,-1.99E-04,0,0,0,0,-3.57E-06,0.02603,10.3,83.323,88.81,-0.001223,0,13.801,991.62,339.66,0.05,0.14864,497.53
1.887,194.72,208.52,103.91,208.55,103.92,1.9722,1.08E-04,1.9722,0.0031497,3.551,1.6151,28.61,-80.6,9.7916,0.34987,0,0.70303,-0.0030962,15694,858.31,12.11,0.023525,189.77,152.86,3.5834,0.61419,35816250,1916.9,132.33,0.60673,0.60696,0.3158,0.12189,0.16904,0.05329,0.19044,2.65E-04,0,0,0,0,2.00E-05,0.026703,10.3,83.323,88.8,0.0055863,0,13.734,990.41,339.62,0.05,0.15115,523.07
1.937,205.28,213.71,102.75,213.75,102.76,2.1518,1.10E-04,2.1518,0.0029315,3.6367,1.8387,28.61,-80.6,9.7915,0.27454,0,1.6588,-0.0042674,15650,814.72,12.085,0.023495,190.11,152.65,3.6369,0.62958,36678554,1901,139.47,0.60948,0.60962,0.31517,0.12278,0.17153,0.041659,0.15116,-2.74E-04,0,0,0,0,1.06E-04,0.027368,10.3,83.323,88.74,0.012182,0,13.666,989.17,339.58,0.05,0.15381,548.92
1.987,216.09,218.85,101.56,218.89,101.59,2.3361,1.15E-04,2.3361,0.0028215,3.7399,2.2919,28.61,-80.6,9.7915,0.14098,0,2.3291,-0.008797,15607,771.14,12.059,0.023464,190.67,152.45,3.7108,0.64478,37528243,1885,146.74,0.61226,0.6123,0.31454,0.12367,0.17405,0.021231,0.078804,-3.63E-04,0,0,0,0,1.99E-04,0.028026,10.3,83.323,88.639,0.017275,0,13.595,987.91,339.54,0.05,0.15986,575.04
2.037,227.16,223.93,100.36,223.97,100.4,2.5262,1.25E-04,2.5262,0.0028287,3.8677,2.7778,28.61,-80.6,9.7915,0.020997,0,2.587,-0.057174,15563,727.55,12.034,0.023433,191.19,152.24,3.7813,0.65983,38366049,1869.1,154.17,0.61508,0.61508,0.31389,0.12459,0.1766,0.0031409,0.011778,-1.90E-04,0,0,0,0,2.35E-04,0.028677,10.3,83.323,88.514,0.019756,0,13.523,986.61,339.49,0.05,0.16288,601.4
2.087,238.48,228.95,99.14,228.99,99.193,2.7233,1.40E-04,2.7233,0.0029503,4.0195,3.2595,28.61,-80.6,9.7914,0.086744,0,-2.4638,-0.012597,15520,683.97,12.008,0.023403,191.05,152.03,3.7881,0.67472,39191461,1853.1,161.73,0.61793,0.61795,0.31324,0.12551,0.17918,0.013049,0.049992,-2.81E-04,0,0,0,0,-2.04E-04,0.02932,10.3,83.323,88.386,0.02102,0,13.45,985.28,339.45,0.05,0.16587,627.98
2.137,250.05,233.91,97.905,233.95,97.973,2.9285,1.62E-04,2.9285,0.0031787,4.1939,3.6559,28.61,-80.6,9.7914,0.16503,0,-1.9734,-0.0059895,15476,640.38,11.982,0.023372,190.87,151.82,3.7911,0.68943,40004314,1837.1,169.43,0.62082,0.62087,0.31258,0.12645,0.18179,0.024986,0.094821,1.96E-04,0,0,0,0,-1.25E-04,0.029955,10.3,83.323,88.274,0.020977,0,13.375,983.92,339.4,0.05,0.16843,654.74
2.187,261.87,238.8,96.658,238.84,96.74,3.143,1.92E-04,3.143,0.003495,4.386,3.9779,28.61,-80.6,9.7914,0.23246,0,-1.1831,-0.0045251,15432,596.79,11.956,0.023341,190.73,151.61,3.7984,0.70396,40803822,1821.2,177.24,0.62373,0.62384,0.31192,0.12739,0.18442,0.035398,0.13422,3.60E-04,0,0,0,0,-4.32E-05,0.030582,10.3,83.323,88.194,0.017586,0,13.298,982.54,339.36,0.05,0.17102,681.67
2.237,273.93,243.64,95.406,243.68,95.491,3.3673,2.27E-04,3.3673,0.003863,4.5883,4.0097,28.61,-80.6,9.7913,0.22564,0,-0.19442,-0.0034736,15389,553.21,11.93,0.023311,190.86,151.39,3.8311,0.71832,41590860,1805.2,185.14,0.62667,0.62677,0.31125,0.12835,0.18708,0.034388,0.13179,-1.43E-04,0,0,0,0,-1.12E-06,0.031201,10.3,83.323,88.159,0.012598,0,13.219,981.12,339.31,0.05,0.17815,708.72
2.287,286.23,248.41,94.149,248.45,94.227,3.6017,2.67E-04,3.6017,0.0042416,4.7862,3.8445,28.61,-80.6,9.7913,0.1842,0,0.7077,-0.002576,15345,509.62,11.904,0.02328,191.1,151.18,3.8759,0.7325,42364565,1789.2,193.14,0.62964,0.6297,0.31057,0.12931,0.18975,0.028034,0.10823,-2.63E-04,0,0,0,0,1.43E-05,0.031812,10.3,83.323,88.173,0.0080603,0,13.139,979.68,339.26,0.05,0.18053,735.88
2.337,298.77,253.11,92.884,253.16,92.95,3.8457,3.09E-04,3.8457,0.0046002,4.9712,3.4858,28.61,-80.6,9.7913,0.10762,3.14E-07,1.3926,-0.0036174,15302,466.04,11.877,0.023249,191.48,150.97,3.9331,0.74649,43125011,1773.3,201.22,0.63262,0.63264,0.30989,0.13028,0.19244,0.016319,0.064018,-4.35E-04,0,0,0,0,5.32E-05,0.032415,10.3,83.323,88.227,0.0041976,0,13.058,978.21,339.21,0.05,0.18281,763.11
2.387,311.54,257.76,91.608,257.81,91.66,4.0985,3.52E-04,4.0985,0.0049218,5.1363,3.0905,28.61,-80.6,9.7912,0.038221,4.49E-07,1.7295,-0.010362,15258,422.45,11.851,0.023219,191.83,150.75,3.9884,0.7603,43871492,1757.3,209.39,0.63562,0.63562,0.30921,0.13126,0.19515,0.0057772,0.023255,-4.14E-04,0,0,0,0,7.92E-05,0.03301,10.3,83.323,88.306,6.23E-04,0,12.975,976.71,339.16,0.05,0.185,790.39
2.437,324.55,262.34,90.319,262.39,90.357,4.359,3.95E-04,4.359,0.0051934,5.2803,2.6159,28.61,-80.6,9.7912,0.046379,4.54E-07,-1.7177,-0.0084238,15215,378.87,11.824,0.023188,191.91,150.53,4.017,0.77392,44604742,1741.3,217.65,0.63864,0.63864,0.30853,0.13225,0.19786,0.0070237,0.028621,2.50E-05,0,0,0,0,-7.54E-05,0.033597,10.3,83.323,88.394,-9.58E-04,0,12.89,975.19,339.11,0.05,0.18699,817.69
2.487,337.78,266.85,89.015,266.9,89.043,4.6261,4.37E-04,4.6261,0.0054167,5.4015,2.2309,28.61,-80.6,9.7911,0.10555,4.09E-07,-1.2902,-0.0019188,15171,335.28,11.797,0.023158,191.8,150.31,4.0281,0.78735,45324185,1725.4,225.99,0.64166,0.64169,0.30784,0.13324,0.20059,0.016068,0.065093,-1.30E-04,0,0,0,0,-4.11E-05,0.034175,10.3,83.323,88.471,-3.73E-04,0,12.804,973.63,339.06,0.05,0.18943,844.99
2.537,351.23,271.3,87.695,271.35,87.717,4.8988,4.79E-04,4.8988,0.0055997,5.5071,1.9822,28.61,-80.6,9.7911,0.13721,3.96E-07,-0.60828,6.58E-04,15127,291.7,11.77,0.023127,191.8,150.09,4.0491,0.8006,4.60E+07,1709.4,234.38,0.6447,0.64474,0.30715,0.13423,0.20332,0.020962,0.084547,-3.07E-04,0,0,0,0,-8.84E-06,0.034745,10.3,83.323,88.519,-0.001884,0,12.717,972.06,339.01,0.05,0.19207,872.26
2.587,364.9,275.68,85.333,275.74,85.354,5.1766,5.19E-04,5.1766,0.0057423,5.605,1.9186,28.61,-80.6,9.7911,0.12843,4.21E-07,0.17827,8.45E-04,15084,248.11,11.743,0.023096,191.94,149.87,4.0841,0.81365,46722002,1678,242.83,0.64775,0.64778,0.30646,0.13523,0.20606,0.019636,0.080447,3.72E-04,0,0,0,0,7.35E-07,0.035306,10.3,83.323,88.529,-0.0045521,0,12.628,970.45,338.95,0.05,0.19412,899.46
2.637,378.8,279.94,78.307,280,78.33,5.4593,5.57E-04,5.4593,0.0058448,5.7045,1.8994,28.61,-80.6,9.791,0.093683,0,0.85449,0.0025608,15042,205.95,11.717,0.023067,192.17,149.66,4.1274,0.82637,47391625,1576.7,251.21,0.65076,0.65078,0.30577,0.13622,0.20877,0.014312,0.059007,-2.32E-04,0,0,0,0,1.64E-05,0.035852,10.3,83.323,88.503,-0.0044467,0,12.538,968.82,338.9,0.05,0.19618,926.23
2.687,392.89,283.86,67.234,283.92,67.264,5.7471,5.93E-04,5.7471,0.0059115,5.8088,2.0224,28.61,-80.6,9.791,0.0065649,3.91E-07,1.1972,0.032998,15004,168.15,11.693,0.02304,192.58,149.46,4.1863,0.83804,47998604,1415.1,259.02,0.65358,0.65358,0.30513,0.13714,0.2113,9.99E-04,0.004193,-2.91E-04,0,0,0,0,3.13E-05,0.036353,10.3,83.323,88.449,-0.001911,0,12.446,967.17,338.84,0.05,0.19832,950.98
2.737,407.17,287.21,54.445,287.27,54.48,6.0402,6.28E-04,6.0402,0.0059548,5.9184,1.9589,28.61,-80.6,9.7909,0.046691,4.67E-07,-1.0235,0.0050748,14976,140.8,11.676,0.023021,192.52,149.32,4.1945,0.84809,4.85E+07,1228.3,265.81,0.65603,0.65603,0.30458,0.13795,0.2135,0.0071287,0.029946,-1.43E-04,0,0,0,0,-2.23E-05,0.036783,10.3,83.323,88.392,0.0039953,0,12.353,965.5,338.79,0.05,0.20048,972.24
2.787,421.6,289.93,41.671,289.99,41.71,6.3387,6.64E-04,6.3387,0.006001,6.0215,1.8031,28.61,-80.6,9.7909,0.084924,0,-0.58756,0.0035427,14957,120.98,11.663,0.023007,192.46,149.22,4.1981,0.85625,48912199,1041.5,271.31,0.65805,0.65806,0.30412,0.13861,0.21531,0.013011,0.054925,2.78E-04,0,0,0,0,-7.22E-06,0.037131,10.3,83.323,88.351,0.011874,0,12.26,963.8,338.73,0.05,0.2109,989.31
2.837,436.14,292.01,28.956,292.07,28.996,6.6421,7.04E-04,6.6421,0.0060704,6.1145,1.5252,28.61,-80.6,9.7908,0.10201,0,0.061751,-4.73E-04,14937,101.16,11.651,0.022993,192.45,149.11,4.2076,0.86254,49204917,854.68,275.47,0.65961,0.65963,0.30377,0.13913,0.21672,0.015658,0.065432,-1.79E-04,0,0,0,0,7.87E-08,0.037398,10.3,83.323,88.337,0.015525,0,12.165,962.1,338.67,0.05,0.2134,1002.1
2.887,450.78,293.45,16.306,293.52,16.339,6.9497,7.48E-04,6.9497,0.0061698,6.1885,1.0417,28.61,-80.6,9.7908,0.076394,2.94E-07,0.7023,0.0020991,14917,81.346,11.638,0.022979,192.58,149.01,4.2303,0.86696,4.94E+07,667.87,278.27,0.66072,0.66073,0.30352,0.13949,0.21771,0.011712,0.049398,-3.82E-04,0,0,0,0,1.01E-05,0.037583,10.3,83.323,88.357,0.014785,0,12.07,960.38,338.61,0.05,0.21569,1010.6
2.937,465.47,294.27,3.7167,294.33,3.7505,7.2603,7.97E-04,7.2603,0.006293,6.2359,0.50299,28.61,-80.6,9.7907,0.037787,3.70E-07,1.0983,0.0021076,14897,61.528,11.626,0.022965,192.74,148.91,4.256,0.86951,49467621,481.05,279.67,0.66136,0.66136,0.30337,0.13971,0.21829,0.0057805,0.024413,2.91E-04,0,0,0,0,2.45E-05,0.037687,10.3,83.323,88.403,0.013458,0,11.974,958.66,338.56,0.05,0.21804,1014.7
2.987,480.19,294.45,-8.8113,294.52,8.8119,7.5726,8.50E-04,7.5726,0.0064283,6.2547,0.10691,28.61,-80.6,9.7907,0.021987,3.17E-07,-1.168,0.0025168,14877,41.711,11.613,0.022951,192.81,148.8,4.2722,0.87021,4.94E+07,294.24,279.69,0.66154,0.66154,0.30333,0.13976,0.21844,0.0033603,0.014737,-2.90E-04,0,0,0,0,-2.77E-05,0.037711,10.3,83.323,88.462,0.0073799,0,11.879,956.93,338.5,0.05,0.22049,1014.5
3.037,494.9,294.02,-19.984,294.08,19.993,7.8851,9.03E-04,7.8851,0.0065593,6.2438,0.59596,28.61,-80.6,9.7907,0.067631,0,-0.83448,0.0011178,14858,21.893,11.6,0.022937,192.63,148.7,4.2654,0.86906,49306593,126.73,278.33,0.66125,0.66126,0.3034,0.13967,0.21818,0.010365,0.043912,3.64E-04,0,0,0,0,-1.42E-05,0.037655,10.3,83.323,88.513,0.0017407,0,11.783,955.21,338.44,0.05,0.22411,1010
3.087,509.58,293.02,-24.445,293.09,24.461,8.1965,9.55E-04,8.1965,0.0066781,6.2093,0.90808,28.61,-80.6,9.7906,0.11498,0,-0.20537,1.11E-04,14843,7.062,11.591,0.022927,192.44,148.62,4.2541,0.86628,49083811,58.027,275.78,0.66055,0.66058,0.30355,0.13944,0.21756,0.017671,0.075234,-3.03E-04,0,0,0,0,-8.64E-07,0.037528,10.3,83.323,88.54,-0.0017678,0,11.688,953.54,338.38,0.05,0.22662,1001.8
3.137,524.2,291.8,-27.58,291.87,27.596,8.5058,0.0010066,8.5058,0.0067807,6.1638,0.94114,28.61,-80.6,9.7906,0.10453,-7.04E-07,0.60174,0.0018483,14837,1.4538,11.587,0.022923,192.45,148.59,4.2576,0.86282,48825346,8.567,272.76,0.65968,0.65971,0.30375,0.13915,0.21678,0.016048,0.068283,-2.70E-05,0,0,0,0,7.48E-06,0.037372,10.3,83.323,88.53,-0.00231,0,11.593,951.9,338.32,0.05,0.22933,992.11
3.187,538.76,290.43,-27.94,290.49,27.948,8.8129,0.0010565,8.8129,0.0068686,6.1234,0.66148,28.61,-80.6,9.7905,0.034296,-8.75E-07,1.1031,0.0081567,14836,0.3838,11.586,0.022922,192.66,148.59,4.2792,0.8589,48540809,0,269.41,0.6587,0.65871,0.30397,0.13883,0.2159,0.0052387,0.02214,-4.77E-04,0,0,0,0,2.54E-05,0.037196,10.3,83.323,88.486,-0.0024497,0,11.498,950.28,338.27,0.05,0.23181,981.44
3.237,553.24,289.04,-27.722,289.1,27.725,9.1184,0.0011048,9.1184,0.0069419,6.0975,0.39673,28.61,-80.6,9.7905,0.031732,-8.21E-07,-1.0948,0.0086737,14836,0,11.586,0.022922,192.64,148.58,4.2769,0.85492,48254347,0,266.06,0.65772,0.65772,0.3042,0.1385,0.21502,0.0048439,0.021035,4.32E-04,0,0,0,0,-2.52E-05,0.037018,10.3,83.323,88.429,-0.0021229,0,11.404,948.66,338.21,0.05,0.23493,970.72
3.287,567.66,287.66,-27.506,287.72,27.507,9.4229,0.0011514,9.4229,0.007001,6.0824,0.22451,28.61,-80.6,9.7904,0.075726,-1.07E-06,-0.72169,0.0037405,14836,0,11.586,0.022922,192.44,148.58,4.2582,0.85098,47970668,0,262.78,0.65674,0.65675,0.30442,0.13818,0.21414,0.011587,0.049214,1.37E-05,0,0,0,0,-1.11E-05,0.036841,10.3,83.323,88.382,-0.0015981,0,11.31,947.05,338.15,0.05,0.23775,960.15
3.337,582.01,286.29,-27.29,286.35,27.29,9.7267,0.0011967,9.7267,0.007049,6.0731,0.16836,28.61,-80.6,9.7904,0.090391,-1.14E-06,-0.15687,0.001865,14836,0,11.586,0.022922,192.36,148.58,4.2498,0.84708,4.77E+07,0,259.55,0.65578,0.6558,0.30463,0.13787,0.21328,0.013838,0.05917,-3.42E-04,0,0,0,0,-5.28E-07,0.036666,10.3,83.323,88.36,0.0010265,0,11.217,945.45,338.1,0.05,0.24445,949.74
3.387,596.29,284.93,-27.072,284.99,27.074,10.03,0.0012415,10.03,0.007092,6.0628,0.27,28.61,-80.6,9.7903,0.064333,-1.05E-06,0.37021,0.0011554,14836,0,11.586,0.022922,192.42,148.58,4.2555,0.8432,47411288,0,256.37,0.65483,0.65484,0.30485,0.13756,0.21243,0.0098278,0.04143,-1.34E-04,0,0,0,0,2.97E-06,0.036492,10.3,83.323,88.366,0.0038811,0,11.124,943.85,338.04,0.05,0.24636,939.46
3.437,610.5,283.58,-26.859,283.65,26.861,10.333,0.0012867,10.333,0.0071348,6.047,0.34297,28.61,-80.6,9.7903,0.04321,-1.06E-06,0.70209,3.43E-04,14836,0,11.586,0.022922,192.46,148.58,4.2596,0.83935,47134860,0,253.24,0.65389,0.6539,0.30506,0.13725,0.21159,0.0065891,0.028471,-4.28E-04,0,0,0,0,1.08E-05,0.036319,10.3,83.323,88.393,0.0062857,0,11.032,942.26,337.98,0.05,0.24847,929.33
3.487,624.65,282.24,-26.646,282.31,26.652,10.635,0.0013328,10.635,0.0071804,6.0259,0.53155,28.61,-80.6,9.7903,0.0087483,-1.07E-06,-0.83524,0.0061242,14836,0,11.586,0.022922,192.55,148.58,4.2685,0.83553,46861281,0,250.17,0.65297,0.65297,0.30527,0.13694,0.21075,0.0013304,0.0061569,7.51E-05,0,0,0,0,-1.54E-05,0.036148,10.3,83.323,88.433,0.010713,0,10.94,940.68,337.93,0.05,0.25068,919.34
3.537,638.73,280.92,-26.438,280.98,26.447,10.935,0.0013807,10.935,0.0072341,5.9946,0.70198,28.61,-80.6,9.7902,0.056852,-9.55E-07,-0.61609,4.65E-04,14836,0,11.586,0.022922,192.34,148.58,4.2485,0.83174,4.66E+07,0,247.14,0.65206,0.65206,0.30548,0.13664,0.20993,0.0086695,0.037229,1.67E-04,0,0,0,0,-8.46E-06,0.035978,10.3,83.323,88.471,0.017186,0,10.848,939.11,337.87,0.05,0.25278,909.48
3.587,652.74,279.6,-26.236,279.66,26.246,11.234,0.0014316,11.234,0.0073015,5.9578,0.74489,28.61,-80.6,9.7902,0.07154,-9.97E-07,-0.19768,-0.0019085,14836,0,11.586,0.022922,192.26,148.58,4.2403,0.82798,46320862,0,244.16,0.65115,0.65116,0.30568,0.13635,0.20912,0.010915,0.045806,2.82E-04,0,0,0,0,-8.79E-07,0.035809,10.3,83.323,88.491,0.023343,0,10.757,937.54,337.82,0.05,0.25469,899.76
3.637,666.69,278.29,-26.038,278.36,26.049,11.531,0.001487,11.531,0.0073885,5.9204,0.75294,28.61,-80.6,9.7901,0.07574,-1.11E-06,0.25385,-0.0022259,14836,0,11.586,0.022922,192.21,148.58,4.2358,0.82424,46054202,0,241.23,0.65026,0.65027,0.30589,0.13605,0.20832,0.011554,0.04909,-2.39E-04,0,0,0,0,1.46E-06,0.035642,10.3,83.323,88.49,0.027629,0,10.667,935.99,337.76,0.05,0.25778,890.17
3.687,680.57,277,-25.845,277.06,25.854,11.826,0.0015474,11.826,0.0074967,5.8843,0.67493,28.61,-80.6,9.7901,0.055622,-9.71E-07,0.66992,-8.95E-04,14836,0,11.586,0.022922,192.25,148.58,4.2397,0.82054,4.58E+07,0,238.34,0.64938,0.64938,0.30609,0.13576,0.20753,0.0084707,0.036211,-4.51E-04,0,0,0,0,1.03E-05,0.035475,10.3,83.323,88.466,0.023994,0,10.576,934.43,337.71,0.05,0.25976,880.71
3.737,694.39,275.71,-25.657,275.77,25.662,12.12,0.0016117,12.12,0.0076193,5.8542,0.52054,28.61,-80.6,9.79,0.013278,-8.97E-07,0.88659,-0.0035537,14836,0,11.586,0.022922,192.37,148.58,4.2515,0.81685,45527382,0,235.5,0.6485,0.6485,0.30628,0.13548,0.20674,0.0020156,0.0089848,-7.93E-05,0,0,0,0,1.82E-05,0.03531,10.3,83.323,88.426,0.014807,0,10.486,932.89,337.65,0.05,0.26176,871.38
3.787,708.14,274.43,-25.473,274.49,25.475,12.412,0.0016779,12.412,0.0077457,5.8322,0.36273,28.61,-80.6,9.79,0.031321,-8.87E-07,-0.83058,-0.0015779,14836,0,11.586,0.022922,192.28,148.58,4.2422,0.8132,45267211,0,232.7,0.64764,0.64764,0.30648,0.13519,0.20597,0.0047583,0.020625,5.79E-05,0,0,0,0,-1.61E-05,0.035147,10.3,83.323,88.382,0.0041822,0,10.397,931.35,337.6,0.05,0.26448,862.17
3.837,721.83,273.16,-25.291,273.22,25.292,12.703,0.0017437,12.703,0.0078648,5.8176,0.22421,28.61,-80.6,9.79,0.070673,-9.18E-07,-0.52712,-0.0031122,14836,0,11.586,0.022922,192.11,148.58,4.2256,0.80956,45009085,0,229.94,0.64679,0.6468,0.30667,0.13491,0.2052,0.01076,0.045353,-4.38E-04,0,0,0,0,-6.55E-06,0.034984,10.3,83.323,88.347,-0.0067168,0,10.308,929.82,337.55,0.05,0.26638,853.08
3.887,735.46,271.9,-25.109,271.96,25.11,12.994,0.0018065,12.994,0.0079658,5.808,0.18386,28.61,-80.6,9.7899,0.082192,-8.54E-07,-0.068221,-0.0034081,14836,0,11.586,0.022922,192.04,148.58,4.2187,0.80596,44753242,0,227.23,0.64595,0.64596,0.30686,0.13464,0.20444,0.012519,0.052432,2.39E-04,0,0,0,0,-1.11E-07,0.034823,10.3,83.323,88.332,-0.014782,0,10.22,928.3,337.49,0.05,0.26824,844.11
3.937,749.02,270.65,-24.928,270.71,24.929,13.284,0.0018645,13.284,0.0080418,5.7981,0.21882,28.61,-80.6,9.7899,0.071246,-6.72E-07,0.38019,-0.0049763,14836,0,11.586,0.022922,192.05,148.58,4.2196,0.80238,44499486,0,224.56,0.64512,0.64513,0.30705,0.13437,0.2037,0.01084,0.045473,-2.72E-04,0,0,0,0,3.47E-06,0.034663,10.3,83.323,88.34,-0.018839,0,10.131,926.79,337.44,0.05,0.27046,835.25
3.987,762.52,269.41,-24.745,269.47,24.749,13.573,0.0019171,13.573,0.0080925,5.7835,0.39222,28.61,-80.6,9.7898,0.019454,-6.66E-07,0.65946,-0.015174,14836,0,11.586,0.022922,192.2,148.58,4.2348,0.79883,44248294,0,221.93,0.64429,0.6443,0.30724,0.1341,0.20296,0.0029486,0.012239,-1.79E-04,0,0,0,0,1.05E-05,0.034504,10.3,83.323,88.368,-0.014005,0,10.044,925.28,337.39,0.05,0.27689,826.52
4.037,775.96,268.18,-24.568,268.24,24.573,13.862,0.0019658,13.862,0.0081252,5.7607,0.49303,28.61,-80.6,9.7898,0.013291,-6.45E-07,-0.65427,-0.021076,14836,0,11.586,0.022922,192.2,148.58,4.2341,0.7953,43998629,0,219.33,0.64348,0.64348,0.30743,0.13383,0.20223,0.0020129,0.0082564,-4.61E-04,0,0,0,0,-1.05E-05,0.034346,10.3,83.323,88.401,-0.0030281,0,9.9563,923.78,337.33,0.05,0.27903,817.89
4.087,789.34,266.95,-24.393,267.01,24.4,14.149,0.002013,14.149,0.0081515,5.7334,0.60833,28.61,-80.6,9.7898,0.05044,-6.27E-07,-0.48993,-0.0057439,14836,0,11.586,0.022922,192.03,148.58,4.2184,0.7918,43751181,0,216.78,0.64268,0.64268,0.30761,0.13357,0.2015,0.007655,0.032476,3.09E-04,0,0,0,0,-5.92E-06,0.034189,10.3,83.323,88.431,0.0089875,0,9.8693,922.28,337.28,0.05,0.28107,809.38
4.137,802.66,265.74,-24.223,265.8,24.23,14.435,0.0020614,14.435,0.0081822,5.7023,0.6069,28.61,-80.6,9.7897,0.05321,-7.61E-07,-0.18259,-0.0047439,14836,0,11.586,0.022922,192,148.58,4.2147,0.78831,43505265,0,214.27,0.64188,0.64189,0.30779,0.13331,0.20079,0.0080739,0.034518,-1.79E-04,0,0,0,0,-8.30E-07,0.034034,10.3,83.323,88.448,0.020313,0,9.7827,920.79,337.23,0.05,0.28335,800.98
4.187,815.91,264.53,-24.055,264.59,24.063,14.72,0.0021134,14.72,0.0082263,5.6717,0.63453,28.61,-80.6,9.7897,0.063442,-7.45E-07,0.11839,-0.0047739,14836,0,11.586,0.022922,191.93,148.58,4.2085,0.78486,43261784,0,211.79,0.6411,0.6411,0.30797,0.13305,0.20008,0.0096294,0.040431,3.89E-04,0,0,0,0,3.52E-07,0.033879,10.3,83.323,88.449,0.029154,0,9.6966,919.31,337.18,0.05,0.28557,792.68
4.237,829.11,263.33,-23.891,263.39,23.899,15.002,0.0021705,15.002,0.0082893,5.6403,0.60312,28.61,-80.6,9.7896,0.055079,-6.01E-07,0.4505,-0.0063038,14836,0,11.586,0.022922,191.93,148.58,4.2087,0.78142,4.30E+07,0,209.35,0.64032,0.64033,0.30814,0.1328,0.19938,0.0083525,0.035416,-8.78E-05,0,0,0,0,5.15E-06,0.033725,10.3,83.323,88.435,0.033613,0,9.6108,917.84,337.12,0.05,0.28767,784.49
4.287,842.25,262.14,-23.73,262.2,23.737,15.284,0.0022332,15.284,0.008372,5.6114,0.5562,28.61,-80.6,9.7896,0.040755,-6.27E-07,0.70159,-0.0047463,14836,0,11.586,0.022922,191.96,148.58,4.2111,0.77801,42780652,0,206.94,0.63955,0.63956,0.30832,0.13255,0.19869,0.0061724,0.026325,-2.44E-04,0,0,0,0,1.26E-05,0.033573,10.3,83.323,88.406,0.029315,0,9.5254,916.37,337.07,0.05,0.28999,776.41
4.337,855.32,260.96,-23.573,261.02,23.578,15.564,0.0023007,15.564,0.0084699,5.5861,0.44102,28.61,-80.6,9.7895,0.0044743,-6.38E-07,0.83223,-0.041154,14836,0,11.586,0.022922,192.06,148.58,4.2211,0.77462,42542727,0,204.57,0.63879,0.63879,0.30849,0.1323,0.19801,6.76E-04,0.0029902,1.40E-04,0,0,0,0,1.79E-05,0.033421,10.3,83.323,88.367,0.01946,0,9.4404,914.91,337.02,0.05,0.29307,768.42
4.387,868.34,259.78,-23.418,259.84,23.421,15.842,0.002371,15.842,0.0085749,5.5661,0.37634,28.61,-80.6,9.7895,0.017113,-6.47E-07,-0.78559,-0.0035766,14836,0,11.586,0.022922,191.99,148.58,4.2141,0.77126,42306976,0,202.24,0.63804,0.63804,0.30866,0.13205,0.19733,0.002586,0.0107,-1.32E-04,0,0,0,0,-1.61E-05,0.033271,10.3,83.323,88.326,0.0071385,0,9.3558,913.46,336.97,0.05,0.29491,760.54
4.437,881.3,258.62,-23.265,258.67,23.267,16.12,0.0024412,16.12,0.0086768,5.549,0.29699,28.61,-80.6,9.7895,0.043272,-6.73E-07,-0.64053,9.32E-04,14836,0,11.586,0.022922,191.87,148.58,4.2025,0.76792,42072831,0,199.94,0.6373,0.6373,0.30883,0.13181,0.19666,0.0065478,0.027051,4.77E-04,0,0,0,0,-1.08E-05,0.033122,10.3,83.323,88.289,-0.0044255,0,9.2715,912.01,336.92,0.05,0.2969,752.75
4.487,894.2,257.46,-23.112,257.52,23.114,16.397,0.002509,16.397,0.0087669,5.5343,0.31885,28.61,-80.6,9.7894,0.03729,-6.68E-07,-0.417,0.0053387,14836,0,11.586,0.022922,191.87,148.58,4.202,0.7646,41840950,0,197.67,0.63657,0.63657,0.309,0.13157,0.196,0.0056385,0.024046,1.32E-04,0,0,0,0,-4.61E-06,0.032973,10.3,83.323,88.263,-0.010637,0,9.1877,910.57,336.87,0.05,0.29913,745.06
4.537,907.05,256.3,-22.961,256.36,22.963,16.674,0.0025732,16.674,0.0088422,5.5182,0.31022,28.61,-80.6,9.7894,0.040132,-6.11E-07,-0.23651,0.0035389,14836,0,11.586,0.022922,191.83,148.58,4.1986,0.7613,4.16E+07,0,195.44,0.63584,0.63584,0.30916,0.13133,0.19535,0.0060673,0.025567,-1.28E-04,0,0,0,0,-1.50E-06,0.032826,10.3,83.323,88.247,-0.011638,0,9.1042,909.13,336.82,0.05,0.30105,737.46
4.587,919.83,255.16,-22.814,255.22,22.815,16.949,0.0026337,16.949,0.0089029,5.5037,0.2635,28.61,-80.6,9.7894,0.054534,-7.23E-07,-0.0063925,0.003275,14836,0,11.586,0.022922,191.75,148.58,4.1911,0.75801,41381209,0,193.23,0.63512,0.63513,0.30933,0.1311,0.1947,0.0082498,0.03438,3.26E-06,0,0,0,0,0,0.032679,10.3,83.323,88.24,-0.0094724,0,9.0211,907.7,336.77,0.05,0.30308,729.96
4.637,932.56,254.02,-22.665,254.08,22.668,17.224,0.002691,17.224,0.0089516,5.4898,0.3162,28.61,-80.6,9.7893,0.036019,-7.83E-07,0.23313,0.0032103,14836,0,11.586,0.022922,191.79,148.58,4.1951,0.75475,41154142,0,191.05,0.63441,0.63441,0.30949,0.13087,0.19405,0.0054406,0.022963,-2.42E-04,0,0,0,0,1.48E-06,0.032534,10.3,83.323,88.247,-0.002217,0,8.9383,906.28,336.72,0.05,0.30875,722.55
4.687,945.24,252.89,-22.518,252.95,22.522,17.498,0.0027469,17.498,0.0089943,5.4718,0.40479,28.61,-80.6,9.7893,0.0046121,-7.73E-07,0.32954,0.0033464,14836,0,11.586,0.022922,191.88,148.58,4.2037,0.75151,40928889,0,188.91,0.6337,0.6337,0.30965,0.13064,0.19342,6.95E-04,0.0027228,-4.78E-04,0,0,0,0,2.99E-06,0.032389,10.3,83.323,88.261,0.0071609,0,8.856,904.86,336.67,0.05,0.31078,715.23
4.737,957.85,251.77,-22.374,251.83,22.378,17.771,0.0028033,17.771,0.0090382,5.4501,0.45135,28.61,-80.6,9.7892,0.013552,-7.72E-07,-0.30071,3.35E-04,14836,0,11.586,0.022922,191.83,148.58,4.1982,0.74829,40705018,0,186.79,0.63301,0.63301,0.30981,0.13041,0.19279,0.0020426,0.0089434,2.35E-04,0,0,0,0,-2.51E-06,0.032245,10.3,83.323,88.277,0.017702,0,8.774,903.45,336.62,0.05,0.31267,708
4.787,970.41,250.66,-22.234,250.71,22.238,18.043,0.0028625,18.043,0.0090897,5.4278,0.42971,28.61,-80.6,9.7892,0.0088694,-7.72E-07,-0.23829,0.0093169,14836,0,11.586,0.022922,191.82,148.58,4.1975,0.74508,40482380,0,184.7,0.63232,0.63232,0.30996,0.13018,0.19217,0.001336,0.0055981,-2.27E-04,0,0,0,0,-1.59E-06,0.032102,10.3,83.323,88.291,0.028039,0,8.6923,902.05,336.57,0.05,0.31453,700.85
4.837,982.92,249.55,-22.096,249.61,22.099,18.314,0.0029261,18.314,0.0091544,5.4074,0.38295,28.61,-80.6,9.7892,0.0047551,-7.72E-07,0.22474,0.037257,14836,0,11.586,0.022922,191.81,148.58,4.1966,0.74188,40261238,0,182.64,0.63163,0.63163,0.31012,0.12996,0.19155,7.16E-04,0.0028822,4.25E-04,0,0,0,0,1.43E-06,0.03196,10.3,83.323,88.302,0.035024,0,8.611,900.65,336.52,0.05,0.31637,693.79
4.887,995.37,248.45,-21.957,248.5,21.962,18.584,0.0029954,18.584,0.0092351,5.3873,0.44876,28.61,-80.6,9.7891,0.020202,-7.62E-07,-0.21146,0.0095803,14836,0,11.586,0.022922,191.73,148.58,4.1889,0.73872,40042515,0,180.61,0.63096,0.63096,0.31027,0.12974,0.19094,0.0030434,0.012251,-2.36E-04,0,0,0,0,-1.27E-06,0.031819,10.3,83.323,88.314,0.035263,0,8.5301,899.26,336.47,0.05,0.31817,686.82
4.937,1007.8,247.35,-21.822,247.41,21.827,18.853,0.00307,18.853,0.0093302,5.3639,0.46412,28.61,-80.6,9.7891,0.027705,-7.87E-07,-0.085007,0.0073009,14836,0,11.586,0.022922,191.68,148.58,4.184,0.73557,39826962,0,178.62,0.63029,0.63029,0.31043,0.12952,0.19034,0.0041746,0.017323,-4.86E-04,0,0,0,0,-2.08E-07,0.031679,10.3,83.323,88.321,0.027899,0,8.4495,897.92,336.42,0.05,0.3203,679.96
4.987,1020.1,246.26,-21.691,246.32,21.695,19.12,0.0031484,19.12,0.0094345,5.3415,0.42976,28.61,-80.6,9.789,0.017454,-7.74E-07,0.019482,0.0078286,14836,0,11.586,0.022922,191.69,148.58,4.1854,0.73244,39613803,0,176.66,0.62962,0.62963,0.31058,0.12931,0.18974,0.0026274,0.01139,2.42E-04,0,0,0,0,1.10E-08,0.03154,10.3,83.323,88.323,0.015168,0,8.3693,896.61,336.37,0.05,0.32335,673.2
5.037,1032.4,245.18,-21.561,245.24,21.565,19.387,0.003228,19.387,0.0095402,5.3211,0.38755,28.61,-80.6,9.789,0.0038884,-7.69E-07,0.067728,0.01013,14836,0,11.586,0.022922,191.72,148.58,4.1879,0.72933,39402164,0,174.72,0.62897,0.62897,0.31073,0.12909,0.18915,5.85E-04,0.0027718,-4.70E-05,0,0,0,0,1.34E-07,0.031401,10.3,83.323,88.32,0.0035144,0,8.2895,895.3,336.32,0.05,0.32665,666.51
5.087,1044.6,244.11,-21.435,244.17,21.437,19.652,0.0033067,19.652,0.0096406,5.3036,0.30422,28.61,-80.6,9.789,0.024783,-7.45E-07,-0.031082,-0.0033786,14836,0,11.586,0.022922,191.62,148.58,4.1784,0.72622,39191720,0,172.8,0.62832,0.62832,0.31087,0.12888,0.18856,0.0037303,0.01601,-7.69E-05,0,0,0,0,-2.85E-08,0.031264,10.3,83.323,88.317,-0.0044095,0,8.21,894,336.27,0.05,0.32868,659.91
5.137,1056.8,243.04,-21.306,243.1,21.309,19.917,0.0033831,19.917,0.0097322,5.2877,0.36367,28.61,-80.6,9.7889,0.0021166,-7.52E-07,0.053578,-0.017254,14836,0,11.586,0.022922,191.68,148.58,4.1841,0.72315,38983688,0,170.92,0.62768,0.62768,0.31102,0.12867,0.18798,3.18E-04,9.24E-04,3.50E-04,0,0,0,0,8.55E-08,0.031127,10.3,83.323,88.318,-0.0089261,0,8.1308,892.7,336.23,0.05,0.33118,653.38
5.187,1068.9,241.98,-21.18,242.03,21.183,20.181,0.0034563,20.181,0.0098128,5.2682,0.40232,28.61,-80.6,9.7889,0.01367,-7.65E-07,-0.017103,-0.0021449,14836,0,11.586,0.022922,191.62,148.58,4.178,0.7201,38776965,0,169.07,0.62704,0.62704,0.31116,0.12847,0.18741,0.0020549,0.0083377,-3.42E-04,0,0,0,0,-8.79E-09,0.030991,10.3,83.323,88.32,-0.0087956,0,8.052,891.41,336.18,0.05,0.33415,646.93
5.237,1081,240.92,-21.055,240.98,21.06,20.444,0.0035266,20.444,0.0098836,5.2477,0.41583,28.61,-80.6,9.7889,0.020121,-7.71E-07,0.055295,-0.0037461,14836,0,11.586,0.022922,191.57,148.58,4.1736,0.71706,38571555,0,167.23,0.62641,0.62642,0.31131,0.12826,0.18684,0.0030249,0.01247,-4.70E-04,0,0,0,0,9.26E-08,0.030856,10.3,83.323,88.319,-0.0039692,0,7.9735,890.13,336.13,0.05,0.3364,640.55
5.287,1093,239.87,-20.933,239.93,20.937,20.706,0.003595,20.706,0.0099477,5.2266,0.42929,28.61,-80.6,9.7888,0.026352,-7.72E-07,0.15323,-0.004271,14836,0,11.586,0.022922,191.53,148.58,4.1694,0.71404,38367647,0,165.42,0.62579,0.62579,0.31145,0.12806,0.18628,0.0039623,0.016551,1.55E-05,0,0,0,0,7.18E-07,0.030721,10.3,83.323,88.314,0.0049559,0,7.8954,888.85,336.08,0.05,0.34324,634.25
5.337,1105,238.83,-20.813,238.88,20.817,20.967,0.0036629,20.967,0.01001,5.2054,0.40985,28.61,-80.6,9.7888,0.019932,-8.03E-07,0.25703,-0.0059478,14836,0,11.586,0.022922,191.53,148.58,4.1695,0.71104,38164991,0,163.64,0.62518,0.62518,0.31159,0.12786,0.18572,0.0029949,0.012832,2.72E-04,0,0,0,0,2.04E-06,0.030588,10.3,83.323,88.304,0.013675,0,7.8176,887.58,336.04,0.05,0.34565,628.01
5.387,1116.9,237.79,-20.695,237.85,20.698,21.226,0.0037322,21.226,0.010074,5.1856,0.38398,28.61,-80.6,9.7887,0.010615,-8.02E-07,0.31992,-0.014803,14836,0,11.586,0.022922,191.54,148.58,4.1708,0.70805,37963739,0,161.87,0.62456,0.62457,0.31173,0.12766,0.18517,0.0015935,0.0070288,-2.01E-04,0,0,0,0,3.18E-06,0.030455,10.3,83.323,88.289,0.022293,0,7.7401,886.31,335.99,0.05,0.34761,621.85
5.437,1128.8,236.76,-20.578,236.81,20.581,21.485,0.0038041,21.485,0.010145,5.1668,0.36966,28.61,-80.6,9.7887,0.005399,-8.08E-07,0.35017,-0.038609,14836,0,11.586,0.022922,191.54,148.58,4.1706,0.70508,37763975,0,160.14,0.62396,0.62396,0.31187,0.12747,0.18463,8.10E-04,0.0031965,2.24E-04,0,0,0,0,3.85E-06,0.030323,10.3,83.323,88.272,0.029366,0,7.663,885.05,335.94,0.05,0.3495,615.76
5.487,1140.6,235.73,-20.464,235.79,20.466,21.743,0.00388,21.743,0.010224,5.1499,0.2899,28.61,-80.6,9.7887,0.025457,-8.29E-07,-0.32397,-0.006491,14836,0,11.586,0.022922,191.45,148.58,4.1616,0.70212,37565055,0,158.41,0.62336,0.62336,0.312,0.12727,0.18409,0.0038234,0.015707,-1.67E-05,0,0,0,0,-3.32E-06,0.030191,10.3,83.323,88.255,0.034345,0,7.5863,883.79,335.9,0.05,0.35177,609.73
5.537,1152.3,234.71,-20.351,234.77,20.352,22,0.0039604,22,0.010314,5.1367,0.25576,28.61,-80.6,9.7886,0.038602,-8.71E-07,-0.18051,-0.0033791,14836,0,11.586,0.022922,191.38,148.58,4.1551,0.69917,37367712,0,156.72,0.62277,0.62277,0.31214,0.12708,0.18355,0.005801,0.024572,4.87E-04,0,0,0,0,-1.04E-06,0.030061,10.3,83.323,88.242,0.035511,0,7.5098,882.54,335.85,0.05,0.35399,603.77
5.587,1164,233.7,-20.237,233.75,20.239,22.257,0.0040454,22.257,0.010414,5.1232,0.29428,28.61,-80.6,9.7886,0.022719,-8.71E-07,-0.050292,-0.0033017,14836,0,11.586,0.022922,191.42,148.58,4.1586,0.69625,37172114,0,155.04,0.62218,0.62218,0.31227,0.12689,0.18302,0.0034097,0.01453,-4.23E-04,0,0,0,0,-8.14E-08,0.029931,10.3,83.323,88.237,0.033023,0,7.4337,881.3,335.8,0.05,0.35613,597.88
5.637,1175.7,232.69,-20.126,232.74,20.128,22.513,0.0041346,22.513,0.010523,5.1091,0.24809,28.61,-80.6,9.7886,0.039994,-8.46E-07,0.055234,-0.003819,14836,0,11.586,0.022922,191.34,148.58,4.1507,0.69334,36977064,0,153.39,0.6216,0.6216,0.31241,0.1267,0.18249,0.0060077,0.025039,3.87E-04,0,0,0,0,9.91E-08,0.029801,10.3,83.323,88.237,0.028327,0,7.3579,880.06,335.76,0.05,0.35899,592.06
5.687,1187.3,231.68,-20.015,231.74,20.017,22.768,0.0042268,22.768,0.010637,5.0963,0.29119,28.61,-80.6,9.7885,0.021093,-8.77E-07,0.19656,-0.0047203,14836,0,11.586,0.022922,191.39,148.58,4.1554,0.69045,36783871,0,151.76,0.62102,0.62102,0.31254,0.12651,0.18197,0.0031636,0.013098,-8.34E-05,0,0,0,0,1.27E-06,0.029673,10.3,83.323,88.243,0.019633,0,7.2824,878.82,335.71,0.05,0.36119,586.3
5.737,1198.9,230.69,-19.903,230.74,19.907,23.022,0.0043206,23.022,0.010753,5.0791,0.40073,28.61,-80.6,9.7885,0.025662,-8.75E-07,-0.19247,0.0046146,14836,0,11.586,0.022922,191.35,148.58,4.1519,0.68758,36592439,0,150.15,0.62045,0.62046,0.31267,0.12633,0.18146,0.0038492,0.015963,-8.86E-05,0,0,0,0,-1.22E-06,0.029545,10.3,83.323,88.254,0.0097528,0,7.2073,877.59,335.67,0.05,0.36337,580.6
5.787,1210.4,229.69,-19.795,229.75,19.8,23.276,0.0044141,23.276,0.010866,5.0574,0.45319,28.61,-80.6,9.7885,0.049351,-8.46E-07,-0.038876,0.0052531,14836,0,11.586,0.022922,191.25,148.58,4.1418,0.68472,36401915,0,148.56,0.61989,0.61989,0.3128,0.12614,0.18095,0.0074122,0.030543,-1.20E-04,0,0,0,0,-5.04E-08,0.029418,10.3,83.323,88.26,4.00E-04,0,7.1325,876.37,335.62,0.05,0.36559,574.97
5.837,1221.8,228.71,-19.688,228.76,19.694,23.528,0.0045057,23.528,0.010973,5.0338,0.49272,28.61,-80.6,9.7884,0.067386,-7.89E-07,0.17925,0.0055183,14836,0,11.586,0.022922,191.16,148.58,4.1338,0.68188,36212715,0,146.99,0.61933,0.61934,0.31292,0.12596,0.18044,0.01013,0.041601,3.25E-04,0,0,0,0,1.08E-06,0.029292,10.3,83.323,88.256,-0.0076877,0,7.058,875.15,335.58,0.05,0.36767,569.39
5.887,1233.3,227.73,-19.585,227.78,19.589,23.779,0.0045943,23.779,0.01107,5.0108,0.39836,28.61,-80.6,9.7884,0.028838,-8.52E-07,0.38438,0.010745,14836,0,11.586,0.022922,191.28,148.58,4.1453,0.67903,36023843,0,145.43,0.61877,0.61878,0.31305,0.12578,0.17994,0.0043233,0.01749,-4.72E-04,0,0,0,0,5.01E-06,0.029166,10.3,83.323,88.242,-0.010909,0,6.9838,873.93,335.53,0.05,0.36978,563.88
5.937,1244.6,226.75,-19.484,226.8,19.487,24.029,0.0046794,24.029,0.011158,4.9934,0.30898,28.61,-80.6,9.7884,0.0090224,-8.35E-07,-0.41017,0.03497,14836,0,11.586,0.022922,191.33,148.58,4.1504,0.6762,35836297,0,143.9,0.61822,0.61822,0.31318,0.1256,0.17944,0.0013505,0.0055358,4.63E-04,0,0,0,0,-5.75E-06,0.029041,10.3,83.323,88.221,-0.0099384,0,6.91,872.73,335.49,0.05,0.37248,558.43
5.987,1255.9,225.78,-19.383,225.83,19.385,24.278,0.0047612,24.278,0.011236,4.9787,0.29091,28.61,-80.6,9.7883,0.016833,-8.45E-07,-0.35494,0.015681,14836,0,11.586,0.022922,191.29,148.58,4.1459,0.6734,3.57E+07,0,142.38,0.61768,0.61768,0.3133,0.12543,0.17895,0.0025202,0.010308,-3.26E-04,0,0,0,0,-4.35E-06,0.028916,10.3,83.323,88.202,-0.0061425,0,6.8365,871.52,335.44,0.05,0.37556,553.04
6.037,1267.2,224.81,-19.283,224.87,19.285,24.527,0.0048404,24.527,0.011307,4.9648,0.25813,28.61,-80.6,9.7883,0.030925,-8.47E-07,-0.27555,0.0085176,14836,0,11.586,0.022922,191.22,148.58,4.1393,0.6706,35465690,0,140.89,0.61714,0.61714,0.31342,0.12525,0.17846,0.0046333,0.019055,2.00E-04,0,0,0,0,-2.64E-06,0.028793,10.3,83.323,88.186,0.0010635,0,6.7632,870.32,335.4,0.05,0.37786,547.7
6.087,1278.4,223.85,-19.183,223.9,19.185,24.775,0.0049185,24.775,0.011375,4.9522,0.25533,28.61,-80.6,9.7882,0.031796,-8.54E-07,-0.15576,0.005924,14836,0,11.586,0.022922,191.2,148.58,4.1372,0.66783,35282202,0,139.41,0.61661,0.61661,0.31355,0.12508,0.17798,0.004763,0.019509,-1.25E-04,0,0,0,0,-8.51E-07,0.028669,10.3,83.323,88.175,0.0092752,0,6.6903,869.13,335.35,0.05,0.38022,542.42
6.137,1289.6,222.89,-19.086,222.95,19.087,25.022,0.0049966,25.022,0.011441,4.9401,0.21671,28.61,-80.6,9.7882,0.048052,-8.65E-07,-0.023134,0.0040686,14836,0,11.586,0.022922,191.12,148.58,4.1299,0.66506,35099458,0,137.95,0.61607,0.61608,0.31367,0.12491,0.1775,0.0072043,0.029695,-4.08E-04,0,0,0,0,-1.89E-08,0.028547,10.3,83.323,88.171,0.017227,0,6.6177,867.94,335.31,0.05,0.38216,537.2
6.187,1300.7,221.94,-18.987,221.99,18.989,25.269,0.0050762,25.269,0.01151,4.9286,0.26917,28.61,-80.6,9.7882,0.023496,-8.78E-07,0.12314,0.0046428,14836,0,11.586,0.022922,191.19,148.58,4.1367,0.66231,34918492,0,136.51,0.61555,0.61555,0.31379,0.12474,0.17703,0.0035161,0.01462,3.53E-04,0,0,0,0,5.41E-07,0.028425,10.3,83.323,88.173,0.023123,0,6.5454,866.76,335.27,0.05,0.384,532.04
6.237,1311.8,220.99,-18.89,221.05,18.892,25.515,0.0051581,25.515,0.011583,4.9138,0.30984,28.61,-80.6,9.7881,0.0034201,-8.62E-07,0.15897,0.020159,14836,0,11.586,0.022922,191.25,148.58,4.142,0.65958,34738500,0,135.08,0.61503,0.61503,0.31391,0.12457,0.17656,5.11E-04,0.002224,1.97E-04,0,0,0,0,9.10E-07,0.028304,10.3,83.323,88.181,0.026194,0,6.4735,865.58,335.22,0.05,0.38588,526.93
6.287,1322.8,220.05,-18.794,220.11,18.797,25.76,0.0052427,25.76,0.011661,4.8976,0.33733,28.61,-80.6,9.7881,0.011128,-8.60E-07,-0.1493,0.0056852,14836,0,11.586,0.022922,191.2,148.58,4.1377,0.65685,3.46E+07,0,133.67,0.61452,0.61452,0.31402,0.1244,0.17609,0.0016631,0.0072899,3.36E-04,0,0,0,0,-8.10E-07,0.028183,10.3,83.323,88.189,0.026978,0,6.4018,864.41,335.18,0.05,0.38774,521.87
6.337,1333.8,219.11,-18.701,219.17,18.703,26.005,0.0053301,26.005,0.011744,4.8811,0.31137,28.61,-80.6,9.7881,0.0012075,-8.61E-07,-0.11244,0.035638,14836,0,11.586,0.022922,191.22,148.58,4.1395,0.65413,34381198,0,132.28,0.614,0.614,0.31414,0.12424,0.17563,1.80E-04,8.68E-04,7.06E-05,0,0,0,0,-4.63E-07,0.028063,10.3,83.323,88.195,0.025918,0,6.3304,863.24,335.14,0.05,0.38964,516.87
6.387,1344.7,218.18,-18.608,218.24,18.611,26.248,0.0054199,26.248,0.011831,4.8661,0.29392,28.61,-80.6,9.788,0.0051126,-8.61E-07,0.12847,0.0027743,14836,0,11.586,0.022922,191.19,148.58,4.1365,0.65143,34204053,0,130.9,0.6135,0.6135,0.31426,0.12407,0.17517,7.63E-04,0.0031999,3.34E-04,0,0,0,0,6.10E-07,0.027944,10.3,83.323,88.201,0.022596,0,6.2594,862.08,335.09,0.05,0.39198,511.91
6.437,1355.6,217.25,-18.517,217.31,18.519,26.491,0.0055114,26.491,0.01192,4.8516,0.28667,28.61,-80.6,9.788,0.0066652,-8.57E-07,0.14698,-0.0031634,14836,0,11.586,0.022922,191.17,148.58,4.1344,0.64874,34028065,0,129.54,0.61299,0.61299,0.31437,0.12391,0.17471,9.95E-04,0.0039326,-6.52E-05,0,0,0,0,8.05E-07,0.027825,10.3,83.323,88.208,0.016806,0,6.1886,860.92,335.05,0.05,0.39466,507.02
6.487,1366.4,216.33,-18.426,216.38,18.428,26.734,0.0056039,26.734,0.01201,4.8371,0.29615,28.61,-80.6,9.788,3.17E-04,-8.58E-07,0.13695,-0.083561,14836,0,11.586,0.022922,191.18,148.58,4.135,0.64606,33853279,0,128.2,0.6125,0.6125,0.31448,0.12375,0.17426,4.72E-05,-2.55E-04,-1.68E-04,0,0,0,0,7.05E-07,0.027707,10.3,83.323,88.216,0.010637,0,6.1182,859.77,335.01,0.05,0.39662,502.17
6.537,1377.2,215.41,-18.337,215.46,18.339,26.975,0.0056962,26.975,0.012099,4.8229,0.26328,28.61,-80.6,9.7879,0.01406,-8.53E-07,0.17425,-0.0076641,14836,0,11.586,0.022922,191.11,148.58,4.1287,0.64339,33679177,0,126.87,0.612,0.612,0.3146,0.12359,0.17381,0.0020995,0.0087512,2.74E-05,0,0,0,0,1.15E-06,0.027589,10.3,83.323,88.224,0.00486,0,6.048,858.62,334.96,0.05,0.3987,497.37
6.587,1388,214.5,-18.25,214.55,18.251,27.216,0.0057876,27.216,0.012184,4.8114,0.18931,28.61,-80.6,9.7879,0.047761,-8.43E-07,0.26934,-0.0047431,14836,0,11.586,0.022922,190.97,148.58,4.1155,0.64072,33505724,0,125.55,0.61151,0.61152,0.31471,0.12343,0.17337,0.0071461,0.028957,-8.97E-05,0,0,0,0,2.77E-06,0.027472,10.3,83.323,88.235,1.80E-04,0,5.9781,857.48,334.92,0.05,0.40065,492.62
6.637,1398.7,213.59,-18.161,213.64,18.163,27.456,0.0058774,27.456,0.012265,4.8009,0.26918,28.61,-80.6,9.7879,0.00672,-8.55E-07,0.38395,-0.027668,14836,0,11.586,0.022922,191.11,148.58,4.1282,0.63809,33334520,0,124.26,0.61103,0.61103,0.31482,0.12328,0.17293,0.0010025,0.00408,1.23E-04,0,0,0,0,5.68E-06,0.027355,10.3,83.323,88.252,-7.37E-04,0,5.9086,856.34,334.88,0.05,0.40285,487.93
6.687,1409.3,212.68,-18.071,212.73,18.075,27.696,0.0059655,27.696,0.012341,4.7842,0.39562,28.61,-80.6,9.7878,0.058139,-8.60E-07,-0.30255,-0.0038796,14836,0,11.586,0.022922,190.91,148.58,4.1089,0.63548,33164774,0,122.99,0.61055,0.61056,0.31493,0.12312,0.1725,0.0087011,0.035575,2.99E-04,0,0,0,0,-3.56E-06,0.027239,10.3,83.323,88.27,0.0011775,0,5.8393,855.2,334.84,0.05,0.40488,483.28
6.737,1419.9,211.78,-17.984,211.83,17.99,27.935,0.0060523,27.935,0.012414,4.7628,0.44481,28.61,-80.6,9.7878,0.08502,-8.68E-07,-0.063914,-0.0038352,14836,0,11.586,0.022922,190.8,148.58,4.0982,0.63287,32995534,0,121.72,0.61008,0.61009,0.31504,0.12297,0.17207,0.012744,0.052561,2.34E-04,0,0,0,0,-1.60E-07,0.027124,10.3,83.323,88.279,0.0060374,0,5.7703,854.08,334.8,0.05,0.40725,478.67
6.787,1430.5,210.88,-17.9,210.93,17.905,28.172,0.0061385,28.172,0.012484,4.7406,0.43286,28.61,-80.6,9.7878,0.080969,-9.06E-07,0.19954,-0.0049723,14836,0,11.586,0.022922,190.8,148.58,4.0981,0.63027,32826972,0,120.47,0.6096,0.60962,0.31515,0.12282,0.17164,0.012131,0.050013,3.45E-04,0,0,0,0,1.57E-06,0.027009,10.3,83.323,88.276,0.013299,0,5.7017,852.95,334.75,0.05,0.41009,474.12
6.837,1441,209.99,-17.817,210.04,17.822,28.409,0.0062251,28.409,0.012555,4.7196,0.41078,28.61,-80.6,9.7877,0.07083,-9.21E-07,0.43244,-0.004937,14836,0,11.586,0.022922,190.82,148.58,4.1001,0.62768,3.27E+07,0,119.24,0.60914,0.60915,0.31525,0.12267,0.17122,0.010603,0.043416,4.79E-04,0,0,0,0,7.46E-06,0.026894,10.3,83.323,88.26,0.020897,0,5.6333,851.83,334.71,0.05,0.41364,469.61
6.887,1451.5,209.1,-17.737,209.15,17.74,28.644,0.006313,28.644,0.012628,4.7004,0.34763,28.61,-80.6,9.7877,0.038773,-9.44E-07,0.60713,-0.010435,14836,0,11.586,0.022922,190.92,148.58,4.1098,0.6251,32492816,0,118.01,0.60867,0.60868,0.31536,0.12252,0.1708,0.0057905,0.023285,4.16E-04,0,0,0,0,1.48E-05,0.026781,10.3,83.323,88.233,0.027877,0,5.5652,850.72,334.67,0.05,0.41608,465.15
6.937,1461.9,208.21,-17.657,208.27,17.659,28.879,0.0064033,28.879,0.012704,4.6844,0.29639,28.61,-80.6,9.7877,0.011713,-9.67E-07,0.67832,-0.036018,14836,0,11.586,0.022922,191,148.58,4.1178,0.62253,32327275,0,116.8,0.60821,0.60821,0.31546,0.12237,0.17038,0.0017457,0.0070029,-3.60E-04,0,0,0,0,1.87E-05,0.026667,10.3,83.323,88.201,0.033945,0,5.4973,849.61,334.63,0.05,0.4182,460.73
6.987,1472.3,207.33,-17.579,207.39,17.58,29.113,0.0064968,29.113,0.012786,4.6715,0.21378,28.61,-80.6,9.7877,0.032438,-9.55E-07,-0.65648,-0.011936,14836,0,11.586,0.022922,190.91,148.58,4.1092,0.61997,32162401,0,115.6,0.60776,0.60776,0.31557,0.12222,0.16997,0.0048405,0.019709,2.23E-04,0,0,0,0,-1.76E-05,0.026555,10.3,83.323,88.167,0.03696,0,5.4298,848.5,334.59,0.05,0.42023,456.36
7.037,1482.7,206.46,-17.501,206.51,17.501,29.346,0.0065938,29.346,0.012874,4.6625,0.15551,28.61,-80.6,9.7876,0.064079,-1.00E-06,-0.50769,-0.0058578,14836,0,11.586,0.022922,190.78,148.58,4.0969,0.61742,31998601,0,114.42,0.6073,0.60731,0.31567,0.12207,0.16956,0.0095803,0.039276,-1.17E-04,0,0,0,0,-1.06E-05,0.026442,10.3,83.323,88.138,0.036629,0,5.3626,847.4,334.55,0.05,0.4222,452.03
7.087,1493,205.58,-17.423,205.64,17.423,29.579,0.0066941,29.579,0.012967,4.6553,0.13472,28.61,-80.6,9.7876,0.075727,-9.79E-07,-0.30051,-0.005102,14836,0,11.586,0.022922,190.73,148.58,4.0915,0.61489,31835920,0,113.26,0.60686,0.60687,0.31577,0.12193,0.16915,0.011328,0.046475,-4.26E-04,0,0,0,0,-3.76E-06,0.02633,10.3,83.323,88.117,0.033693,0,5.2956,846.31,334.51,0.05,0.42503,447.74
