# Time (s),Altitude (m),Vertical velocity (m/s),Vertical acceleration (m/s²),Total velocity (m/s),Total acceleration (m/s²),Position East of launch (m),Position North of launch (m),Lateral distance (m),Lateral direction (°),Lateral velocity (m/s),Lateral acceleration (m/s²),Latitude (°),Longitude (°),Gravitational acceleration (m/s²),Angle of attack (°),Roll rate (°/s),Pitch rate (°/s),Yaw rate (°/s),Mass (g),Propellant mass (g),Longitudinal moment of inertia (kg·m²),Rotational moment of inertia (kg·m²),CP location (cm),CG location (cm),Stability margin calibers (?),Mach number (?),Reynolds number (?),Thrust (N),Drag force (N),Drag coefficient (?),Axial drag coefficient (?),Friction drag coefficient (?),Pressure drag coefficient (?),Base drag coefficient (?),Normal force coefficient (?),Pitch moment coefficient (?),Yaw moment coefficient (?),Side force coefficient (?),Roll moment coefficient (?),Roll forcing coefficient (?),Roll damping coefficient (?),Pitch damping coefficient (?),Coriolis acceleration (m/s²),Reference length (cm),Reference area (cm²),Vertical orientation (zenith) (°),Lateral orientation (azimuth) (°),Wind velocity (m/s),Air temperature (°C),Air pressure (mbar),Speed of sound (m/s),Simulation time step (s),Computation time (s),Dynamic Pressure (mbar)
0,0,0,25.154,0,25.542,0,0,0,0,0,4.4353,28.61,-80.6,9.7881,80,0,0,0,18166,2663.3,13.153,0.028562,NaN,158.95,NaN,0.021642,1192333,639.11,0.0022342,0.68052,0.008162,0.4557,0.10476,0.12006,NaN,NaN,NaN,NaN,NaN,NaN,NaN,NaN,0,10.3,83.323,80,0,NaN,28.95,999.68,348.84,0.01,0.0041955,0
0.01,0.0012577,0.25154,92.685,0.25542,94.115,2.22E-04,0,2.22E-04,0,0.044353,16.343,28.61,-80.6,9.7881,78.119,0,0,0,18166,2663.3,13.153,0.028562,NaN,158.95,NaN,0.021964,1210093,1884.8,0.0037693,0.67921,0.013369,0.45439,0.10476,0.12006,NaN,NaN,NaN,NaN,NaN,NaN,NaN,NaN,3.28E-05,10.3,83.323,80,0,NaN,28.95,999.68,348.84,0.01,0.0059758,7.52E-04
0.02,0.0084085,1.1787,102.45,1.1969,104.03,0.0014826,0,0.0014826,0,0.20783,18.065,28.61,-80.6,9.7881,71.499,0,0,0,18160,2657.3,13.15,0.028558,NaN,158.93,NaN,0.022855,1259199,2064.3,0.014144,0.67572,0.046329,0.45089,0.10476,0.12007,NaN,NaN,NaN,NaN,NaN,NaN,NaN,NaN,1.54E-04,10.3,83.323,80,0,NaN,28.95,999.67,348.84,0.01,0.0075378,0.016513
0.03,0.025319,2.2036,96.624,2.2376,98.114,0.0044645,0,0.0044645,0,0.38855,17.037,28.61,-80.6,9.7881,64.835,0,0,0,18152,2649.1,13.146,0.028552,NaN,158.9,NaN,0.024147,1330337,1956,0.036114,0.67096,0.10598,0.44612,0.10476,0.12008,NaN,NaN,NaN,NaN,NaN,NaN,NaN,NaN,2.88E-04,10.3,83.323,80,0,NaN,28.95,999.67,348.84,0.01,0.0090773,0.057718
0.04,0.052189,3.1703,96.919,3.2192,98.414,0.0092022,0,0.0092022,0,0.55901,17.089,28.61,-80.6,9.7881,59.242,0,0,0,18142,2639.4,13.141,0.028545,NaN,158.87,NaN,0.025642,1412735,1960.4,0.068073,0.66584,0.17714,0.44099,0.10477,0.12009,NaN,NaN,NaN,NaN,NaN,NaN,NaN,NaN,4.14E-04,10.3,83.323,80,0,NaN,28.95,999.67,348.84,0.01,0.010629,0.11947
0.05,0.088739,4.1399,97.212,4.2038,98.711,0.015647,0,0.015647,0,0.72998,17.141,28.61,-80.6,9.7881,54.293,0,0,0,18133,2629.9,13.137,0.028538,NaN,158.83,NaN,0.027359,1507326,1964.8,0.11132,0.66042,0.25446,0.43555,0.10477,0.1201,NaN,NaN,NaN,NaN,NaN,NaN,NaN,NaN,5.41E-04,10.3,83.323,80,0,NaN,28.949,999.67,348.84,0.01,0.012133,0.20372
0.06,0.135,5.1125,97.504,5.1914,99.009,0.023804,0,0.023804,0,0.90147,17.193,28.61,-80.6,9.7881,50.255,0,0,0,18123,2620.4,13.132,0.028532,NaN,158.79,NaN,0.029539,1627415,1969.2,0.16564,0.65415,0.32482,0.42925,0.10478,0.12011,NaN,NaN,NaN,NaN,NaN,NaN,NaN,NaN,6.68E-04,10.3,83.323,80,0,NaN,28.949,999.67,348.84,0.01,0.013676,0.31068
0.07,0.191,6.088,97.797,6.1819,99.306,0.033679,0,0.033679,0,1.0735,17.244,28.61,-80.6,9.7881,46.775,0,0,0,18114,2611,13.127,0.028525,NaN,158.76,NaN,0.031851,1754780,1973.6,0.23061,0.64811,0.38895,0.42319,0.10478,0.12013,NaN,NaN,NaN,NaN,NaN,NaN,NaN,NaN,7.95E-04,10.3,83.323,80,0,NaN,28.949,999.67,348.84,0.01,0.015326,0.44055
0.08,0.25677,7.0664,98.089,7.1754,99.602,0.045276,0,0.045276,0,1.246,17.296,28.61,-80.6,9.7881,43.766,0,0,0,18104,2601.5,13.123,0.028518,NaN,158.72,NaN,0.03427,1888070,1978,0.3058,0.64237,0.44552,0.41742,0.10479,0.12015,NaN,NaN,NaN,NaN,NaN,NaN,NaN,NaN,9.23E-04,10.3,83.323,80,0,NaN,28.949,999.66,348.84,0.01,0.016872,0.59353
0.09,0.33235,8.0478,98.381,8.1719,99.899,0.058601,0,0.058601,0,1.419,17.347,28.61,-80.6,9.7881,41.151,0,0,0,18095,2592.1,13.118,0.028512,NaN,158.69,NaN,0.036778,2026228,1982.5,0.3908,0.63694,0.49437,0.41197,0.1048,0.12018,NaN,NaN,NaN,NaN,NaN,NaN,NaN,NaN,0.001051,10.3,83.323,80,0,NaN,28.949,999.66,348.84,0.01,0.018399,0.76983
0.1,0.41774,9.032,98.673,9.1713,100.2,0.073659,0,0.073659,0,1.5926,17.399,28.61,-80.6,9.7881,38.866,0,0,0,18085,2582.6,13.113,0.028505,NaN,158.65,NaN,0.039359,2168427,1986.9,0.48526,0.63184,0.53598,0.40683,0.10481,0.1202,NaN,NaN,NaN,NaN,NaN,NaN,NaN,NaN,0.0011795,10.3,83.323,80,0,NaN,28.948,999.66,348.84,0.01,0.02007,0.96964
0.11,0.513,10.019,98.965,10.174,100.49,0.090456,0,0.090456,0,1.7667,17.45,28.61,-80.6,9.7881,36.45,0,0,0,18076,2573.2,13.109,0.028499,NaN,158.62,NaN,0.041686,2296630,1991.3,0.58851,0.62759,0.57948,0.40255,0.10482,0.12023,NaN,NaN,NaN,NaN,NaN,NaN,NaN,NaN,0.0013084,10.3,83.323,80,0,NaN,28.948,999.65,348.84,0.01,0.021755,1.1932
0.12,0.61814,11.009,99.256,11.179,100.79,0.10899,0,0.10899,0,1.9412,17.502,28.61,-80.6,9.7881,34.287,0,0,0,18066,2563.7,13.104,0.028492,NaN,158.58,NaN,0.044087,2428867,1995.7,0.70008,0.62352,0.61632,0.39844,0.10483,0.12025,NaN,NaN,NaN,NaN,NaN,NaN,NaN,NaN,0.0014377,10.3,83.323,80,0,NaN,28.948,999.65,348.84,0.01,0.023327,1.4406
0.13,0.7332,12.002,99.548,12.187,101.08,0.12928,0,0.12928,0,2.1163,17.553,28.61,-80.6,9.7881,32.344,0,0,0,18057,2554.3,13.099,0.028485,NaN,158.55,NaN,0.04655,2564599,2000.1,0.81952,0.61963,0.64712,0.39451,0.10484,0.12028,NaN,NaN,NaN,NaN,NaN,NaN,NaN,NaN,0.0015674,10.3,83.323,80,0,NaN,28.947,999.64,348.84,0.01,0.024954,1.7122
0.14,0.8582,12.998,99.839,13.199,101.38,0.15132,0,0.15132,0,2.2919,17.604,28.61,-80.6,9.7881,30.593,0,0,0,18047,2544.8,13.094,0.028479,NaN,158.51,NaN,0.04907,2703384,2004.6,0.94646,0.61592,0.67259,0.39076,0.10485,0.12031,NaN,NaN,NaN,NaN,NaN,NaN,NaN,NaN,0.0016975,10.3,83.323,80,0,NaN,28.947,999.64,348.84,0.01,0.026994,2.0082
0.15,0.99318,13.997,100.11,14.213,101.65,0.17512,0,0.17512,0,2.4681,17.652,28.61,-80.6,9.7881,29.01,0,0,0,18038,2535.4,13.09,0.028472,NaN,158.47,NaN,0.051638,2844852,2008.6,1.0806,0.61238,0.69342,0.38718,0.10486,0.12035,NaN,NaN,NaN,NaN,NaN,NaN,NaN,NaN,0.0018279,10.3,83.323,80,0,NaN,28.946,999.63,348.84,0.01,0.028799,2.3287
0.16,1.1382,14.999,100.24,15.23,101.79,0.20069,0,0.20069,0,2.6446,17.676,28.61,-80.6,9.7881,27.053,0,0,0,18028,2525.8,13.085,0.028465,NaN,158.44,NaN,0.053874,2968029,2010.2,1.2176,0.60948,0.71786,0.38423,0.10487,0.12038,NaN,NaN,NaN,NaN,NaN,NaN,NaN,NaN,0.0019587,10.3,83.323,80,0,NaN,28.946,999.63,348.84,0.01,0.030861,2.6738
0.17,1.2932,16.001,100.36,16.248,101.91,0.22802,0,0.22802,0,2.8215,17.696,28.61,-80.6,9.7881,25.252,0,0,0,18019,2516.1,13.08,0.028458,NaN,158.4,NaN,0.056171,3094589,2011.3,1.3588,0.60666,0.73691,0.38137,0.10488,0.12041,NaN,NaN,NaN,NaN,NaN,NaN,NaN,NaN,0.0020897,10.3,83.323,80,0,NaN,28.945,999.62,348.84,0.01,0.032599,3.0433
0.18,1.4582,17.006,100.48,17.268,102.03,0.25712,0,0.25712,0,2.9985,17.717,28.61,-80.6,9.7881,23.593,0,0,0,18009,2506.2,13.075,0.028451,NaN,158.36,NaN,0.058523,3224134,2012.5,1.5034,0.60392,0.75114,0.37858,0.10489,0.12045,NaN,NaN,NaN,NaN,NaN,NaN,NaN,NaN,0.0022208,10.3,83.323,80,0,NaN,28.945,999.61,348.84,0.01,0.035098,3.4372
0.19,1.6333,18.011,100.59,18.289,102.15,0.28799,0,0.28799,0,3.1758,17.737,28.61,-80.6,9.7881,22.062,0,0,0,17999,2496.3,13.07,0.028445,NaN,158.33,NaN,0.060923,3356342,2013.7,1.6509,0.60127,0.76113,0.37588,0.1049,0.12048,NaN,NaN,NaN,NaN,NaN,NaN,NaN,NaN,0.0023521,10.3,83.323,80,0,NaN,28.944,999.61,348.84,0.01,0.037086,3.8556
0.2,1.8184,19.017,100.71,19.311,102.26,0.32063,0,0.32063,0,3.3532,17.758,28.61,-80.6,9.7881,20.647,0,0,0,17989,2486.5,13.065,0.028438,NaN,158.29,NaN,0.063367,3490938,2014.8,1.8008,0.59871,0.76742,0.37327,0.10492,0.12052,NaN,NaN,NaN,NaN,NaN,NaN,NaN,NaN,0.0024835,10.3,83.323,80,0,NaN,28.944,999.6,348.84,0.01,0.039352,4.2985
0.21,2.0136,20.025,100.83,20.334,102.38,0.35505,0,0.35505,0,3.5309,17.778,28.61,-80.6,9.7881,19.682,0,0,0,17979,2476.6,13.06,0.028431,NaN,158.25,NaN,0.066074,3.64E+06,2016,1.9615,0.59602,0.76885,0.37051,0.10493,0.12057,NaN,NaN,NaN,NaN,NaN,NaN,NaN,NaN,0.0026151,10.3,83.323,80,0,NaN,28.943,999.59,348.84,0.01,0.042848,4.766
0.22,2.2189,21.033,100.94,21.358,102.5,0.39125,0,0.39125,0,3.7088,17.799,28.61,-80.6,9.7881,18.792,0,0,0,17969,2466.8,13.055,0.028424,NaN,158.21,NaN,0.068801,3790286,2017.2,2.1266,0.59345,0.76878,0.36788,0.10495,0.12062,NaN,NaN,NaN,NaN,NaN,NaN,NaN,NaN,0.0027468,10.3,83.323,80,0,NaN,28.942,999.58,348.84,0.01,0.04512,5.2582
0.23,2.4343,22.043,101.06,22.383,102.62,0.42923,0,0.42923,0,3.8868,17.819,28.61,-80.6,9.7881,17.969,0,0,0,17960,2456.9,13.051,0.028417,NaN,158.18,NaN,0.071547,3941543,2018.4,2.2959,0.59099,0.76749,0.36536,0.10497,0.12067,NaN,NaN,NaN,NaN,NaN,NaN,NaN,NaN,0.0028787,10.3,83.323,80,0,NaN,28.942,999.57,348.84,0.01,0.047174,5.7752
0.24,2.6598,23.054,101.17,23.41,102.73,0.46899,0,0.46899,0,4.0651,17.839,28.61,-80.6,9.7881,17.206,0,0,0,17950,2447.1,13.046,0.02841,NaN,158.14,NaN,0.07431,4093727,2019.5,2.4692,0.58864,0.7652,0.36294,0.10499,0.12072,NaN,NaN,NaN,NaN,NaN,NaN,NaN,NaN,0.0030107,10.3,83.323,80,0,NaN,28.941,999.56,348.84,0.01,0.048986,6.3171
0.25,2.8954,24.067,101.29,24.438,102.85,0.51053,0,0.51053,0,4.2436,17.86,28.61,-80.6,9.7881,16.497,0,0,0,17940,2437.2,13.041,0.028403,NaN,158.1,NaN,0.077088,4246760,2020.7,2.6457,0.58639,0.76186,0.36061,0.105,0.12077,NaN,NaN,NaN,NaN,NaN,NaN,NaN,NaN,0.0031429,10.3,83.323,80,0,NaN,28.94,999.55,348.84,0.01,0.051108,6.8839
0.26,3.1411,25.08,101.4,25.467,102.97,0.55386,0,0.55386,0,4.4223,17.88,28.61,-80.6,9.7881,16.257,0,0,0,17930,2427.4,13.036,0.028396,NaN,158.06,NaN,0.080168,4416363,2021.9,2.8477,0.58402,0.75825,0.35816,0.10503,0.12084,NaN,NaN,NaN,NaN,NaN,NaN,NaN,NaN,0.0032752,10.3,83.323,80,0,NaN,28.939,999.54,348.84,0.01,0.054221,7.4757
0.27,3.397,26.094,101.52,26.497,103.08,0.59898,0,0.59898,0,4.6011,17.9,28.61,-80.6,9.7881,16.034,0,0,0,17920,2417.5,13.031,0.028389,NaN,158.02,NaN,0.083251,4586211,2023.1,3.0564,0.58177,0.75467,0.35582,0.10505,0.1209,NaN,NaN,NaN,NaN,NaN,NaN,NaN,NaN,0.0034077,10.3,83.323,80,0,NaN,28.938,999.53,348.84,0.01,0.056444,8.0927
0.28,3.663,27.11,101.63,27.528,103.2,0.64589,0,0.64589,0,4.7802,17.92,28.61,-80.6,9.7881,15.827,0,0,0,17910,2407.6,13.026,0.028382,NaN,157.99,NaN,0.08634,4756295,2024.2,3.2719,0.57962,0.75113,0.35357,0.10507,0.12097,NaN,NaN,NaN,NaN,NaN,NaN,NaN,NaN,0.0035403,10.3,83.323,80,0,NaN,28.937,999.52,348.83,0.01,0.059667,8.7348
0.29,3.9392,28.127,101.74,28.561,103.31,0.69458,0,0.69458,0,4.9595,17.94,28.61,-80.6,9.7881,15.633,0,0,0,17900,2397.8,13.021,0.028375,NaN,157.95,NaN,0.089432,4926611,2025.4,3.4942,0.57756,0.74765,0.35143,0.1051,0.12104,NaN,NaN,NaN,NaN,NaN,NaN,NaN,NaN,0.0036731,10.3,83.323,80,0,NaN,28.936,999.51,348.83,0.01,0.061386,9.4022
0.3,4.2255,29.145,101.86,29.594,103.43,0.74508,0,0.74508,0,5.139,17.96,28.61,-80.6,9.7881,15.452,0,0,0,17891,2387.9,13.016,0.028368,NaN,157.91,NaN,0.092529,5097150,2026.6,3.7233,0.5756,0.74425,0.34937,0.10512,0.12111,NaN,NaN,NaN,NaN,NaN,NaN,NaN,NaN,0.003806,10.3,83.323,80,0,NaN,28.935,999.49,348.83,0.01,0.063247,10.095
0.31,4.5221,30.164,101.97,30.629,103.54,0.79737,0,0.79737,0,5.3187,17.98,28.61,-80.6,9.7881,15.069,0,0,0,17881,2378.1,13.011,0.028361,NaN,157.87,NaN,0.095463,5258737,2027.8,3.9395,0.57383,0.73981,0.3475,0.10515,0.12118,NaN,NaN,NaN,NaN,NaN,NaN,NaN,NaN,0.0039391,10.3,83.323,80,0,NaN,28.934,999.48,348.83,0.01,0.065303,10.813
0.32,4.8288,31.184,102.08,31.665,103.66,0.85145,0,0.85145,0,5.4985,18,28.61,-80.6,9.7881,14.709,0,0,0,17871,2368.2,13.006,0.028354,NaN,157.84,NaN,0.098404,5420717,2028.9,4.1601,0.57212,0.73524,0.34569,0.10517,0.12126,NaN,NaN,NaN,NaN,NaN,NaN,NaN,NaN,0.0040723,10.3,83.323,80,0,NaN,28.933,999.47,348.83,0.01,0.067218,11.557
0.33,5.1458,32.205,102.2,32.702,103.78,0.90734,0,0.90734,0,5.6786,18.02,28.61,-80.6,9.7881,14.369,0,0,0,17861,2358.4,13.001,0.028348,NaN,157.8,NaN,0.10135,5583073,2030.1,4.3851,0.57047,0.73059,0.34394,0.1052,0.12134,NaN,NaN,NaN,NaN,NaN,NaN,NaN,NaN,0.0042057,10.3,83.323,80,0,NaN,28.932,999.45,348.83,0.01,0.069035,12.326
0.34,5.4729,33.227,102.26,33.74,103.89,0.96502,0,0.96502,0,5.8589,18.32,28.61,-80.6,9.7881,14.048,0,0,0,17851,2348.5,12.996,0.028341,164.55,157.76,0.65935,0.10431,5745788,2031.6,4.6147,0.56889,0.7259,0.34225,0.10523,0.12141,3.9639,2.6138,2.09E-04,0,0,0,0,0,0.0043392,10.3,83.323,80,0,NaN,28.931,999.44,348.83,0.015,0.07127,13.121
0.355,5.9828,34.762,102.44,35.299,104.07,1.055,4.67E-08,1.055,2.54E-06,6.1335,18.313,28.61,-80.6,9.7881,13.528,0,0.11943,6.48E-06,17839,2336.2,12.989,0.028332,165.02,157.71,0.70936,0.10869,5987188,2033.8,4.9579,0.56665,0.71827,0.33985,0.10527,0.12154,3.7515,2.6609,1.03E-04,0,0,0,0,1.75E-05,0.0045398,10.3,83.323,79.999,-2.71E-07,NaN,28.93,999.42,348.83,0.0225,0.072992,14.362
0.3775,6.791,37.07,102.7,37.643,104.33,1.1976,2.98E-07,1.1976,1.43E-05,6.5458,18.349,28.61,-80.6,9.7881,12.6,0,0.3215,-2.50E-06,17820,2317.7,12.98,0.028319,165.9,157.64,0.80186,0.11511,6340838,2037.1,5.4548,0.56359,0.70456,0.33654,0.10533,0.12172,3.3849,2.7143,6.14E-05,0,0,0,0,1.13E-04,0.0048413,10.3,83.323,79.994,-3.53E-07,NaN,28.927,999.38,348.83,0.03375,0.074665,16.332
0.41125,8.1006,40.541,103.09,41.17,104.72,1.429,1.11E-06,1.429,4.46E-05,7.166,18.421,28.61,-80.6,9.7881,11.392,0,0.67565,-2.59E-05,17793,2290,12.966,0.028299,167.15,157.53,0.93391,0.12484,6876361,2042,6.2324,0.5594,0.68448,0.33193,0.10544,0.12203,2.9301,2.7359,4.15E-04,0,0,0,0,4.24E-04,0.0052949,10.3,83.323,79.978,2.05E-06,NaN,28.922,999.33,348.83,0.05,0.076389,19.534
0.46125,10.257,45.707,103.65,46.417,105.3,1.8104,3.37E-06,1.8104,1.07E-04,8.0899,18.559,28.61,-80.6,9.7881,9.9898,0,1.3117,-6.97E-05,17751,2248.7,12.945,0.02827,168.77,157.37,1.1071,0.1395,7683154,2047.9,7.4868,0.5539,0.6586,0.32576,0.10561,0.12253,2.4358,2.6958,8.81E-05,0,0,0,0,0.0012791,0.0059698,10.3,83.323,79.928,2.19E-05,NaN,28.915,999.24,348.82,0.05,0.078444,24.83
0.51125,12.672,50.901,104.21,51.694,105.88,2.2381,7.03E-06,2.2381,1.80E-04,9.0209,18.714,28.61,-80.6,9.7881,9.0475,0,2.0851,-1.01E-04,17702,2199.5,12.919,0.028236,169.99,157.18,1.2434,0.15452,8510152,2053.7,8.9179,0.5491,0.63941,0.32019,0.10581,0.1231,2.1243,2.6391,6.82E-05,0,0,0,0,0.0026343,0.0066485,10.3,83.323,79.844,5.03E-05,NaN,28.907,999.13,348.82,0.05,0.080149,30.793
0.56125,15.347,56.122,104.75,56.999,106.44,2.7126,1.23E-05,2.7126,2.59E-04,9.9612,18.943,28.61,-80.6,9.7881,8.2938,0,3.0056,-1.23E-04,17653,2150.2,12.894,0.028201,171.03,156.98,1.364,0.16974,9347436,2059.6,10.495,0.54495,0.62372,0.31517,0.10603,0.12375,1.8871,2.5693,2.52E-04,0,0,0,0,0.0045361,0.0073309,10.3,83.323,79.717,8.70E-05,NaN,28.898,999.02,348.81,0.05,0.083004,37.435
0.61125,18.285,61.369,105.25,62.333,107.02,3.2345,1.93E-05,3.2345,3.42E-04,10.917,19.387,28.61,-80.6,9.7881,7.3272,0,4.068,-1.10E-04,17604,2100.9,12.868,0.028166,172.49,156.79,1.5239,0.18477,10174513,2065.5,12.081,0.54142,0.60593,0.31071,0.10627,0.12444,1.5985,2.4295,7.62E-05,0,0,0,0,0.007013,0.0080171,10.3,83.323,79.541,1.38E-04,NaN,28.888,998.89,348.8,0.05,0.084961,44.764
0.66125,21.485,66.64,105.7,67.695,107.6,3.8049,2.83E-05,3.8049,4.25E-04,11.905,20.126,28.61,-80.6,9.7881,6.026,0,5.2017,3.28E-05,17554,2051.6,12.842,0.028132,174.66,156.59,1.7541,0.19949,10983728,2071.3,13.591,0.53843,0.58493,0.30674,0.10652,0.12517,1.2382,2.1617,-4.38E-04,0,0,0,0,0.0098374,0.0087071,10.3,83.323,79.31,1.68E-04,NaN,28.877,998.75,348.8,0.05,0.087053,52.792
0.71125,24.949,71.934,106.15,73.086,108.17,4.4256,3.94E-05,4.4256,5.10E-04,12.926,20.764,28.61,-80.6,9.7881,5.4782,0,6.4166,1.90E-04,17505,2002.3,12.816,0.028097,175.67,156.4,1.8718,0.21505,11839427,2077.2,15.525,0.53571,0.57502,0.30289,0.10681,0.12601,1.0965,2.0391,-3.16E-04,0,0,0,0,0.012882,0.009401,10.3,83.323,79.02,1.68E-04,NaN,28.865,998.6,348.79,0.05,0.08902,61.528
0.76125,28.679,77.249,106.57,78.504,108.73,5.0981,5.28E-05,5.0981,5.93E-04,13.982,21.566,28.61,-80.6,9.7881,4.9357,0,7.7487,1.47E-04,17456,1953.1,12.79,0.028063,176.74,156.2,1.9943,0.23072,12700929,2083.1,17.587,0.53336,0.56599,0.29932,0.10712,0.12692,0.96185,1.902,1.94E-04,0,0,0,0,0.016321,0.010099,10.3,83.323,78.666,1.66E-04,NaN,28.853,998.45,348.78,0.05,0.090734,70.981
0.81125,32.675,82.583,106.91,83.951,109.3,5.8247,6.87E-05,5.8247,6.75E-04,15.089,22.76,28.61,-80.6,9.788,3.9461,0,9.0958,4.62E-04,17406,1903.8,12.764,0.028028,178.83,156,2.2165,0.24596,13538211,2089,19.531,0.53141,0.55319,0.2961,0.10745,0.12786,0.7307,1.5999,3.02E-04,0,0,0,0,0.019789,0.0108,10.3,83.323,78.244,1.77E-04,NaN,28.839,998.27,348.78,0.05,0.092354,81.161
0.86125,36.937,87.933,107.2,89.424,109.87,6.6081,8.72E-05,6.6081,7.56E-04,16.26,24.097,28.61,-80.6,9.788,3.0715,0,10.344,7.83E-04,17357,1854.5,12.738,0.027993,180.87,155.8,2.4348,0.26141,14386783,2094.8,21.668,0.52973,0.54342,0.29305,0.1078,0.12888,0.54237,1.2983,-1.42E-04,0,0,0,0,0.022659,0.011506,10.3,83.323,77.758,1.69E-04,NaN,28.825,998.09,348.77,0.05,0.094163,92.077
0.91125,41.468,93.298,107.46,94.924,110.43,7.4518,1.09E-04,7.4518,8.34E-04,17.496,25.475,28.61,-80.6,9.788,2.4832,0,11.536,0.0010763,17308,1805.2,12.711,0.027959,182.38,155.59,2.6007,0.27731,1.53E+07,2100.7,24.111,0.52829,0.53745,0.29011,0.10819,0.13,0.42419,1.0784,-7.49E-05,0,0,0,0,0.025045,0.012215,10.3,83.323,77.211,1.54E-04,NaN,28.81,997.9,348.76,0.05,0.095876,103.74
0.96125,46.268,98.672,107.62,100.45,111,8.3592,1.33E-04,8.3592,9.10E-04,18.813,27.201,28.61,-80.6,9.788,1.5339,0,12.482,0.0020364,17259,1756,12.685,0.027924,185.03,155.39,2.8776,0.29281,16110697,2106.6,26.543,0.52714,0.53077,0.28741,0.10859,0.13115,0.24769,0.68668,-1.04E-04,0,0,0,0,0.026299,0.012928,10.3,83.323,76.609,1.49E-04,NaN,28.793,997.69,348.75,0.05,0.097513,116.15
1.0113,51.336,104.05,107.76,106,111.56,9.3345,1.60E-04,9.3345,9.84E-04,20.212,28.87,28.61,-80.6,9.788,0.96127,0,13.211,0.0037546,17209,1706.7,12.658,0.027889,186.8,155.19,3.069,0.30889,16993142,2112.4,29.358,0.52619,0.52764,0.28476,0.10902,0.1324,0.14983,0.43307,-4.61E-04,0,0,0,0,0.026476,0.013645,10.3,83.323,75.966,1.41E-04,NaN,28.776,997.47,348.74,0.05,0.10135,129.31
1.0613,56.673,109.44,107.79,111.57,112.12,10.382,1.91E-04,10.382,0.0010547,21.707,30.873,28.61,-80.6,9.788,0.065281,0,-13.416,0.059265,17160,1657.4,12.631,0.027855,189.82,154.98,3.3825,0.32435,17840984,2118.3,32.231,0.52549,0.52549,0.28235,0.10946,0.13368,0.0095995,0.057263,-3.77E-04,0,0,0,0,-0.024764,0.014365,10.3,83.323,75.297,1.75E-04,NaN,28.758,997.24,348.73,0.05,0.10331,143.24
1.1113,62.28,114.83,107.4,117.17,112.19,11.507,2.26E-04,11.507,0.0011234,23.291,32.439,28.61,-80.6,9.788,0.39084,0,-13.222,0.010117,17111,1608.1,12.604,0.02782,188.72,154.77,3.2962,0.34087,18746529,2116.2,35.569,0.52496,0.5252,0.27989,0.10996,0.13511,0.058775,0.21518,1.76E-05,0,0,0,0,-0.021781,0.015089,10.3,83.323,74.63,2.98E-04,NaN,28.739,997,348.71,0.05,0.10512,157.94
1.1613,68.156,120.2,106.5,122.76,111.8,12.713,2.64E-04,12.713,0.0011909,24.958,34.017,28.61,-80.6,9.7879,0.91514,0,-12.65,0.0042443,17061,1558.6,12.577,0.027785,187.04,154.57,3.1529,0.35703,19631594,2106.3,39.066,0.52464,0.52596,0.2776,0.11047,0.13657,0.14248,0.46774,4.05E-04,0,0,0,0,-0.018175,0.015814,10.3,83.323,73.981,4.47E-04,NaN,28.719,996.75,348.7,0.05,0.10693,173.35
1.2113,74.298,125.52,105.59,128.33,111.4,14.004,3.07E-04,14.004,0.0012577,26.704,35.526,28.61,-80.6,9.7879,1.3652,0,-11.573,0.0025361,17011,1508.8,12.549,0.02775,185.69,154.35,3.0423,0.37312,20513193,2096.5,42.774,0.52451,0.5274,0.27541,0.111,0.1381,0.21879,0.67957,9.18E-06,0,0,0,0,-0.013928,0.016536,10.3,83.323,73.374,5.31E-04,NaN,28.699,996.49,348.69,0.05,0.10887,189.39
1.2613,80.706,130.79,104.71,133.87,110.99,15.384,3.56E-04,15.384,0.0013242,28.517,36.807,28.61,-80.6,9.7879,1.6282,0,-10.12,0.0024073,16962,1459,12.521,0.027715,184.95,154.14,2.9915,0.38935,21401412,2086.6,46.671,0.52457,0.52862,0.2733,0.11156,0.13971,0.26537,0.80406,-2.46E-05,0,0,0,0,-0.0097805,0.017255,10.3,83.323,72.83,6.32E-04,NaN,28.677,996.21,348.68,0.05,0.11078,206.06
1.3113,87.377,136.03,103.77,139.38,110.57,16.857,4.09E-04,16.857,0.0013908,30.4,38.169,28.61,-80.6,9.7879,2.1124,0,-8.09,0.00217,16912,1409.1,12.493,0.02768,183.63,153.93,2.8837,0.40489,22251116,2076.7,50.727,0.52478,0.53147,0.27135,0.11212,0.14131,0.35467,1.029,3.06E-04,0,0,0,0,-0.0057807,0.017971,10.3,83.323,72.372,7.90E-04,NaN,28.654,995.93,348.66,0.05,0.11251,223.33
1.3613,94.308,141.21,102.99,144.87,110.13,18.425,4.69E-04,18.425,0.001458,32.337,39.015,28.61,-80.6,9.7879,2.2529,0,-5.5852,0.0017996,16862,1359.3,12.465,0.027645,183.29,153.71,2.8715,0.42077,23119023,2066.9,54.895,0.52515,0.53272,0.26942,0.11272,0.14302,0.38166,1.0982,4.87E-04,0,0,0,0,-0.0025514,0.018685,10.3,83.323,72.029,9.98E-04,NaN,28.631,995.63,348.65,0.05,0.11426,241.21
1.4113,101.5,146.36,102.28,150.33,109.66,20.091,5.35E-04,20.091,0.0015266,34.31,39.557,28.61,-80.6,9.7878,2.3432,5.06E-07,-2.7099,0.0012798,16812,1309.5,12.437,0.02761,183.09,153.5,2.8731,0.43639,23972327,2056.9,59.151,0.52566,0.53382,0.26758,0.11332,0.14476,0.39933,1.1482,2.07E-04,0,0,0,0,-5.58E-04,0.019396,10.3,83.323,71.82,0.0011668,NaN,28.607,995.32,348.63,0.05,0.11605,259.69
1.4613,108.94,151.48,101.61,155.77,108.99,21.856,6.09E-04,21.856,0.001597,36.296,39.44,28.61,-80.6,9.7878,2.1793,0,0.37611,0.0015496,16763,1259.9,12.409,0.027575,183.57,153.28,2.9409,0.45217,24834210,2044,63.442,0.52632,0.53344,0.26578,0.11396,0.14658,0.36812,1.0828,-1.93E-04,0,0,0,0,1.00E-05,0.020105,10.3,83.323,71.761,0.0013504,NaN,28.581,995,348.62,0.05,0.11796,278.76
1.5113,116.65,156.58,101.06,161.18,108.18,23.72,6.91E-04,23.72,0.0016696,38.257,38.602,28.61,-80.6,9.7878,1.7332,7.03E-07,3.2698,0.0019007,16714,1211.2,12.381,0.027541,184.86,153.06,3.0866,0.46823,25710608,2029.5,67.788,0.52714,0.53173,0.264,0.11464,0.1485,0.28532,0.88003,3.66E-04,0,0,0,0,7.06E-04,0.020809,10.3,83.323,71.854,0.0016575,NaN,28.555,994.67,348.6,0.05,0.11999,298.38
1.5613,124.6,161.64,100.61,166.56,107.35,25.681,7.82E-04,25.681,0.0017453,40.167,37.438,28.61,-80.6,9.7878,1.2772,1.00E-06,5.6852,0.0018508,16666,1163.4,12.353,0.027507,186.24,152.85,3.2419,0.48399,2.66E+07,2015.1,72.249,0.52807,0.53062,0.2623,0.11532,0.15045,0.20465,0.66151,-4.52E-04,0,0,0,0,0.0019988,0.021509,10.3,83.323,72.08,0.0019807,NaN,28.528,994.33,348.59,0.05,0.12274,318.55
1.6113,132.81,166.69,100.21,171.9,106.5,27.736,8.83E-04,27.736,0.0018249,42.016,36.063,28.61,-80.6,9.7877,0.85426,6.64E-07,7.5956,0.002358,16618,1115.5,12.325,0.027474,187.61,152.64,3.3948,0.49935,27406422,2000.6,76.831,0.52911,0.53027,0.26068,0.11601,0.15242,0.1334,0.44969,-3.69E-04,0,0,0,0,0.003352,0.022204,10.3,83.323,72.415,0.0023934,NaN,28.501,993.98,348.57,0.05,0.12459,339.22
1.6613,141.27,171.72,99.923,177.21,105.61,29.881,9.96E-04,29.881,0.001909,43.781,34.203,28.61,-80.6,9.7877,0.21444,7.30E-07,8.6016,0.0058398,16570,1067.6,12.297,0.02744,189.79,152.43,3.6276,0.51507,28262211,1986.2,81.729,0.5303,0.53037,0.25907,0.11674,0.15449,0.032153,0.11227,3.35E-04,0,0,0,0,0.0040407,0.022894,10.3,83.323,72.824,0.0028468,NaN,28.472,993.62,348.55,0.05,0.12639,360.4
1.7113,149.98,176.73,99.592,182.49,104.72,32.112,0.0011199,32.112,0.0019982,45.452,32.353,28.61,-80.6,9.7877,0.34349,6.99E-07,-8.406,0.0015645,16522,1019.7,12.269,0.027406,189.4,152.21,3.6107,0.5305,29101586,1971.7,86.895,0.53158,0.53177,0.25751,0.11748,0.15659,0.051994,0.19099,3.69E-04,0,0,0,0,-0.0036382,0.023579,10.3,83.323,73.254,0.0032891,NaN,28.443,993.24,348.54,0.05,0.12935,382.06
1.7613,158.94,181.73,99.15,187.72,103.8,34.424,0.0012574,34.424,0.0020928,47.037,30.723,28.61,-80.6,9.7877,0.718,5.57E-07,-7.2209,-1.76E-04,16475,971.88,12.241,0.027373,188.21,151.99,3.5163,0.54546,29914794,1957,92.175,0.53293,0.53377,0.25604,0.11822,0.15868,0.11146,0.3947,-1.84E-04,0,0,0,0,-0.0025397,0.024258,10.3,83.323,73.649,0.0037377,NaN,28.412,992.86,348.52,0.05,0.1314,404.17
1.8113,168.15,186.7,98.569,192.91,102.8,36.814,0.0014091,36.814,0.002193,48.541,29.174,28.61,-80.6,9.7876,1.0667,4.80E-07,-5.0806,-0.001459,16428,925.26,12.213,0.02734,187.17,151.78,3.4353,0.56053,30732874,1941.1,97.745,0.53441,0.53622,0.25458,0.11898,0.16085,0.16946,0.58327,-2.21E-04,0,0,0,0,-0.0011907,0.02493,10.3,83.323,73.96,0.0042309,NaN,28.381,992.46,348.5,0.05,0.13442,426.7
1.8613,177.61,191.64,97.802,198.05,101.77,39.277,0.001576,39.277,0.002299,49.98,28.155,28.61,-80.6,9.7876,1.2176,-3.03E-07,-2.2109,-0.0015781,16383,880.79,12.187,0.027309,186.77,151.58,3.4164,0.57528,31533191,1925.2,103.32,0.53595,0.53831,0.25317,0.11975,0.16302,0.19543,0.66772,-9.63E-05,0,0,0,0,-2.14E-04,0.025596,10.3,83.323,74.144,0.0046734,NaN,28.349,992.06,348.48,0.05,0.13696,449.62
1.9113,187.32,196.54,96.854,203.14,100.75,41.811,0.0017592,41.811,0.0024107,51.382,27.753,28.61,-80.6,9.7876,1.1908,0,1.0091,-4.71E-04,16340,837.2,12.161,0.027278,186.92,151.38,3.4506,0.58983,32321586,1909.2,108.87,0.53757,0.53983,0.25181,0.12054,0.16523,0.19101,0.65894,-3.04E-04,0,0,0,0,4.24E-05,0.026255,10.3,83.323,74.175,0.0049192,NaN,28.316,991.64,348.46,0.05,0.13875,472.88
1.9613,197.26,201.38,95.745,208.18,99.731,44.415,0.0019591,44.415,0.0025272,52.782,27.912,28.61,-80.6,9.7875,1.0394,7.40E-07,4.0865,-4.84E-04,16296,793.62,12.134,0.027247,187.46,151.18,3.5228,0.60438,33097380,1893.3,114.45,0.5393,0.54104,0.25048,0.12134,0.16749,0.16532,0.58166,-2.36E-04,0,0,0,0,6.63E-04,0.026908,10.3,83.323,74.047,0.0048189,NaN,28.239,990.68,348.41,0.05,0.14052,496.28
2.0113,207.45,206.17,94.546,213.17,98.69,47.09,0.0021754,47.09,0.002647,54.19,28.3,28.61,-80.6,9.7875,0.91505,0,7.1232,6.06E-04,16253,750.03,12.108,0.027217,187.93,150.97,3.5884,0.61936,33892697,1877.3,120.39,0.54118,0.54254,0.24913,0.12219,0.16987,0.14457,0.51716,3.83E-04,0,0,0,0,0.0019186,0.027554,10.3,83.323,73.766,0.0045802,NaN,28.148,989.56,348.36,0.05,0.14223,519.92
2.0613,217.88,210.88,93.012,218.1,97.698,49.835,0.0024079,49.835,0.0027684,55.652,29.896,28.61,-80.599,9.7875,0.35921,-3.52E-07,9.122,0.0019473,16209,706.44,12.082,0.027186,189.84,150.77,3.7935,0.63315,34620788,1861.3,125.82,0.54301,0.54322,0.24791,0.12299,0.17211,0.054826,0.20514,3.51E-05,0,0,0,0,0.0030118,0.028194,10.3,83.323,73.353,0.0042577,NaN,28.055,988.41,348.3,0.05,0.14388,543.8
2.1113,228.54,215.52,91.431,222.98,96.689,52.656,0.0026557,52.656,0.0028898,57.196,31.45,28.61,-80.599,9.7874,0.12809,-3.58E-07,-9.4432,0.0094739,16166,662.86,12.055,0.027155,190.73,150.57,3.8993,0.64713,35357422,1845.4,131.7,0.54494,0.54497,0.24668,0.12382,0.17444,0.019276,0.078168,-1.95E-04,0,0,0,0,-0.0030907,0.028827,10.3,83.323,72.882,0.0038636,NaN,27.96,987.24,348.24,0.05,0.15519,567.91
2.1613,239.43,220.08,89.886,227.81,95.653,55.556,0.0029179,55.556,0.0030093,58.808,32.711,28.61,-80.599,9.7874,0.46654,-4.25E-07,-8.3646,0.0034891,16122,619.27,12.028,0.027125,189.65,150.36,3.8145,0.66133,36104470,1829.4,137.98,0.54699,0.54735,0.24545,0.12468,0.17686,0.071865,0.27637,-2.11E-04,0,0,0,0,-0.0023227,0.029454,10.3,83.323,72.432,0.0034887,NaN,27.863,986.04,348.18,0.05,0.15785,592.22
2.2113,250.54,224.57,88.354,232.57,94.615,58.538,0.0031934,58.538,0.0031257,60.483,33.846,28.61,-80.599,9.7874,0.78228,-9.32E-07,-6.0065,0.0016544,16078,575.69,12.001,0.027094,188.69,150.15,3.7417,0.6751,36825852,1813.4,144.31,0.54905,0.55007,0.24427,0.12553,0.17925,0.12309,0.46138,-9.80E-05,0,0,0,0,-0.0011498,0.030075,10.3,83.323,72.067,0.003235,NaN,27.763,984.82,348.12,0.05,0.15949,616.69
2.2613,261.88,228.98,86.94,237.28,93.566,61.605,0.0034816,61.605,0.0032381,62.205,34.583,28.61,-80.599,9.7873,1.0157,0,-2.4603,0.0010007,16035,532.1,11.974,0.027063,188.03,149.94,3.6979,0.68841,37520620,1797.5,150.62,0.55113,0.55283,0.24314,0.12638,0.18161,0.16235,0.60066,-2.68E-04,0,0,0,0,-1.86E-04,0.030688,10.3,83.323,71.851,0.003093,NaN,27.662,983.57,348.06,0.049593,0.16284,641.3
2.3108,273.35,233.29,85.821,241.89,92.49,64.733,0.0037797,64.733,0.0033454,63.933,34.484,28.61,-80.599,9.7873,1.0532,-5.00E-07,1.847,2.00E-04,15991,488.69,11.947,0.027033,188,149.74,3.7151,0.70142,38196875,1782.3,156.79,0.55323,0.55506,0.24205,0.12722,0.18396,0.16893,0.62746,3.40E-04,0,0,0,0,1.01E-04,0.03129,10.3,83.323,71.835,0.0031488,NaN,27.56,982.31,348,0.045687,0.16458,665.85
2.3565,284.09,237.22,85.239,246.09,91.462,67.689,0.0040649,67.689,0.0034408,65.489,33.159,28.61,-80.599,9.7873,0.76368,-1.25E-06,5.4375,-0.0013347,15950,447.17,11.921,0.027004,189.01,149.54,3.8326,0.71381,38841067,1767,162.54,0.5553,0.55628,0.24101,0.12804,0.18624,0.12042,0.46111,1.39E-04,0,0,0,0,8.44E-04,0.031838,10.3,83.323,72.005,0.0033866,NaN,27.464,981.13,347.94,0.05,0.16673,688.58
2.4065,296.06,241.49,84.716,250.64,90.187,71.004,0.0043896,71.004,0.0035421,67.102,30.933,28.61,-80.599,9.7872,0.28828,-3.85E-07,7.8395,-0.0052276,15908,405.46,11.895,0.026974,190.7,149.33,4.0165,0.72735,39542407,1751.1,168.99,0.55763,0.55777,0.23989,0.12896,0.18877,0.04415,0.1752,2.58E-04,0,0,0,0,0.0016897,0.032431,10.3,83.323,72.345,0.0038531,NaN,27.357,979.81,347.88,0.05,0.16841,713.58
2.4565,308.24,245.75,84.308,255.14,88.944,74.397,0.0047288,74.397,0.0036418,68.592,28.341,28.61,-80.599,9.7872,0.26875,-7.00E-07,-7.8151,-0.0094844,15865,361.87,11.867,0.026944,190.87,149.12,4.0534,0.74093,40244371,1735.1,175.87,0.56004,0.56016,0.23878,0.12989,0.19137,0.041161,0.16865,3.04E-05,0,0,0,0,-0.0016188,0.033016,10.3,83.323,72.747,0.0047794,NaN,27.248,978.47,347.81,0.05,0.17031,738.67
2.5065,320.64,249.98,83.691,259.58,87.735,77.862,0.0050851,77.862,0.003742,69.966,26.328,28.61,-80.599,9.7872,0.61367,-1.23E-06,-5.5818,-0.0047483,15821,318.29,11.839,0.026913,189.79,148.91,3.9698,0.75384,40907617,1719.1,182.73,0.5624,0.56305,0.23773,0.1308,0.19388,0.096209,0.38272,4.99E-04,0,0,0,0,-7.98E-04,0.033593,10.3,83.323,73.089,0.0058784,NaN,27.138,977.11,347.74,0.05,0.17173,763.84
2.5565,333.24,254.17,82.891,263.97,86.528,81.392,0.005462,81.392,0.003845,71.249,24.823,28.61,-80.599,9.7871,0.8466,0,-1.7067,-0.0039611,15777,274.7,11.812,0.026882,189.13,148.69,3.9262,0.76683,41573422,1704,189.82,0.56485,0.56607,0.23667,0.13173,0.19644,0.13485,0.52909,8.65E-05,0,0,0,0,-7.21E-05,0.034161,10.3,83.323,73.277,0.0068919,NaN,27.025,975.72,347.68,0.045123,0.17347,789.04
2.6017,344.79,257.91,80.035,267.88,83.587,84.632,0.005822,84.632,0.0039415,72.369,24.106,28.61,-80.599,9.7871,0.79094,6.61E-07,2.3207,-0.0027136,15736,233.24,11.785,0.026853,189.4,148.49,3.9721,0.77809,42147147,1657.6,195.87,0.56702,0.56809,0.23577,0.13255,0.1987,0.12569,0.49902,-1.72E-04,0,0,0,0,1.30E-04,0.034667,10.3,83.323,73.262,0.007366,NaN,26.922,974.45,347.61,0.046425,0.18324,811.78
2.6481,356.85,261.62,73.108,271.75,76.707,88.018,0.0062133,88.018,0.0040445,73.51,23.217,28.61,-80.599,9.7871,0.53793,2.29E-06,5.8118,-0.0030983,15698,195.31,11.76,0.026827,190.32,148.3,4.0802,0.78915,42708035,1547.4,201.78,0.56921,0.56971,0.23488,0.13337,0.20096,0.084222,0.34306,-2.01E-04,0,0,0,0,7.90E-04,0.03517,10.3,83.323,73.069,0.0073634,NaN,26.814,973.12,347.55,0.05,0.1889,834.61
2.6981,370.02,265.25,61.488,275.57,65.107,91.724,0.0066576,91.724,0.0041587,74.706,21.404,28.61,-80.599,9.787,0.19888,2.08E-06,7.9716,1.18E-04,15664,161.69,11.738,0.026803,191.58,148.13,4.2184,0.80032,43269366,1373.9,207.88,0.57147,0.57154,0.234,0.13421,0.20327,0.030503,0.12729,-3.54E-04,0,0,0,0,0.0014464,0.035665,10.3,83.323,72.717,0.0067006,NaN,26.697,971.67,347.48,0.05,0.1907,857.27
2.7481,383.36,268.3,49.342,278.81,53.037,95.486,0.0071228,95.486,0.004274,75.818,19.45,28.61,-80.599,9.787,0.16189,2.24E-06,-8.0551,0.0042888,15639,136.42,11.722,0.026785,191.79,148,4.2511,0.80993,43744977,1187,213.31,0.57346,0.57351,0.23324,0.13494,0.20528,0.024797,0.10725,3.59E-04,0,0,0,0,-0.0014426,0.036087,10.3,83.323,72.307,0.0057021,NaN,26.578,970.2,347.4,0.05,0.19226,876.6
2.7981,396.84,270.75,37.251,281.44,41.059,99.302,0.0076047,99.302,0.0043878,76.831,17.267,28.61,-80.599,9.7869,0.49325,1.35E-06,-5.9652,0.0010686,15619,116.61,11.709,0.026771,190.71,147.9,4.1558,0.81762,44115505,1000.2,217.8,0.57509,0.57551,0.23265,0.13554,0.2069,0.077238,0.32168,-3.19E-04,0,0,0,0,-7.77E-04,0.036431,10.3,83.323,71.948,0.0046965,NaN,26.457,968.72,347.33,0.05,0.1946,892.22
2.8481,410.42,272.61,25.44,283.47,29.194,103.17,0.0080988,103.17,0.0044978,77.719,14.32,28.61,-80.599,9.7869,0.66558,0,-2.2317,3.23E-04,15599,96.787,11.696,0.026757,190.18,147.8,4.1143,0.82355,4.44E+07,817.73,221.25,0.57636,0.57714,0.2322,0.136,0.20817,0.10543,0.43358,-2.09E-04,0,0,0,0,-1.07E-04,0.036697,10.3,83.323,71.739,0.0040963,NaN,26.336,967.23,347.26,0.047693,0.19624,904.07
2.8958,423.46,273.83,14.89,284.83,18.127,106.89,0.0085786,106.89,0.0045984,78.397,10.339,28.61,-80.599,9.7868,0.54,6.64E-07,1.5148,-6.48E-04,15580,77.427,11.683,0.026744,190.64,147.7,4.1682,0.82806,44589147,635.23,223.63,0.57735,0.57786,0.23186,0.13635,0.20914,0.084906,0.35403,1.77E-04,0,0,0,0,4.89E-05,0.036876,10.3,83.323,71.725,0.0041021,NaN,26.22,965.79,347.19,0.05,0.19795,911.79
2.9458,437.17,274.57,3.4278,285.68,6.7089,110.82,0.0090898,110.82,0.0046995,78.893,5.7671,28.61,-80.599,9.7868,0.36073,0,4.467,-3.88E-04,15561,58.066,11.671,0.02673,191.27,147.6,4.2391,0.83059,44678735,448.42,224.76,0.57792,0.57816,0.23169,0.13655,0.20968,0.056091,0.23726,-1.85E-04,0,0,0,0,4.23E-04,0.036989,10.3,83.323,71.879,0.0047949,NaN,26.097,964.28,347.11,0.05,0.19972,916.16
2.9958,450.9,274.75,-7.6484,285.92,7.7163,114.77,0.0096109,114.77,0.0047979,79.156,1.0217,28.61,-80.599,9.7868,0.09084,8.57E-07,5.9609,-0.0059633,15541,38.248,11.658,0.026716,192.22,147.5,4.3414,0.83132,44671518,261.6,224.79,0.57812,0.57813,0.23166,0.13661,0.20984,0.013882,0.059184,6.81E-05,0,0,0,0,7.51E-04,0.037023,10.3,83.323,72.147,0.0061294,NaN,25.975,962.77,347.04,0.05,0.20153,916.68
3.0458,464.63,274.38,-16.628,285.57,16.911,118.73,0.010145,118.73,0.0048954,79.179,3.0794,28.61,-80.599,9.7867,0.21887,1.05E-06,-5.5199,-0.0047789,15521,18.43,11.644,0.026702,191.76,147.4,4.3065,0.83044,44577586,108.58,223.92,0.57796,0.57805,0.23177,0.13654,0.20965,0.033724,0.14557,-4.92E-05,0,0,0,0,-6.46E-04,0.036978,10.3,83.323,72.442,0.0075317,NaN,25.852,961.26,346.97,0.05,0.20339,913.37
3.0958,478.32,273.56,-19.99,284.74,20.602,122.69,0.010693,122.69,0.0049936,79.004,4.984,28.61,-80.599,9.7867,0.43574,4.25E-07,-3.3271,-0.0037509,15508,5.2109,11.636,0.026693,190.99,147.33,4.2383,0.82809,44404516,48.456,222.22,0.5775,0.57783,0.232,0.13635,0.20914,0.068061,0.28905,-3.64E-04,0,0,0,0,-2.36E-04,0.03687,10.3,83.323,72.669,0.0089666,NaN,25.73,959.76,346.89,0.05,0.20507,906.96
3.1458,491.98,272.56,-22.563,283.71,23.319,126.63,0.011258,126.63,0.0050938,78.751,5.892,28.61,-80.599,9.7866,0.47071,2.02E-06,-0.32892,-0.0028174,15504,1.2141,11.633,0.02669,190.84,147.31,4.2262,0.82499,44192146,4.0505,219.99,0.57688,0.57727,0.23229,0.13611,0.20848,0.073663,0.31172,3.67E-04,0,0,0,0,-2.33E-06,0.036738,10.3,83.323,72.761,0.0097992,NaN,25.608,958.25,346.82,0.05,0.2287,899.4
3.1958,505.58,271.43,-22.773,282.55,23.44,130.56,0.011841,130.56,0.0051963,78.465,5.5519,28.61,-80.599,9.7866,0.37266,2.10E-06,2.4226,-0.0026613,15503,0.2639,11.632,0.026689,191.15,147.31,4.2563,0.82156,43962395,0,217.51,0.57619,0.57643,0.2326,0.13584,0.20774,0.057933,0.24612,1.64E-04,0,0,0,0,1.27E-04,0.036588,10.3,83.323,72.706,0.0099994,NaN,25.487,956.76,346.74,0.05,0.23058,891.01
3.2458,519.12,270.3,-22.715,281.38,23.321,134.48,0.012441,134.48,0.0053007,78.194,5.2809,28.61,-80.599,9.7866,0.30147,1.81E-06,4.5724,7.89E-04,15503,0,11.632,0.026689,191.37,147.31,4.2781,0.81877,43767702,0,215.46,0.57564,0.5758,0.23286,0.13562,0.20715,0.046639,0.19876,-4.17E-05,0,0,0,0,4.57E-04,0.036437,10.3,83.323,72.529,0.009283,NaN,25.366,955.27,346.67,0.05,0.23254,882.65
3.2958,532.61,269.16,-22.681,280.22,23.223,138.38,0.013056,138.38,0.005406,77.936,4.99,28.61,-80.599,9.7865,0.21533,1.46E-06,6.2136,0.0077523,15503,0,11.632,0.026689,191.65,147.31,4.3053,0.81636,43593407,0,213.65,0.57517,0.57525,0.2331,0.13544,0.20664,0.033119,0.14161,7.30E-05,0,0,0,0,8.49E-04,0.036287,10.3,83.323,72.257,0.0081037,NaN,25.245,953.78,346.6,0.05,0.2348,874.37
3.3458,546.04,268.02,-22.866,279.06,23.202,142.27,0.013684,142.27,0.0055107,77.712,3.9398,28.61,-80.599,9.7865,0.094273,1.45E-06,-6.6179,0.021447,15503,0,11.632,0.026689,192.05,147.31,4.3443,0.81316,43377822,0,211.39,0.57455,0.57456,0.23339,0.13519,0.20596,0.014381,0.063587,1.66E-04,0,0,0,0,-9.71E-04,0.036139,10.3,83.323,71.928,0.0071092,NaN,25.125,952.3,346.52,0.05,0.23654,866.17
3.3958,559.41,266.88,-23.085,277.91,23.257,146.15,0.01432,146.15,0.0056137,77.544,2.8251,28.61,-80.599,9.7864,0.42062,2.24E-06,-4.994,0.0051345,15503,0,11.632,0.026689,190.89,147.31,4.2309,0.80972,43149357,0,209.14,0.57387,0.57418,0.23371,0.13493,0.20523,0.065506,0.27756,5.12E-05,0,0,0,0,-5.58E-04,0.035991,10.3,83.323,71.63,0.0065246,NaN,25.006,950.83,346.45,0.05,0.23994,858.06
3.4458,572.72,265.72,-23.103,276.77,23.224,150.03,0.014963,150.03,0.0057146,77.417,2.3616,28.61,-80.598,9.7864,0.55435,1.08E-06,-1.9546,0.0044789,15503,0,11.632,0.026689,190.41,147.31,4.1845,0.80658,42937572,0,207.06,0.57326,0.5738,0.23401,0.13469,0.20457,0.08704,0.36418,3.62E-05,0,0,0,0,-8.62E-05,0.035845,10.3,83.323,71.453,0.0065077,NaN,24.887,949.37,346.38,0.05,0.24251,850.03
3.4958,585.98,264.57,-22.914,275.63,23.049,153.89,0.015614,153.89,0.0058132,77.298,2.497,28.61,-80.598,9.7863,0.50984,1.26E-06,1.3107,0.0058132,15503,0,11.632,0.026689,190.53,147.31,4.1966,0.80352,42730768,0,204.93,0.57268,0.57313,0.23429,0.13445,0.20393,0.079801,0.33471,-3.35E-04,0,0,0,0,3.91E-05,0.0357,10.3,83.323,71.438,0.0072509,NaN,24.769,947.91,346.31,0.05,0.24414,842.09
3.5458,599.18,263.43,-22.533,274.5,22.759,157.76,0.016273,157.76,0.0059104,77.157,3.2009,28.61,-80.598,9.7863,0.28967,2.00E-06,3.744,0.010354,15503,0,11.632,0.026689,191.26,147.31,4.2675,0.80063,42533673,0,202.85,0.57213,0.57228,0.23456,0.13423,0.20333,0.044691,0.19051,1.89E-05,0,0,0,0,3.21E-04,0.035555,10.3,83.323,71.57,0.0086928,NaN,24.651,946.46,346.24,0.05,0.24597,834.25
3.5958,612.32,262.31,-22.195,273.38,22.508,161.61,0.016945,161.61,0.0060075,76.983,3.7422,28.61,-80.598,9.7863,0.10194,1.77E-06,4.8973,0.029973,15503,0,11.632,0.026689,191.9,147.31,4.3289,0.79725,4.23E+07,0,200.55,0.57149,0.5715,0.23488,0.13398,0.20263,0.015531,0.066398,-3.49E-05,0,0,0,0,5.54E-04,0.035411,10.3,83.323,71.791,0.01041,NaN,24.534,945.01,346.17,0.05,0.24773,826.51
3.6458,625.41,261.21,-21.75,272.26,22.256,165.45,0.017631,165.45,0.0061057,76.772,4.7174,28.61,-80.598,9.7862,0.22306,1.67E-06,-4.5489,0.0079155,15503,0,11.632,0.026689,191.44,147.31,4.2851,0.79444,42118333,0,198.68,0.57096,0.57105,0.23515,0.13377,0.20205,0.034245,0.14685,-6.35E-07,0,0,0,0,-4.82E-04,0.035268,10.3,83.323,72.035,0.011916,NaN,24.417,943.57,346.1,0.05,0.24977,818.86
3.6958,638.45,260.14,-21.452,271.16,22.08,169.29,0.018336,169.29,0.006206,76.522,5.2309,28.61,-80.598,9.7862,0.40271,2.30E-06,-2.6781,0.0029245,15503,0,11.632,0.026689,190.8,147.31,4.2223,0.7913,41908779,0,196.67,0.57037,0.57065,0.23544,0.13353,0.2014,0.062524,0.26419,-4.24E-04,0,0,0,0,-1.68E-04,0.035125,10.3,83.323,72.219,0.012948,NaN,24.3,942.14,346.02,0.05,0.25183,811.3
3.7458,651.43,259.07,-21.281,270.06,21.94,173.1,0.01906,173.1,0.0063086,76.256,5.3342,28.61,-80.598,9.7861,0.45392,3.37E-06,-0.17808,0.002548,15503,0,11.632,0.026689,190.6,147.31,4.2029,0.78811,41697636,0,194.61,0.56978,0.57014,0.23574,0.13329,0.20075,0.070683,0.29732,7.32E-05,0,0,0,0,-7.51E-07,0.034983,10.3,83.323,72.292,0.013033,NaN,24.185,940.71,345.95,0.05,0.2538,803.83
3.7958,664.35,258.01,-21.219,268.96,21.821,176.91,0.019802,176.91,0.0064133,75.994,5.0899,28.61,-80.598,9.7861,0.39351,2.03E-06,2.2661,0.0031838,15503,0,11.632,0.026689,190.78,147.31,4.2205,0.78501,41491287,0,192.57,0.5692,0.56948,0.23603,0.13306,0.20011,0.06102,0.25716,-2.21E-04,0,0,0,0,1.23E-04,0.034842,10.3,83.323,72.238,0.012258,NaN,24.069,939.29,345.88,0.05,0.25594,796.44
3.8458,677.23,256.95,-21.185,267.88,21.723,180.7,0.020561,180.7,0.0065191,75.746,4.8038,28.61,-80.598,9.7861,0.30994,1.85E-06,4.2603,0.0080632,15503,0,11.632,0.026689,191.05,147.31,4.2463,0.78231,41306584,0,190.75,0.56871,0.56888,0.23629,0.13286,0.19956,0.04779,0.20273,-4.43E-04,0,0,0,0,4.37E-04,0.034702,10.3,83.323,72.073,0.01077,NaN,23.954,937.87,345.82,0.05,0.25777,789.13
3.8958,690.05,255.88,-21.343,266.8,21.689,184.49,0.021331,184.49,0.0066247,75.528,3.8615,28.61,-80.598,9.786,0.01147,1.72E-06,5.1844,0.23119,15503,0,11.632,0.026689,192.07,147.31,4.346,0.77898,41089386,0,188.59,0.5681,0.5681,0.2366,0.13262,0.19889,0.001734,0.0066814,7.32E-05,0,0,0,0,6.52E-04,0.034563,10.3,83.323,71.83,0.0090049,NaN,23.84,936.46,345.75,0.05,0.25929,781.9
3.9458,702.82,254.81,-21.393,265.72,21.654,188.26,0.022109,188.26,0.0067289,75.349,3.3554,28.61,-80.598,9.786,0.15813,1.91E-06,-4.7414,0.021122,15503,0,11.632,0.026689,191.53,147.31,4.2932,0.77625,40906549,0,186.85,0.56761,0.56766,0.23686,0.13242,0.19833,0.024128,0.10383,-2.61E-04,0,0,0,0,-5.50E-04,0.034425,10.3,83.323,71.578,0.0075903,NaN,23.726,935.11,345.68,0.05,0.26087,774.79
3.9958,715.53,253.74,-21.535,264.65,21.683,192.02,0.022892,192.02,0.0068306,75.202,2.5337,28.61,-80.598,9.786,0.42284,1.85E-06,-3.1506,0.0075686,15503,0,11.632,0.026689,190.58,147.31,4.2015,0.77286,40689403,0,184.84,0.567,0.56731,0.23718,0.13217,0.19765,0.065611,0.27599,-2.55E-04,0,0,0,0,-2.45E-04,0.034288,10.3,83.323,71.375,0.0069044,NaN,23.612,933.77,345.61,0.05,0.26234,767.75
4.0458,728.19,252.66,-21.561,263.58,21.66,195.78,0.023678,195.78,0.0069294,75.089,2.0622,28.61,-80.598,9.7859,0.56894,1.58E-06,-0.43324,0.0078578,15503,0,11.632,0.026689,190.06,147.31,4.151,0.76949,40473921,0,182.85,0.56639,0.56695,0.23749,0.13192,0.19698,0.089078,0.36963,-1.35E-04,0,0,0,0,-4.67E-06,0.034152,10.3,83.323,71.282,0.007337,NaN,23.499,932.44,345.54,0.05,0.26394,760.78
4.0958,740.8,251.59,-21.335,262.53,21.464,199.53,0.024467,199.53,0.0070257,74.98,2.3521,28.61,-80.598,9.7859,0.46646,1.79E-06,2.3847,0.010258,15503,0,11.632,0.026689,190.39,147.31,4.1823,0.7666,40283877,0,181,0.56588,0.56626,0.23777,0.13171,0.1964,0.072536,0.30274,-1.07E-04,0,0,0,0,1.43E-04,0.034017,10.3,83.323,71.333,0.0089498,NaN,23.387,931.11,345.47,0.05,0.26559,753.89
4.1458,753.35,250.53,-20.975,261.47,21.195,203.28,0.025263,203.28,0.0071208,74.846,3.052,28.61,-80.598,9.7858,0.21822,2.13E-06,4.2213,0.018813,15503,0,11.632,0.026689,191.22,147.31,4.2633,0.76387,40102596,0,179.21,0.5654,0.56548,0.23803,0.13152,0.19585,0.033387,0.14234,-1.32E-04,0,0,0,0,4.51E-04,0.033882,10.3,83.323,71.504,0.011391,NaN,23.275,929.79,345.4,0.05,0.26724,747.07
4.1958,765.85,249.49,-20.643,260.43,20.966,207.01,0.026072,207.01,0.0072161,74.678,3.6665,28.61,-80.598,9.7858,0.016772,2.06E-06,-4.7362,0.21674,15503,0,11.632,0.026689,191.91,147.31,4.3304,0.76087,39907814,0,177.36,0.56487,0.56487,0.23831,0.1313,0.19526,0.0025317,0.011965,4.81E-04,0,0,0,0,-5.72E-04,0.033748,10.3,83.323,71.733,0.013966,NaN,23.163,928.47,345.34,0.05,0.26868,740.34
4.2458,778.3,248.47,-20.284,259.39,20.764,210.74,0.026898,210.74,0.0073129,74.475,4.4387,28.61,-80.598,9.7858,0.30481,2.13E-06,-3.8969,0.0077358,15503,0,11.632,0.026689,190.87,147.31,4.2298,0.75819,3.97E+07,0,175.76,0.56441,0.56457,0.23857,0.13111,0.19473,0.04687,0.19846,3.27E-04,0,0,0,0,-3.90E-04,0.033615,10.3,83.323,71.955,0.016014,NaN,23.052,927.15,345.27,0.05,0.27016,733.69
4.2958,790.7,247.46,-20.005,258.36,20.617,214.46,0.027744,214.46,0.0074122,74.238,4.9869,28.61,-80.598,9.7857,0.50867,1.69E-06,-1.7696,0.0018298,15503,0,11.632,0.026689,190.16,147.31,4.1603,0.75552,39553039,0,174.22,0.56395,0.5644,0.23883,0.13092,0.19421,0.079229,0.32973,-1.51E-04,0,0,0,0,-8.10E-05,0.033481,10.3,83.323,72.101,0.017147,NaN,22.941,925.85,345.2,0.05,0.27184,727.11
4.3458,803.04,246.46,-19.959,257.33,20.508,218.17,0.028612,218.17,0.0075143,73.994,4.7138,28.61,-80.598,9.7857,0.43759,1.64E-06,0.69159,7.05E-04,15503,0,11.632,0.026689,190.37,147.31,4.1812,0.7522,39342419,0,172.24,0.56338,0.56371,0.23914,0.13068,0.19355,0.067826,0.28383,1.78E-04,0,0,0,0,1.25E-05,0.033349,10.3,83.323,72.126,0.017237,NaN,22.831,924.54,345.13,0.05,0.27404,720.59
4.3958,815.34,245.47,-19.956,256.31,20.421,221.86,0.029502,221.86,0.0076188,73.767,4.3329,28.61,-80.598,9.7856,0.31944,1.68E-06,2.6129,-0.0012755,15503,0,11.632,0.026689,190.76,147.31,4.2182,0.74915,39146858,0,170.4,0.56286,0.56303,0.23943,0.13047,0.19296,0.049123,0.20727,2.19E-04,0,0,0,0,1.80E-04,0.033217,10.3,83.323,72.041,0.016319,NaN,22.721,923.25,345.07,0.05,0.27522,714.15
4.4458,827.59,244.47,-19.934,255.29,20.345,225.54,0.030409,225.54,0.0077248,73.557,4.0657,28.61,-80.598,9.7856,0.22972,1.33E-06,3.9828,0.0034515,15503,0,11.632,0.026689,191.05,147.31,4.2466,0.74659,38976526,0,168.84,0.56243,0.56252,0.23968,0.13029,0.19246,0.035112,0.1487,-3.54E-04,0,0,0,0,4.21E-04,0.033087,10.3,83.323,71.874,0.014596,NaN,22.612,921.96,345,0.05,0.2768,707.77
4.4958,839.79,243.47,-20.059,254.28,20.329,229.22,0.03133,229.22,0.0078314,73.372,3.3044,28.61,-80.598,9.7856,0.042537,1.52E-06,-4.4678,0.009062,15503,0,11.632,0.026689,191.69,147.31,4.3085,0.74344,38776236,0,167,0.5619,0.5619,0.23998,0.13007,0.19185,0.0064206,0.027712,-2.99E-04,0,0,0,0,-5.34E-04,0.032957,10.3,83.323,71.657,0.012541,NaN,22.503,920.67,344.94,0.05,0.2784,701.46
4.5458,851.94,242.47,-20.032,253.28,20.271,232.88,0.032261,232.88,0.0079372,73.213,3.1039,28.61,-80.598,9.7855,0.11949,1.49E-06,-4.0319,0.016253,15503,0,11.632,0.026689,191.39,147.31,4.2802,0.7411,38618929,0,165.61,0.56151,0.56154,0.24021,0.12991,0.1914,0.018124,0.077624,-6.72E-05,0,0,0,0,-4.38E-04,0.032828,10.3,83.323,71.443,0.01078,NaN,22.394,919.39,344.87,0.05,0.28011,695.21
4.5958,864.04,241.46,-20.017,252.28,20.22,236.54,0.033198,236.54,0.0080414,73.064,2.8575,28.61,-80.598,9.7855,0.21101,1.24E-06,-3.223,0.013429,15503,0,11.632,0.026689,191.05,147.31,4.2471,0.73858,38451872,0,164.15,0.5611,0.56118,0.24045,0.12973,0.19091,0.032188,0.13713,2.78E-04,0,0,0,0,-2.82E-04,0.0327,10.3,83.323,71.26,0.0095864,NaN,22.286,918.11,344.8,0.05,0.28186,689.01
4.6458,876.08,240.47,-19.913,251.28,20.123,240.19,0.034138,240.19,0.0081435,72.921,2.8984,28.61,-80.598,9.7855,0.19625,1.59E-06,-2.2172,0.015336,15503,0,11.632,0.026689,191.09,147.31,4.2505,0.73631,38298742,0,162.81,0.56073,0.5608,0.24068,0.12957,0.19048,0.029902,0.12693,1.27E-04,0,0,0,0,-1.34E-04,0.032572,10.3,83.323,71.125,0.0092578,NaN,22.179,916.84,344.74,0.05,0.28362,682.88
4.6958,888.08,239.47,-19.789,250.29,20.013,243.83,0.035081,243.83,0.0082433,72.774,2.989,28.61,-80.598,9.7854,0.15935,1.38E-06,-1.3617,0.015826,15503,0,11.632,0.026689,191.2,147.31,4.2614,0.73396,38141218,0,161.43,0.56035,0.5604,0.24091,0.12941,0.19003,0.024216,0.10369,2.72E-04,0,0,0,0,-5.10E-05,0.032445,10.3,83.323,71.036,0.0098478,NaN,22.072,915.58,344.67,0.05,0.28471,676.81
4.7458,900.03,238.49,-19.726,249.3,19.931,247.47,0.036027,247.47,0.0083414,72.628,2.8546,28.61,-80.597,9.7854,0.20148,1.20E-06,-0.51218,0.0117,15503,0,11.632,0.026689,191.03,147.31,4.245,0.73109,37957489,0,159.82,0.55989,0.55996,0.24119,0.12921,0.18948,0.030695,0.13054,-1.33E-04,0,0,0,0,-7.27E-06,0.032318,10.3,83.323,70.988,0.01106,NaN,21.965,914.32,344.61,0.05,0.28582,670.8
4.7958,911.93,237.5,-19.614,248.32,19.822,251.09,0.03698,251.09,0.0084382,72.485,2.8657,28.61,-80.597,9.7853,0.1868,1.41E-06,0.41175,0.010108,15503,0,11.632,0.026689,191.06,147.31,4.2481,0.72829,37777272,0,158.24,0.55943,0.55949,0.24146,0.12902,0.18895,0.028423,0.12029,-1.82E-04,0,0,0,0,4.74E-06,0.032192,10.3,83.323,70.986,0.012705,NaN,21.859,913.06,344.55,0.05,0.28743,664.84
4.8458,923.78,236.53,-19.458,247.34,19.69,254.71,0.037941,254.71,0.0085346,72.339,3.0156,28.61,-80.597,9.7853,0.11643,1.39E-06,1.1246,0.014604,15503,0,11.632,0.026689,191.29,147.31,4.2702,0.72556,37601476,0,156.71,0.559,0.55902,0.24173,0.12884,0.18844,0.017629,0.07565,2.29E-04,0,0,0,0,3.56E-05,0.032067,10.3,83.323,71.026,0.014524,NaN,21.753,911.81,344.48,0.05,0.28865,658.96
4.8958,935.58,235.55,-19.413,246.37,19.61,258.33,0.038916,258.33,0.0086313,72.194,2.7755,28.61,-80.597,9.7853,0.19059,1.40E-06,1.8138,0.01806,15503,0,11.632,0.026689,191,147.31,4.2424,0.72208,37387440,0,154.86,0.55844,0.5585,0.24206,0.1286,0.18778,0.02899,0.12286,-1.94E-04,0,0,0,0,9.36E-05,0.031943,10.3,83.323,71.098,0.016324,NaN,21.648,910.57,344.42,0.05,0.2896,653.13
4.9458,947.34,234.59,-19.128,245.4,19.42,261.93,0.039905,261.93,0.0087289,72.042,3.3532,28.61,-80.597,9.7852,0.051756,1.48E-06,-2.1726,0.040812,15503,0,11.632,0.026689,191.48,147.31,4.2885,0.71985,37238094,0,153.58,0.55809,0.5581,0.24228,0.12845,0.18736,0.0077993,0.033187,3.63E-04,0,0,0,0,-1.35E-04,0.031819,10.3,83.323,71.202,0.017802,NaN,21.543,909.33,344.35,0.05,0.29058,647.37
4.9958,959.04,233.64,-18.944,244.44,19.283,265.53,0.040912,265.53,0.008828,71.867,3.6035,28.61,-80.597,9.7852,0.16902,1.47E-06,-1.646,0.011241,15503,0,11.632,0.026689,191.05,147.31,4.2463,0.71715,37064674,0,152.11,0.55767,0.55772,0.24254,0.12827,0.18686,0.025661,0.10875,-1.76E-04,0,0,0,0,-7.82E-05,0.031696,10.3,83.323,71.3,0.018474,NaN,21.438,908.09,344.29,0.05,0.29156,641.66
5.0458,970.7,232.69,-18.84,243.49,19.179,269.12,0.041937,269.12,0.0089285,71.686,3.5903,28.61,-80.597,9.7852,0.18241,1.33E-06,-0.845,0.0078686,15503,0,11.632,0.026689,190.98,147.31,4.2397,0.71417,36877510,0,150.52,0.55721,0.55726,0.24283,0.12807,0.18631,0.02771,0.11777,3.63E-04,0,0,0,0,-2.08E-05,0.031573,10.3,83.323,71.362,0.018261,NaN,21.334,906.86,344.23,0.05,0.29247,636.02
5.0958,982.31,231.75,-18.741,242.53,19.081,272.7,0.042979,272.7,0.0090302,71.507,3.5843,28.61,-80.597,9.7851,0.19534,1.29E-06,-0.0079996,0.0054784,15503,0,11.632,0.026689,190.91,147.31,4.2334,0.71138,3.67E+07,0,149.03,0.55678,0.55684,0.2431,0.12788,0.18579,0.029692,0.12607,-4.15E-04,0,0,0,0,0,0.031451,10.3,83.323,71.384,0.017639,NaN,21.231,905.64,344.16,0.05,0.29339,630.43
5.1458,993.88,230.82,-18.649,241.59,18.989,276.27,0.044036,276.27,0.0091326,71.327,3.5723,28.61,-80.597,9.7851,0.20255,1.43E-06,0.86934,0.0068253,15503,0,11.632,0.026689,190.87,147.31,4.2292,0.70876,36532400,0,147.63,0.55638,0.55645,0.24336,0.12771,0.1853,0.030795,0.13005,-1.23E-04,0,0,0,0,2.24E-05,0.031329,10.3,83.323,71.362,0.016512,NaN,21.127,904.42,344.1,0.05,0.29429,624.9
5.1958,1005.4,229.89,-18.535,240.65,18.893,279.83,0.045104,279.83,0.0092351,71.146,3.6643,28.61,-80.597,9.7851,0.24717,1.52E-06,1.8435,0.012253,15503,0,11.632,0.026689,190.7,147.31,4.2126,0.70651,36383518,0,146.42,0.55604,0.55614,0.24359,0.12756,0.18489,0.037682,0.15832,3.43E-04,0,0,0,0,1.01E-04,0.031208,10.3,83.323,71.295,0.014996,NaN,21.025,903.2,344.04,0.05,0.29519,619.42
5.2458,1016.9,228.96,-18.509,239.71,18.83,283.39,0.046182,283.39,0.0093372,70.968,3.4624,28.61,-80.597,9.785,0.17149,1.44E-06,2.7608,0.019488,15503,0,11.632,0.026689,190.94,147.31,4.2365,0.70396,3.62E+07,0,145.05,0.55566,0.55571,0.24384,0.12739,0.18442,0.026009,0.11038,-4.96E-05,0,0,0,0,2.29E-04,0.031087,10.3,83.323,71.179,0.013536,NaN,20.922,901.99,343.98,0.05,0.2961,614
5.2958,1028.3,228.04,-18.508,238.78,18.782,286.93,0.047265,286.93,0.0094382,70.801,3.1958,28.61,-80.597,9.785,0.064218,1.48E-06,3.2673,0.055466,15503,0,11.632,0.026689,191.31,147.31,4.2717,0.70143,36057694,0,143.71,0.55528,0.55529,0.24409,0.12723,0.18396,0.0096689,0.040925,-2.05E-04,0,0,0,0,3.23E-04,0.030968,10.3,83.323,71.026,0.012639,NaN,20.82,900.79,343.92,0.05,0.29706,608.62
5.3458,1039.7,227.11,-18.583,237.85,18.776,290.47,0.048353,290.47,0.0095378,70.654,2.6826,28.61,-80.597,9.785,0.14958,1.54E-06,-3.0946,0.024992,15503,0,11.632,0.026689,190.98,147.31,4.2404,0.69849,35874513,0,142.21,0.55484,0.55488,0.24438,0.12703,0.18343,0.022642,0.09607,-3.83E-04,0,0,0,0,-2.92E-04,0.030849,10.3,83.323,70.864,0.012613,NaN,20.719,899.59,343.85,0.05,0.29827,603.3
5.3958,1051,226.18,-18.518,236.92,18.705,294,0.049444,294,0.0096361,70.522,2.643,28.61,-80.597,9.7849,0.16579,1.42E-06,-2.4029,0.02001,15503,0,11.632,0.026689,190.91,147.31,4.2333,0.69627,35728719,0,141.04,0.55452,0.55457,0.24461,0.12689,0.18302,0.025118,0.10647,-2.36E-05,0,0,0,0,-1.77E-04,0.03073,10.3,83.323,70.726,0.013406,NaN,20.617,898.39,343.79,0.05,0.29932,598.03
5.4458,1062.3,225.26,-18.562,236,18.695,297.52,0.050542,297.52,0.0097333,70.4,2.2302,28.61,-80.597,9.7849,0.33436,1.29E-06,-1.3835,0.011216,15503,0,11.632,0.026689,190.31,147.31,4.1745,0.69324,35541815,0,139.55,0.55407,0.55426,0.2449,0.12669,0.18248,0.051204,0.21358,-2.81E-04,0,0,0,0,-5.93E-05,0.030612,10.3,83.323,70.628,0.014701,NaN,20.517,897.2,343.73,0.05,0.30037,592.8
5.4958,1073.5,224.33,-18.491,235.08,18.618,301.04,0.051647,301.04,0.0098299,70.291,2.17,28.61,-80.597,9.7849,0.35266,1.50E-06,0.048529,0.010666,15503,0,11.632,0.026689,190.22,147.31,4.1667,0.69058,35373815,0,138.2,0.55369,0.5539,0.24517,0.12652,0.182,0.054058,0.22522,-3.61E-04,0,0,0,0,7.36E-08,0.030495,10.3,83.323,70.595,0.01627,NaN,20.416,896.02,343.67,0.05,0.30148,587.63
5.5458,1084.7,223.41,-18.371,234.17,18.508,304.55,0.052762,304.55,0.0099264,70.181,2.2453,28.61,-80.597,9.7848,0.30908,1.20E-06,1.3999,0.012758,15503,0,11.632,0.026689,190.36,147.31,4.1795,0.68789,35204987,0,136.84,0.5533,0.55346,0.24544,0.12635,0.18151,0.047232,0.19771,4.71E-04,0,0,0,0,6.17E-05,0.030379,10.3,83.323,70.632,0.017953,NaN,20.316,894.84,343.61,0.05,0.30246,582.5
5.5958,1095.9,222.5,-18.15,233.26,18.34,308.05,0.053891,308.05,0.010023,70.059,2.6357,28.61,-80.597,9.7848,0.12436,1.36E-06,2.2895,0.021837,15503,0,11.632,0.026689,190.99,147.31,4.2405,0.68557,35055312,0,135.62,0.55297,0.553,0.24567,0.1262,0.1811,0.018773,0.079428,-3.81E-04,0,0,0,0,1.66E-04,0.030263,10.3,83.323,70.727,0.019289,NaN,20.217,893.66,343.55,0.05,0.30405,577.43
5.6458,1107,221.59,-18.037,232.36,18.233,311.55,0.055034,311.55,0.010121,69.926,2.6665,28.61,-80.597,9.7847,0.089761,1.44E-06,2.6964,0.033836,15503,0,11.632,0.026689,191.09,147.31,4.2505,0.68252,34869128,0,134.14,0.55253,0.55255,0.24597,0.126,0.18056,0.013515,0.057185,2.58E-04,0,0,0,0,2.33E-04,0.030147,10.3,83.323,70.852,0.020209,NaN,20.118,892.49,343.49,0.05,0.30581,572.42
5.6958,1118,220.69,-17.786,231.46,18.067,315.05,0.056193,315.05,0.01022,69.781,3.1769,28.61,-80.597,9.7847,0.15891,1.38E-06,-2.5839,0.016302,15503,0,11.632,0.026689,190.83,147.31,4.2254,0.68035,34727447,0,133.04,0.55223,0.55228,0.24619,0.12587,0.18017,0.024032,0.10183,-3.01E-04,0,0,0,0,-2.15E-04,0.030032,10.3,83.323,70.988,0.020635,NaN,20.019,891.33,343.43,0.05,0.30684,567.45
5.7458,1129,219.81,-17.666,230.57,17.964,318.53,0.057367,318.53,0.010319,69.619,3.2574,28.61,-80.597,9.7847,0.21628,1.25E-06,-1.8196,0.010875,15503,0,11.632,0.026689,190.61,147.31,4.2041,0.67751,34552572,0,131.68,0.55184,0.55192,0.24648,0.12569,0.17967,0.032822,0.13837,1.78E-04,0,0,0,0,-1.08E-04,0.029917,10.3,83.323,71.099,0.020368,NaN,19.921,890.16,343.37,0.05,0.30796,562.53
5.7958,1140,218.93,-17.551,229.68,17.866,322.01,0.058556,322.01,0.010419,69.454,3.3408,28.61,-80.597,9.7846,0.27185,1.53E-06,-0.87432,0.0079106,15503,0,11.632,0.026689,190.4,147.31,4.1836,0.67487,34387493,0,130.4,0.55147,0.5516,0.24674,0.12552,0.17921,0.041396,0.17336,4.47E-04,0,0,0,0,-2.51E-05,0.029803,10.3,83.323,71.167,0.01957,NaN,19.823,889.01,343.31,0.05,0.30905,557.66
5.8458,1150.9,218.05,-17.4,228.8,17.764,325.48,0.059756,325.48,0.010519,69.281,3.5785,28.61,-80.597,9.7846,0.39077,1.12E-06,0.39221,0.0065782,15503,0,11.632,0.026689,189.98,147.31,4.1426,0.67272,34248156,0,129.37,0.55118,0.55144,0.24696,0.12539,0.17883,0.059955,0.24801,-1.83E-04,0,0,0,0,5.08E-06,0.029689,10.3,83.323,71.181,0.018545,NaN,19.725,887.86,343.25,0.05,0.30998,552.84
5.8958,1161.8,217.19,-17.34,227.91,17.693,328.94,0.060967,328.94,0.01062,69.102,3.5164,28.61,-80.597,9.7846,0.37388,1.29E-06,1.8627,0.0082613,15503,0,11.632,0.026689,190.02,147.31,4.1467,0.67032,34096280,0,128.2,0.55086,0.55109,0.24721,0.12524,0.17841,0.05729,0.23714,-4.46E-04,0,0,0,0,1.15E-04,0.029576,10.3,83.323,71.125,0.017474,NaN,19.628,886.71,343.19,0.05,0.31088,548.06
5.9458,1172.7,216.32,-17.254,227.04,17.62,332.39,0.062185,332.39,0.010719,68.925,3.5739,28.61,-80.597,9.7845,0.40373,1.21E-06,3.3212,0.012402,15503,0,11.632,0.026689,189.91,147.31,4.1357,0.66841,3.40E+07,0,127.25,0.55061,0.55088,0.24741,0.12512,0.17808,0.061974,0.25566,-2.37E-04,0,0,0,0,3.69E-04,0.029463,10.3,83.323,70.995,0.016358,NaN,19.531,885.57,343.13,0.05,0.31179,543.33
5.9958,1183.4,215.46,-17.251,226.16,17.576,335.83,0.063409,335.83,0.010818,68.751,3.3656,28.61,-80.597,9.7845,0.30989,1.18E-06,4.6677,0.01822,15503,0,11.632,0.026689,190.21,147.31,4.1656,0.6663,33833430,0,126.2,0.55033,0.55049,0.24763,0.12499,0.17771,0.047272,0.1961,1.57E-04,0,0,0,0,7.34E-04,0.02935,10.3,83.323,70.794,0.015495,NaN,19.435,884.43,343.08,0.05,0.31269,538.63
6.0458,1194.2,214.6,-17.271,225.29,17.548,339.26,0.064638,339.26,0.010916,68.589,3.1037,28.61,-80.597,9.7845,0.18401,1.14E-06,5.5808,0.033104,15503,0,11.632,0.026689,190.64,147.31,4.2068,0.66429,33703050,0,125.2,0.55007,0.55012,0.24784,0.12486,0.17737,0.027835,0.1159,3.62E-04,0,0,0,0,0.0010559,0.029239,10.3,83.323,70.536,0.015185,NaN,19.339,883.31,343.02,0.05,0.31359,533.99
6.0958,1204.9,213.73,-17.42,224.42,17.59,342.69,0.06587,342.69,0.011013,68.45,2.4414,28.61,-80.596,9.7844,0.13923,1.12E-06,-5.6753,0.046662,15503,0,11.632,0.026689,190.78,147.31,4.2204,0.66157,33537742,0,123.93,0.5497,0.54974,0.24811,0.12469,0.1769,0.020994,0.089635,-3.57E-04,0,0,0,0,-0.0011013,0.029127,10.3,83.323,70.25,0.015549,NaN,19.243,882.23,342.96,0.05,0.31448,529.41
6.1458,1215.6,212.86,-17.519,223.56,17.629,346.11,0.067108,346.11,0.011109,68.34,1.965,28.61,-80.596,9.7844,0.37318,1.23E-06,-4.7211,0.018566,15503,0,11.632,0.026689,189.95,147.31,4.1401,0.65909,33385487,0,122.83,0.54938,0.54961,0.24836,0.12454,0.17647,0.057128,0.23687,2.07E-04,0,0,0,0,-7.68E-04,0.029017,10.3,83.323,69.986,0.016711,NaN,19.148,881.16,342.9,0.05,0.31537,524.86
6.1958,1226.2,211.98,-17.473,222.69,17.58,349.52,0.068352,349.52,0.011205,68.244,1.9341,28.61,-80.596,9.7844,0.3938,1.31E-06,-3.3094,0.013399,15503,0,11.632,0.026689,189.87,147.31,4.1322,0.65723,33264638,0,121.94,0.54914,0.5494,0.24856,0.12443,0.17615,0.060356,0.25007,4.56E-04,0,0,0,0,-3.80E-04,0.028907,10.3,83.323,69.786,0.018319,NaN,19.053,880.08,342.85,0.05,0.31649,520.36
6.2458,1236.8,211.11,-17.391,221.84,17.504,352.93,0.069606,352.93,0.0113,68.146,1.9857,28.61,-80.596,9.7844,0.3703,1.78E-06,-1.9338,0.0091471,15503,0,11.632,0.026689,189.94,147.31,4.1388,0.65528,33139100,0,121,0.54889,0.54912,0.24876,0.12431,0.17582,0.056658,0.23453,-1.29E-04,0,0,0,0,-1.30E-04,0.028797,10.3,83.323,69.655,0.019997,NaN,18.959,879.01,342.79,0.05,0.31748,515.89
6.2958,1247.3,210.24,-17.355,220.98,17.456,356.34,0.070872,356.34,0.011396,68.05,1.8747,28.61,-80.596,9.7843,0.41871,1.78E-06,-0.53888,0.0080018,15503,0,11.632,0.026689,189.76,147.31,4.1213,0.65275,32984789,0,119.87,0.54857,0.54886,0.24902,0.12415,0.17539,0.064254,0.26441,3.78E-04,0,0,0,0,-1.02E-05,0.028688,10.3,83.323,69.592,0.021506,NaN,18.865,877.95,342.73,0.05,0.31873,511.46
6.3458,1257.8,209.38,-17.214,220.13,17.337,359.74,0.072153,359.74,0.011492,67.952,2.0629,28.61,-80.596,9.7843,0.31841,1.73E-06,0.77558,0.0093085,15503,0,11.632,0.026689,190.09,147.31,4.1532,0.65056,32847834,0,118.83,0.54829,0.54846,0.24925,0.12402,0.17502,0.048536,0.20132,3.75E-04,0,0,0,0,2.13E-05,0.028579,10.3,83.323,69.6,0.022594,NaN,18.771,876.89,342.67,0.05,0.32013,507.07
6.3958,1268.2,208.52,-17.098,219.28,17.233,363.13,0.07345,363.13,0.011589,67.847,2.1579,28.61,-80.596,9.7843,0.25696,1.94E-06,1.7741,0.011116,15503,0,11.632,0.026689,190.28,147.31,4.1723,0.64798,32691980,0,117.67,0.54796,0.54807,0.24951,0.12387,0.17458,0.039003,0.16307,-1.97E-04,0,0,0,0,1.12E-04,0.028471,10.3,83.323,69.664,0.023207,NaN,18.678,875.84,342.62,0.05,0.32191,502.72
