# Time (s),Altitude (m),Vertical velocity (m/s),Vertical acceleration (m/s²),Total velocity (m/s),Total acceleration (m/s²),Position East of launch (m),Position North of launch (m),Lateral distance (m),Lateral direction (°),Lateral velocity (m/s),Lateral acceleration (m/s²),Latitude (°),Longitude (°),Gravitational acceleration (m/s²),Angle of attack (°),Roll rate (°/s),Pitch rate (°/s),Yaw rate (°/s),Mass (g),Propellant mass (g),Longitudinal moment of inertia (kg·m²),Rotational moment of inertia (kg·m²),CP location (cm),CG location (cm),Stability margin calibers (?),Mach number (?),Reynolds number (?),Thrust (N),Drag force (N),Drag coefficient (?),Axial drag coefficient (?),Friction drag coefficient (?),Pressure drag coefficient (?),Base drag coefficient (?),Normal force coefficient (?),Pitch moment coefficient (?),Yaw moment coefficient (?),Side force coefficient (?),Roll moment coefficient (?),Roll forcing coefficient (?),Roll damping coefficient (?),Pitch damping coefficient (?),Coriolis acceleration (m/s²),Reference length (cm),Reference area (cm²),Vertical orientation (zenith) (°),Lateral orientation (azimuth) (°),Wind velocity (m/s),Air temperature (°C),Air pressure (mbar),Speed of sound (m/s),Simulation time step (s),Computation time (s),Dynamic Pressure (mbar)
0,0,0,25.33,0,25.427,0,0,0,0,0,2.2161,28.61,-80.6,9.7922,85,0,0,0,18166,2663.3,13.153,0.028562,NaN,158.95,NaN,0.022262,1320679,639.11,3.12E-04,0.67158,0.0010645,0.44675,0.10476,0.12006,NaN,NaN,NaN,NaN,NaN,NaN,NaN,NaN,0,10.3,83.323,85,0,NaN,15,1013.2,340.39,0.01,0.00222,0
0.01,0.0012665,0.2533,93.642,0.25427,94,1.11E-04,0,1.11E-04,0,0.022161,8.1926,28.61,-80.6,9.7922,83.102,0,0,0,18166,2663.3,13.153,0.028562,NaN,158.95,NaN,0.02247,1333014,1884.8,8.16E-04,0.67078,0.0027342,0.44595,0.10476,0.12007,NaN,NaN,NaN,NaN,NaN,NaN,NaN,NaN,3.26E-05,10.3,83.323,85,0,NaN,15,1013.2,340.39,0.01,0.0038576,7.92E-04
0.02,0.0084827,1.19,103.52,1.1945,103.92,7.42E-04,0,7.42E-04,0,0.10411,9.057,28.61,-80.6,9.7922,76.294,0,0,0,18160,2657.3,13.15,0.028558,NaN,158.93,NaN,0.023095,1370093,2064.3,0.0062348,0.66843,0.019768,0.4436,0.10476,0.12007,NaN,NaN,NaN,NaN,NaN,NaN,NaN,NaN,1.53E-04,10.3,83.323,85,0,NaN,15,1013.2,340.39,0.01,0.0045336,0.01748
0.03,0.025561,2.2256,97.627,2.2341,98,0.0022363,0,0.0022363,0,0.19472,8.5412,28.61,-80.6,9.7922,69.277,0,0,0,18152,2649.1,13.146,0.028552,NaN,158.9,NaN,0.024129,1431394,1956,0.021426,0.66473,0.062238,0.43988,0.10476,0.12008,NaN,NaN,NaN,NaN,NaN,NaN,NaN,NaN,2.86E-04,10.3,83.323,85,0,NaN,15,1013.2,340.39,0.01,0.0051492,0.061145
0.04,0.0527,3.2024,97.925,3.2146,98.299,0.0046107,0,0.0046107,0,0.28017,8.5674,28.61,-80.6,9.7922,63.272,0,0,0,18142,2639.4,13.141,0.028545,NaN,158.87,NaN,0.025413,1507580,1960.4,0.046693,0.6604,0.12227,0.43554,0.10477,0.12008,NaN,NaN,NaN,NaN,NaN,NaN,NaN,NaN,4.12E-04,10.3,83.323,85,0,NaN,15,1013.2,340.39,0.01,0.0057982,0.12659
0.05,0.089622,4.1821,98.222,4.1981,98.597,0.0078409,0,0.0078409,0,0.36589,8.5933,28.61,-80.6,9.7922,57.881,0,0,0,18133,2629.9,13.137,0.028538,NaN,158.83,NaN,0.026953,1598926,1964.8,0.083569,0.65556,0.19454,0.4307,0.10477,0.12009,NaN,NaN,NaN,NaN,NaN,NaN,NaN,NaN,5.38E-04,10.3,83.323,85,0,NaN,14.999,1013.2,340.39,0.01,0.0063872,0.21589
0.06,0.13636,5.1648,98.519,5.1845,98.895,0.01193,0,0.01193,0,0.45186,8.6193,28.61,-80.6,9.7922,52.576,0,0,0,18123,2620.4,13.132,0.028532,NaN,158.79,NaN,0.028299,1678747,1969.2,0.13306,0.65162,0.28101,0.42675,0.10477,0.1201,NaN,NaN,NaN,NaN,NaN,NaN,NaN,NaN,6.65E-04,10.3,83.323,85,0,NaN,14.999,1013.2,340.39,0.01,0.0070855,0.32927
0.07,0.19293,6.1504,98.815,6.1739,99.192,0.016879,0,0.016879,0,0.53809,8.6452,28.61,-80.6,9.7922,47.777,0,0,0,18114,2611,13.127,0.028525,NaN,158.76,NaN,0.02987,1771942,1973.6,0.19456,0.64732,0.36879,0.42242,0.10478,0.12012,NaN,NaN,NaN,NaN,NaN,NaN,NaN,NaN,7.91E-04,10.3,83.323,85,0,NaN,14.999,1013.2,340.39,0.01,0.0077295,0.46693
0.08,0.25938,7.139,99.111,7.1663,99.489,0.022693,0,0.022693,0,0.62458,8.6711,28.61,-80.6,9.7922,43.473,0,0,0,18104,2601.5,13.123,0.028518,NaN,158.72,NaN,0.031635,1876659,1978,0.26732,0.64282,0.45174,0.4179,0.10478,0.12013,NaN,NaN,NaN,NaN,NaN,NaN,NaN,NaN,9.19E-04,10.3,83.323,85,0,NaN,14.998,1013.2,340.39,0.01,0.0084205,0.6291
0.09,0.33573,8.1306,99.406,8.1616,99.786,0.029372,0,0.029372,0,0.71133,8.6969,28.61,-80.6,9.7922,39.634,0,0,0,18095,2592.1,13.118,0.028512,NaN,158.69,NaN,0.033566,1991214,1982.5,0.35042,0.63825,0.52598,0.41331,0.10479,0.12015,NaN,NaN,NaN,NaN,NaN,NaN,NaN,NaN,0.0010462,10.3,83.323,85,0,NaN,14.998,1013.2,340.39,0.01,0.0090376,0.81598
0.1,0.422,9.1251,99.702,9.1599,100.08,0.036921,0,0.036921,0,0.79834,8.7228,28.61,-80.6,9.7922,36.218,0,0,0,18085,2582.6,13.113,0.028505,NaN,158.65,NaN,0.035639,2114133,1986.9,0.44282,0.63371,0.58963,0.40875,0.1048,0.12017,NaN,NaN,NaN,NaN,NaN,NaN,NaN,NaN,0.0011741,10.3,83.323,85,0,NaN,14.997,1013.2,340.39,0.01,0.0096805,1.0278
0.11,0.51824,10.123,99.997,10.161,100.38,0.04534,0,0.04534,0,0.88561,8.7486,28.61,-80.6,9.7922,33.92,0,0,0,18076,2573.2,13.109,0.028499,NaN,158.62,NaN,0.038223,2267421,1991.3,0.54251,0.6285,0.628,0.40351,0.1048,0.12019,NaN,NaN,NaN,NaN,NaN,NaN,NaN,NaN,0.0013025,10.3,83.323,85,0,NaN,14.997,1013.2,340.39,0.0098413,0.010261,1.2648
0.11984,0.62271,11.107,100.29,11.15,100.67,0.05448,0,0.05448,0,0.97174,8.7739,28.61,-80.6,9.7922,31.94,0,0,0,18066,2563.8,13.104,0.028492,NaN,158.58,NaN,0.040826,2421809,1995.4,0.64884,0.6237,0.65837,0.39867,0.10481,0.12022,NaN,NaN,NaN,NaN,NaN,NaN,NaN,NaN,0.0014291,10.3,83.323,85,0,NaN,14.996,1013.2,340.39,0.008969,0.010914,1.5227
0.12881,0.72636,12.007,100.54,12.053,100.93,0.063548,0,0.063548,0,1.0505,8.7963,28.61,-80.6,9.7922,30.34,0,0,0,18058,2554.9,13.1,0.028486,NaN,158.55,NaN,0.043242,2565115,1999.2,0.75258,0.61958,0.68069,0.39451,0.10482,0.12024,NaN,NaN,NaN,NaN,NaN,NaN,NaN,NaN,0.0015449,10.3,83.323,85,0,NaN,14.995,1013.2,340.39,0.0082969,0.011495,1.7794
0.13711,0.82944,12.841,100.78,12.89,101.17,0.072567,0,0.072567,0,1.1235,8.8172,28.61,-80.6,9.7922,29.008,0,0,0,18049,2546.7,13.095,0.02848,NaN,158.52,NaN,0.04551,2699601,2002.8,0.85416,0.61597,0.69751,0.39087,0.10483,0.12027,NaN,NaN,NaN,NaN,NaN,NaN,NaN,NaN,0.0016523,10.3,83.323,85,0,NaN,14.995,1013.2,340.39,0.0077577,0.0122,2.0353
0.14486,0.93209,13.623,101,13.675,101.39,0.081548,0,0.081548,0,1.1919,8.8367,28.61,-80.6,9.7922,27.875,0,0,0,18042,2539.2,13.092,0.028475,NaN,158.49,NaN,0.047655,2826827,2006.1,0.95391,0.61277,0.71042,0.38763,0.10484,0.1203,NaN,NaN,NaN,NaN,NaN,NaN,NaN,NaN,0.0017529,10.3,83.323,85,0,NaN,14.994,1013.1,340.39,0.0073124,0.01288,2.2908
0.15218,1.0344,14.362,101.19,14.417,101.58,0.090499,0,0.090499,0,1.2565,8.9109,28.61,-80.6,9.7922,26.899,0,0,0,18035,2532,13.088,0.02847,157.15,158.46,-0.12756,0.0497,2948075,2009.2,1.0521,0.60989,0.72038,0.38471,0.10485,0.12032,9.7994,-7.5084,-3.29E-04,0,0,0,0,0,0.001848,10.3,83.323,85,0,NaN,14.993,1013.1,340.38,0.010969,0.013512,2.5459
0.16315,1.198,15.473,101.33,15.532,101.72,0.10482,5.41E-09,0.10482,2.96E-06,1.3541,8.8776,28.61,-80.6,9.7922,25.592,0,-0.050532,1.85E-06,18026,2523.2,13.084,0.028463,157.64,158.43,-0.076048,0.052806,3132293,2010.9,1.2066,0.60578,0.73189,0.38056,0.10486,0.12036,9.1675,-5.739,2.40E-04,0,0,0,0,-1.39E-05,0.0019909,10.3,83.323,85,-1.77E-07,NaN,14.992,1013.1,340.38,0.016453,0.014667,2.9548
0.1796,1.4663,17.141,101.53,17.207,101.91,0.12829,3.51E-08,0.12829,1.57E-05,1.4996,8.8208,28.61,-80.6,9.7922,23.891,0,-0.11112,9.32E-07,18012,2509.8,13.077,0.028454,158.36,158.38,-0.0020054,0.057516,3411607,2013.3,1.4542,0.60013,0.74352,0.37481,0.10489,0.12043,8.3774,-3.4958,3.35E-04,0,0,0,0,-5.67E-05,0.0022055,10.3,83.323,85.002,-3.59E-07,NaN,14.99,1013.1,340.38,0.024679,0.015264,3.6263
0.20428,1.9203,19.65,101.83,19.725,102.2,0.16798,1.33E-07,0.16798,4.55E-05,1.7162,8.743,28.61,-80.6,9.7922,21.552,0,-0.15975,-6.38E-06,17992,2489.5,13.067,0.02844,159.47,158.3,0.1139,0.064532,3827612,2016.9,1.8564,0.59274,0.75404,0.36727,0.10492,0.12054,7.3525,-0.53155,9.09E-05,0,0,0,0,-9.31E-05,0.0025283,10.3,83.323,85.005,5.28E-07,NaN,14.988,1013,340.38,0.037019,0.015844,4.7651
0.2413,2.7176,23.426,102.26,23.514,102.64,0.23751,4.20E-07,0.23751,1.01E-04,2.0403,8.7961,28.61,-80.6,9.7922,17.28,0,-0.094963,-1.04E-05,17962,2459.1,13.052,0.028418,162.02,158.18,0.3728,0.07437,4410816,2022,2.4819,0.58397,0.7591,0.35827,0.10499,0.12072,5.3865,2.0086,-3.36E-04,0,0,0,0,-2.48E-05,0.003014,10.3,83.323,85.01,4.09E-06,NaN,14.982,1012.9,340.38,0.05,0.016379,6.7717
0.2913,4.0169,28.551,102.85,28.658,103.22,0.3505,1.12E-06,0.3505,1.83E-04,2.4786,8.7231,28.61,-80.6,9.7922,14.66,0,0.11246,-1.80E-06,17919,2416.2,13.03,0.028388,164.02,158.02,0.5825,0.089067,5281909,2027.9,3.4534,0.5734,0.73654,0.34728,0.10509,0.12103,4.2196,2.458,9.18E-05,0,0,0,0,2.42E-05,0.0036733,10.3,83.323,85.01,4.09E-06,NaN,14.974,1012.8,340.37,0.05,0.016966,10.057
0.3413,5.5733,33.705,103.44,33.831,103.8,0.4853,2.25E-06,0.4853,2.66E-04,2.9121,8.6333,28.61,-80.6,9.7922,13.005,0,0.43687,-3.43E-06,17870,2366.9,13.005,0.028354,165.5,157.83,0.74485,0.10413,6174143,2033.8,4.5524,0.56476,0.71052,0.33813,0.10522,0.12141,3.5429,2.6386,2.43E-04,0,0,0,0,2.67E-04,0.0043363,10.3,83.323,84.997,3.98E-06,NaN,14.964,1012.6,340.37,0.05,0.017522,14.013
0.3913,7.3881,38.889,104.02,39.032,104.38,0.64169,3.88E-06,0.64169,3.47E-04,3.3437,8.666,28.61,-80.6,9.7922,11.252,0,0.88917,4.17E-05,17820,2317.7,12.98,0.028319,167.3,157.64,0.93791,0.11904,7057042,2039.7,5.698,0.55777,0.68065,0.33055,0.10537,0.12184,2.8791,2.6994,4.63E-04,0,0,0,0,8.48E-04,0.0050029,10.3,83.323,84.964,-2.27E-06,NaN,14.952,1012.4,340.36,0.05,0.018052,18.65
0.4413,9.4628,44.101,104.6,44.263,104.96,0.81974,6.08E-06,0.81974,4.25E-04,3.7783,8.7341,28.61,-80.6,9.7921,9.9598,0,1.4732,-6.70E-06,17771,2268.4,12.955,0.028284,168.81,157.45,1.1028,0.13418,7953483,2045.5,6.9734,0.55184,0.65573,0.32396,0.10554,0.12234,2.4255,2.6728,-2.42E-04,0,0,0,0,0.0018317,0.0056733,10.3,83.323,84.906,-1.90E-06,NaN,14.938,1012.1,340.35,0.05,0.018781,23.979
0.4913,11.799,49.342,105.16,49.522,105.53,1.0196,8.91E-06,1.0196,5.01E-04,4.215,8.7417,28.61,-80.6,9.7921,9.411,0,2.2018,-5.63E-07,17722,2219.1,12.929,0.02825,169.51,157.26,1.1895,0.14981,8878330,2051.4,8.5064,0.54669,0.64183,0.31803,0.10574,0.12292,2.2425,2.6641,-3.79E-04,0,0,0,0,0.0032824,0.0063474,10.3,83.323,84.815,-1.69E-06,NaN,14.923,1011.9,340.34,0.05,0.019319,30.01
0.5413,14.398,54.611,105.71,54.81,106.1,1.2414,1.24E-05,1.2414,5.74E-04,4.6597,9.1223,28.61,-80.6,9.7921,7.9311,0,3.0735,3.91E-05,17672,2169.8,12.904,0.028215,171.55,157.06,1.4069,0.16485,9767315,2057.3,9.8774,0.54248,0.61569,0.31299,0.10595,0.12353,1.7765,2.4943,-1.68E-04,0,0,0,0,0.0052824,0.0070251,10.3,83.323,84.683,2.87E-06,NaN,14.906,1011.6,340.33,0.05,0.01986,36.751
0.5913,17.261,59.907,106.25,60.126,106.67,1.4859,1.68E-05,1.4859,6.46E-04,5.1251,9.501,28.61,-80.6,9.7921,7.0233,0,4.0506,2.71E-05,17623,2120.6,12.878,0.02818,172.96,156.87,1.5625,0.18032,10681033,2063.1,11.488,0.53877,0.59873,0.30834,0.10619,0.12423,1.5113,2.3543,-1.41E-04,0,0,0,0,0.0076691,0.0077066,10.3,83.323,84.506,5.10E-06,NaN,14.888,1011.2,340.32,0.05,0.020387,44.215
0.6413,20.389,65.23,106.77,65.471,107.23,1.7542,2.19E-05,1.7542,7.16E-04,5.6089,9.8785,28.61,-80.6,9.7921,6.568,0,5.1655,6.90E-05,17574,2071.3,12.853,0.028146,173.72,156.67,1.6556,0.19618,11617214,2069,13.37,0.53551,0.58892,0.30404,0.10646,0.125,1.3844,2.2819,-3.31E-04,0,0,0,0,0.010538,0.0083917,10.3,83.323,84.276,1.25E-05,NaN,14.867,1010.9,340.31,0.05,0.020917,52.409
0.6913,23.784,70.579,107.27,70.843,107.79,2.0472,2.80E-05,2.0472,7.83E-04,6.1185,10.573,28.61,-80.6,9.7921,5.6964,0,6.4086,9.26E-05,17525,2022,12.827,0.028111,175.27,156.47,1.8246,0.21181,12539385,2074.9,15.201,0.53276,0.57457,0.30018,0.10675,0.12583,1.1523,2.0886,8.67E-05,0,0,0,0,0.013915,0.0090805,10.3,83.323,83.987,1.80E-05,NaN,14.845,1010.5,340.3,0.05,0.021575,61.344
0.7413,27.447,75.951,107.75,76.243,108.35,2.3667,3.51E-05,2.3667,8.49E-04,6.6672,11.411,28.61,-80.6,9.7921,4.9393,0,7.7169,4.24E-05,17475,1972.7,12.801,0.028076,176.73,156.28,1.9855,0.22762,13470852,2080.7,17.189,0.53038,0.56287,0.29659,0.10706,0.12674,0.96266,1.8944,1.69E-05,0,0,0,0,0.017473,0.0097729,10.3,83.323,83.634,5.22E-05,NaN,14.822,1010,340.28,0.05,0.022107,71.028
0.7913,31.38,81.347,108.19,81.671,108.91,2.7147,4.32E-05,2.7147,9.13E-04,7.2628,12.469,28.61,-80.6,9.7921,4.1319,0,9.0625,1.77E-04,17426,1923.5,12.775,0.028042,178.42,156.08,2.169,0.24348,14404415,2086.6,19.276,0.52836,0.5519,0.29326,0.1074,0.12771,0.77264,1.6553,1.44E-04,0,0,0,0,0.021063,0.010469,10.3,83.323,83.215,8.68E-05,NaN,14.796,1009.6,340.27,0.05,0.022635,81.471
0.8413,35.583,86.765,108.61,87.125,109.46,3.094,5.26E-05,3.094,9.75E-04,7.915,13.657,28.61,-80.6,9.7921,3.4673,0,10.396,2.03E-04,17377,1874.2,12.748,0.028007,179.93,155.88,2.3353,0.25955,1.54E+07,2092.5,21.567,0.52664,0.54367,0.29012,0.10776,0.12876,0.62581,1.4369,-4.68E-05,0,0,0,0,0.024393,0.011169,10.3,83.323,82.728,1.23E-04,NaN,14.769,1009.1,340.25,0.05,0.023164,92.679
0.8913,40.057,92.201,108.96,92.605,110.02,3.5074,6.34E-05,3.5074,0.0010354,8.635,15.22,28.61,-80.6,9.7921,2.4489,0,11.627,6.50E-04,17328,1824.9,12.722,0.027972,182.47,155.67,2.6012,0.27541,16281331,2098.4,23.844,0.52523,0.53409,0.28722,0.10814,0.12986,0.41748,1.0587,1.73E-04,0,0,0,0,0.027104,0.011872,10.3,83.323,82.176,1.26E-04,NaN,14.74,1008.6,340.23,0.05,0.023699,104.66
0.9413,44.803,97.654,109.27,98.109,110.57,3.9589,7.56E-05,3.9589,0.0010939,9.4374,16.906,28.61,-80.6,9.792,1.5393,0,12.581,8.28E-04,17278,1775.6,12.695,0.027938,185.01,155.47,2.8679,0.29144,17221817,2104.2,26.366,0.52407,0.5277,0.28447,0.10855,0.13104,0.24864,0.68516,-2.22E-05,0,0,0,0,0.028338,0.012579,10.3,83.323,81.57,1.43E-04,NaN,14.709,1008,340.21,0.05,0.024287,117.42
0.9913,49.823,103.12,109.54,103.64,111.11,4.4526,8.94E-05,4.4526,0.0011504,10.324,18.596,28.61,-80.6,9.792,0.89569,0,13.24,0.0015422,17229,1726.3,12.669,0.027903,187,155.27,3.081,0.30778,18179330,2110.1,29.203,0.52313,0.5244,0.28183,0.10899,0.13231,0.13902,0.40035,-4.36E-04,0,0,0,0,0.028144,0.013289,10.3,83.323,80.923,2.08E-04,NaN,14.676,1007.4,340.19,0.05,0.02494,130.96
1.0413,55.116,108.6,109.75,109.19,111.65,4.9928,1.05E-04,4.9928,0.0012054,11.301,20.514,28.61,-80.6,9.792,0.014295,0,13.51,0.12685,17180,1677.1,12.642,0.027868,190,155.06,3.3921,0.32395,19125457,2116,32.212,0.52244,0.52245,0.27935,0.10945,0.13364,0.0020948,-0.01952,-7.47E-05,0,0,0,0,0.026458,0.014002,10.3,83.323,80.252,2.28E-04,NaN,14.642,1006.8,340.17,0.05,0.025604,145.3
1.0913,60.683,114.09,109.75,114.76,112,5.5843,1.23E-04,5.5843,0.0012586,12.373,22.337,28.61,-80.6,9.792,0.60326,0,-13.232,0.0033171,17130,1627.8,12.615,0.027834,188.01,154.86,3.219,0.3404,20086828,2118.9,35.55,0.52196,0.52254,0.27695,0.10994,0.13506,0.09199,0.31936,-3.74E-05,0,0,0,0,-0.022988,0.014719,10.3,83.323,79.582,2.14E-04,NaN,14.606,1006.1,340.15,0.05,0.02612,160.42
1.1413,66.525,119.58,109.04,120.34,111.67,6.2316,1.42E-04,6.2316,0.0013098,13.538,24.127,28.61,-80.6,9.792,1.2817,0,-12.429,0.0014521,17081,1578.4,12.588,0.027799,185.9,154.65,3.0346,0.35676,21041541,2110.3,39.148,0.52169,0.52422,0.27468,0.11046,0.13655,0.20421,0.63864,2.06E-04,0,0,0,0,-0.018467,0.015437,10.3,83.323,78.938,1.84E-04,NaN,14.568,1005.4,340.13,0.05,0.026631,176.31
1.1913,72.64,125.03,108.24,125.9,111.26,6.9395,1.65E-04,6.9395,0.0013583,14.79,25.76,28.61,-80.6,9.792,1.7872,0,-11.025,9.46E-04,17031,1528.7,12.56,0.027764,184.46,154.44,2.9147,0.37314,21996123,2100.4,42.976,0.52161,0.52643,0.2725,0.111,0.1381,0.29391,0.87018,-1.53E-04,0,0,0,0,-0.013284,0.016153,10.3,83.323,78.349,1.08E-04,NaN,14.528,1004.7,340.1,0.05,0.027139,192.87
1.2413,79.027,130.44,107.48,131.44,110.83,7.7118,1.89E-04,7.7118,0.0014036,16.116,27.046,28.61,-80.6,9.7919,2.0134,0,-9.1507,9.85E-04,16981,1478.8,12.532,0.027729,183.86,154.23,2.8775,0.38966,22956930,2090.5,46.95,0.52171,0.52777,0.2704,0.11157,0.13974,0.33586,0.97496,-1.69E-04,0,0,0,0,-0.0083935,0.016866,10.3,83.323,77.843,7.65E-05,NaN,14.486,1004,340.08,0.05,0.027649,210.06
1.2913,85.684,135.82,106.71,136.94,110.39,8.552,2.16E-04,8.552,0.0014458,17.504,28.28,28.61,-80.6,9.7919,2.3587,0,-6.8446,9.01E-04,16932,1429,12.504,0.027694,182.97,154.01,2.8113,0.40582,23894934,2080.7,51.117,0.52198,0.53019,0.26842,0.11215,0.14141,0.4018,1.1337,1.69E-04,0,0,0,0,-0.0043303,0.017576,10.3,83.323,77.441,1.26E-04,NaN,14.443,1003.2,340.05,0.05,0.028228,227.89
1.3413,92.608,141.16,106.02,142.42,109.94,9.463,2.45E-04,9.463,0.0014857,18.944,29.068,28.61,-80.6,9.7919,2.4876,3.10E-07,-4.0503,4.81E-04,16882,1379.2,12.476,0.027659,182.67,153.8,2.8032,0.422,24832267,2070.8,55.365,0.52241,0.5315,0.2665,0.11276,0.14315,0.42723,1.1988,-2.07E-04,0,0,0,0,-0.0014025,0.018283,10.3,83.323,77.167,1.87E-04,NaN,14.398,1002.4,340.02,0.05,0.028747,246.33
1.3913,99.799,146.46,105.48,147.88,109.46,10.447,2.78E-04,10.447,0.0015244,20.409,29.242,28.61,-80.6,9.7919,2.3433,0,-1.0184,1.74E-06,16832,1329.4,12.448,0.027624,183.09,153.58,2.8651,0.43828,25774272,2060.9,59.629,0.52301,0.53113,0.26464,0.1134,0.14497,0.39938,1.1445,-4.40E-04,0,0,0,0,-8.22E-05,0.018987,10.3,83.323,77.04,2.21E-04,NaN,14.351,1001.5,340,0.05,0.029245,265.39
1.4413,107.25,151.75,104.95,153.31,108.87,11.504,3.14E-04,11.504,0.0015626,21.872,28.973,28.61,-80.6,9.7918,2.1268,3.14E-07,2.0354,-5.59E-04,16782,1279.6,12.42,0.027589,183.72,153.37,2.947,0.45441,26705428,2049.6,63.968,0.52374,0.53051,0.26285,0.11405,0.14684,0.35817,1.0552,2.40E-04,0,0,0,0,3.06E-04,0.019689,10.3,83.323,77.066,2.15E-04,NaN,14.303,1000.7,339.97,0.05,0.029741,285.05
1.4913,114.97,157,104.37,158.72,108.08,12.633,3.53E-04,12.633,0.0016004,23.306,28.074,28.61,-80.6,9.7918,1.7226,2.97E-07,4.9257,-0.0012091,16733,1230.5,12.392,0.027554,184.89,153.15,3.082,0.47057,27635844,2035.3,68.359,0.52463,0.52915,0.26111,0.11474,0.14879,0.28342,0.87158,-3.91E-04,0,0,0,0,0.001669,0.020387,10.3,83.323,77.241,1.28E-04,NaN,14.253,999.77,339.94,0.05,0.030291,305.31
1.5413,122.95,162.24,103.84,164.1,107.25,13.833,3.95E-04,13.833,0.0016377,24.686,26.811,28.61,-80.6,9.7918,1.2855,2.91E-07,7.3777,-4.84E-04,16685,1182.5,12.364,0.027521,186.23,152.94,3.232,0.4865,28551660,2020.8,72.868,0.52564,0.5282,0.25943,0.11543,0.15077,0.2061,0.6623,-3.17E-05,0,0,0,0,0.0035037,0.021081,10.3,83.323,77.551,1.97E-04,NaN,14.201,998.83,339.9,0.05,0.030785,326.1
1.5913,131.2,167.44,103.37,169.45,106.4,15.101,4.42E-04,15.101,0.0016757,25.993,25.191,28.61,-80.6,9.7918,0.77893,0,9.2116,-7.22E-04,16637,1134.6,12.336,0.027487,187.86,152.73,3.4109,0.50232,29458365,2006.4,77.538,0.52677,0.52773,0.25782,0.11615,0.1528,0.12107,0.40827,-2.96E-04,0,0,0,0,0.0051245,0.021771,10.3,83.323,77.968,5.56E-04,NaN,14.147,997.86,339.87,0.05,0.031278,347.42
1.6413,139.7,172.63,102.92,174.76,105.52,16.431,4.92E-04,16.431,0.0017166,27.211,23.271,28.61,-80.6,9.7917,0.18862,0,10.135,-0.0055208,16589,1086.7,12.308,0.027453,189.89,152.51,3.629,0.51811,30361365,1991.9,82.46,0.52802,0.52808,0.25624,0.11688,0.1549,0.028239,0.096735,-2.64E-04,0,0,0,0,0.0058326,0.022456,10.3,83.323,78.457,0.0010379,NaN,14.092,996.87,339.84,0.05,0.031775,369.24
1.6913,148.46,177.79,102.43,180.03,104.64,17.82,5.48E-04,17.82,0.0017628,28.333,21.395,28.61,-80.6,9.7917,0.30601,0,-9.9637,-0.0039854,16542,1038.9,12.28,0.02742,189.54,152.3,3.616,0.53363,31246613,1977.5,87.624,0.52938,0.52953,0.25472,0.11763,0.15702,0.046215,0.17255,-6.36E-05,0,0,0,0,-0.0053146,0.023135,10.3,83.323,78.963,0.0016526,NaN,14.035,995.84,339.8,0.05,0.032271,391.53
1.7413,157.47,182.92,101.92,185.26,103.73,19.263,6.11E-04,19.263,0.0018161,29.355,19.267,28.61,-80.6,9.7917,0.91264,4.07E-07,-8.5892,-0.0019482,16494,990.98,12.252,0.027386,187.6,152.08,3.4487,0.54937,32142381,1963,93.237,0.53087,0.53219,0.25322,0.11841,0.15923,0.14348,0.49903,-1.09E-04,0,0,0,0,-0.0037273,0.023809,10.3,83.323,79.433,0.0023187,NaN,13.976,994.78,339.77,0.05,0.032764,414.27
1.7913,166.75,188.03,101.26,190.45,102.75,20.754,6.80E-04,20.754,0.0018777,30.276,17.48,28.61,-80.6,9.7917,1.3416,5.27E-07,-5.8709,-0.0017362,16446,943.51,12.224,0.027353,186.34,151.87,3.3475,0.5649,33023693,1947.5,99.045,0.53245,0.53528,0.25176,0.11921,0.16148,0.21685,0.72732,-4.24E-04,0,0,0,0,-0.0016473,0.024476,10.3,83.323,79.799,0.0030227,NaN,13.916,993.69,339.73,0.05,0.033259,437.41
1.8413,176.28,193.1,100.39,195.6,101.74,22.289,7.58E-04,22.289,0.0019485,31.128,16.545,28.61,-80.6,9.7916,1.4492,4.02E-07,-2.3208,-1.18E-04,16401,898.18,12.197,0.027321,186.09,151.66,3.3431,0.57999,33877316,1931.6,104.7,0.5341,0.5374,0.25037,0.12001,0.16373,0.23602,0.78935,-1.84E-04,0,0,0,0,-2.44E-04,0.025137,10.3,83.323,80.006,0.0034362,NaN,13.854,992.58,339.69,0.05,0.033753,460.93
1.8913,186.06,198.13,99.414,200.69,100.71,23.866,8.45E-04,23.866,0.002028,31.947,16.102,28.61,-80.6,9.7916,1.4819,0,1.5846,-0.0017769,16357,854.59,12.171,0.02729,186.07,151.46,3.3603,0.59517,34733992,1915.7,110.52,0.53587,0.53932,0.24899,0.12083,0.16605,0.24206,0.81353,-3.87E-04,0,0,0,0,1.08E-04,0.025791,10.3,83.323,80.026,0.0036526,NaN,13.791,991.43,339.66,0.049482,0.034248,484.78
1.9408,195.98,203.05,98.232,205.67,99.717,25.467,9.40E-04,25.467,0.0021141,32.769,17.144,28.61,-80.6,9.7916,1.0182,0,5.1752,-0.0024783,16314,811.23,12.145,0.02726,187.55,151.26,3.5239,0.6094,35532719,1899.8,115.73,0.53762,0.53929,0.24772,0.12162,0.16828,0.1618,0.56941,-3.10E-04,0,0,0,0,0.0011006,0.026433,10.3,83.323,79.854,0.0040218,NaN,13.726,990.26,339.62,0.05,0.034907,508.69
1.9908,206.26,207.96,96.976,210.66,98.679,27.127,0.0010455,27.127,0.0022082,33.66,18.25,28.61,-80.6,9.7915,0.66572,-8.47E-07,7.6651,-0.0025455,16271,767.87,12.119,0.027229,188.77,151.06,3.661,0.62415,36359225,1883.8,121.47,0.53953,0.54025,0.24642,0.12246,0.17064,0.10356,0.37734,-1.38E-04,0,0,0,0,0.0023022,0.027074,10.3,83.323,79.529,0.0042239,NaN,13.659,989.06,339.58,0.05,0.035371,533.14
2.0408,216.78,212.8,95.621,215.6,97.645,28.834,0.0011618,28.834,0.0023086,34.614,19.779,28.61,-80.6,9.7915,0.21709,-4.40E-07,9.1001,-0.0062596,16227,724.29,12.092,0.027199,190.37,150.85,3.8361,0.63871,37172649,1867.9,127.35,0.54151,0.54158,0.24516,0.12331,0.17303,0.032841,0.12272,6.30E-05,0,0,0,0,0.0030994,0.027709,10.3,83.323,79.105,0.0041234,NaN,13.591,987.83,339.54,0.05,0.035802,557.85
2.0908,227.54,217.58,94.234,220.48,96.594,30.59,0.0012885,30.59,0.0024133,35.646,21.223,28.61,-80.6,9.7915,0.15239,-3.81E-07,-9.1544,-0.007387,16183,680.7,12.066,0.027168,190.68,150.65,3.8865,0.65334,37986907,1851.9,133.58,0.54358,0.54362,0.2439,0.12419,0.17549,0.022983,0.092163,1.39E-04,0,0,0,0,-0.0029985,0.028338,10.3,83.323,78.643,0.0042169,NaN,13.521,986.56,339.49,0.05,0.03628,582.78
2.1408,238.53,222.28,92.847,225.3,95.527,32.4,0.0014261,32.4,0.0025219,36.745,22.467,28.61,-80.6,9.7914,0.42811,0,-8.0563,-0.0016254,16140,637.12,12.039,0.027137,189.82,150.44,3.8229,0.66792,38796563,1835.9,140.05,0.54575,0.54605,0.24267,0.12509,0.178,0.065817,0.25424,-2.46E-04,0,0,0,0,-0.0022225,0.02896,10.3,83.323,78.209,0.0044499,NaN,13.45,985.27,339.45,0.05,0.036712,607.91
2.1908,249.76,226.92,91.491,230.06,94.445,34.265,0.0015755,34.265,0.0026344,37.901,23.438,28.61,-80.6,9.7914,0.62945,-7.26E-07,-6.007,-0.0015148,16096,593.53,12.012,0.027107,189.24,150.24,3.7865,0.68231,39592525,1820,146.65,0.54797,0.54863,0.24146,0.12599,0.18052,0.098149,0.37324,-2.87E-06,0,0,0,0,-0.0011843,0.029574,10.3,83.323,77.854,0.0046993,NaN,13.377,983.96,339.41,0.05,0.037143,633.2
2.2408,261.22,231.49,90.144,234.77,93.365,36.19,0.0017372,36.19,0.0027504,39.102,24.312,28.61,-80.6,9.7914,0.85892,0,-3.0346,-5.50E-04,16053,549.95,11.985,0.027076,188.58,150.03,3.743,0.69615,40353569,1804,153.22,0.55019,0.55141,0.24031,0.12688,0.183,0.13605,0.50924,-4.44E-04,0,0,0,0,-2.90E-04,0.030182,10.3,83.323,77.623,0.0047622,NaN,13.302,982.61,339.36,0.05,0.037577,658.64
2.2908,272.91,236,89.04,239.42,92.233,38.176,0.0019119,38.176,0.0028695,40.322,24.056,28.61,-80.6,9.7913,0.78347,-5.66E-07,0.4999,-6.84E-04,16009,506.36,11.958,0.027045,188.92,149.82,3.7962,0.71015,41121792,1788,159.83,0.55252,0.55354,0.23916,0.1278,0.18556,0.12366,0.46922,-4.66E-04,0,0,0,0,7.58E-06,0.030782,10.3,83.323,77.561,0.0046937,NaN,13.226,981.24,339.31,0.05,0.038009,684.2
2.3408,284.82,240.45,88.071,244.01,91.075,40.222,0.0020992,40.222,0.0029903,41.512,23.197,28.61,-80.6,9.7913,0.60845,-8.65E-07,3.5726,-0.0010138,15965,462.78,11.931,0.027015,189.59,149.61,3.8817,0.72385,4.19E+07,1772.1,166.41,0.55487,0.5555,0.23804,0.12872,0.18811,0.095092,0.3691,2.70E-04,0,0,0,0,3.73E-04,0.031376,10.3,83.323,77.665,0.0045039,NaN,13.149,979.85,339.27,0.05,0.038443,709.89
2.3908,296.95,244.86,87.252,248.55,89.882,42.326,0.0022983,42.326,0.0031111,42.641,21.581,28.61,-80.6,9.7913,0.26486,0,5.6385,-0.003437,15922,419.19,11.903,0.026984,190.86,149.4,4.0251,0.73752,42613556,1756.1,173.1,0.5573,0.55742,0.23693,0.12966,0.19071,0.040541,0.16205,-2.36E-04,0,0,0,0,8.94E-04,0.031962,10.3,83.323,77.901,0.0041383,NaN,13.07,978.42,339.22,0.05,0.038908,735.68
2.4408,309.31,249.23,86.404,253.03,88.691,44.484,0.0025083,44.484,0.0032307,43.685,20.01,28.61,-80.6,9.7912,0.016632,0,-6.1869,-0.058851,15878,375.6,11.876,0.026953,191.83,149.19,4.1404,0.75074,43328660,1740.1,179.83,0.55972,0.55972,0.23587,0.13058,0.19327,0.002508,0.011551,-4.60E-04,0,0,0,0,-0.0010392,0.03254,10.3,83.323,78.202,0.0039482,NaN,12.99,976.97,339.17,0.05,0.039342,761.56
2.4908,321.88,253.56,85.55,257.46,87.486,46.693,0.002728,46.693,0.0033475,44.65,18.305,28.61,-80.6,9.7912,0.32364,0,-5.3118,-0.0016981,15835,332.02,11.848,0.026923,190.85,148.97,4.066,0.76392,44039210,1724.2,186.81,0.56221,0.56239,0.23482,0.13152,0.19586,0.049855,0.20372,5.77E-05,0,0,0,0,-7.40E-04,0.033111,10.3,83.323,78.496,0.0035344,NaN,12.908,975.5,339.12,0.05,0.039779,787.49
2.5408,334.66,257.85,84.631,261.83,86.273,48.948,0.0029562,48.948,0.0034604,45.53,16.751,28.61,-80.599,9.7911,0.5962,-4.02E-07,-2.8242,-0.0010662,15791,288.43,11.82,0.026892,190.03,148.76,4.0071,0.77712,44748077,1708.2,194.04,0.56477,0.56538,0.23378,0.13248,0.19851,0.093578,0.3752,1.68E-05,0,0,0,0,-2.02E-04,0.033674,10.3,83.323,78.706,0.0030569,NaN,12.825,974,339.07,0.05,0.040285,813.45
2.5908,347.66,262.08,82.29,266.15,83.82,51.245,0.0031916,51.245,0.0035684,46.354,15.944,28.61,-80.599,9.7911,0.64269,-3.32E-07,0.70632,-0.0024843,15748,244.85,11.792,0.026861,189.98,148.54,4.0229,0.78998,45434388,1672.5,201.14,0.56732,0.56804,0.23276,0.13343,0.20113,0.1013,0.408,1.46E-04,0,0,0,0,1.22E-05,0.034229,10.3,83.323,78.76,0.0033355,NaN,12.74,972.48,339.02,0.05,0.040775,839.4
2.6408,360.87,266.19,75.378,270.34,76.936,53.583,0.0034346,53.583,0.0036726,47.168,15.406,28.61,-80.599,9.7911,0.45275,7.25E-07,3.9448,-0.0043391,15706,202.88,11.765,0.026832,190.72,148.33,4.1148,0.80229,46086621,1567.2,207.92,0.56984,0.57019,0.2318,0.13436,0.20368,0.0706,0.29043,3.35E-04,0,0,0,0,3.70E-04,0.034769,10.3,83.323,78.64,0.004373,NaN,12.654,970.93,338.97,0.05,0.041213,864.91
2.6908,374.27,269.95,64.577,274.18,66.139,55.961,0.0036877,55.961,0.0037757,47.964,14.292,28.61,-80.599,9.791,0.25494,4.78E-07,6.0476,-0.010741,15669,165.96,11.741,0.026806,191.49,148.15,4.2082,0.81392,46697438,1401.1,214.46,0.57227,0.57238,0.2309,0.13525,0.20612,0.039301,0.16462,1.93E-04,0,0,0,0,8.46E-04,0.035264,10.3,83.323,78.386,0.0059851,NaN,12.567,969.35,338.91,0.05,0.041694,888.51
2.7408,387.85,273.17,52.318,277.48,54.024,58.378,0.0039547,58.378,0.0038814,48.718,13.47,28.61,-80.599,9.791,0.097155,0,-6.5883,-0.022031,15642,139.32,11.724,0.026787,192.13,148.02,4.2831,0.82367,47197724,1214.3,220.03,0.57435,0.57437,0.23015,0.13601,0.2082,0.014841,0.064868,4.01E-04,0,0,0,0,-9.81E-04,0.035689,10.3,83.323,78.061,0.0073928,NaN,12.479,967.76,338.86,0.05,0.042144,908.81
2.7908,401.57,275.77,40.117,280.17,41.947,60.831,0.0042383,60.831,0.003992,49.427,12.258,28.61,-80.599,9.7909,0.36947,0,-5.0115,-0.0055738,15622,119.5,11.711,0.026773,191.25,147.92,4.2069,0.83173,47599337,1027.5,224.76,0.57611,0.57636,0.22954,0.13664,0.20993,0.057489,0.24208,4.32E-04,0,0,0,0,-5.57E-04,0.036037,10.3,83.323,77.764,0.00779,NaN,12.39,966.15,338.81,0.05,0.042573,925.25
2.8408,415.41,277.77,28.15,282.25,29.901,63.318,0.0045389,63.318,0.0041072,50.054,10.081,28.61,-80.599,9.7909,0.43346,1.32E-06,-2.2927,-0.0036013,15602,99.68,11.698,0.026759,191.08,147.82,4.2008,0.83827,47912173,840.69,228.53,0.57757,0.5779,0.22906,0.13716,0.21135,0.067772,0.28522,-4.93E-04,0,0,0,0,-1.15E-04,0.036306,10.3,83.323,77.58,0.007397,NaN,12.3,964.53,338.75,0.05,0.043002,937.75
2.8908,429.34,279.18,16.359,283.72,17.933,65.833,0.0048551,65.833,0.0042254,50.557,7.3462,28.61,-80.599,9.7909,0.39095,0,0.48191,-0.0018379,15583,79.863,11.685,0.026745,191.27,147.72,4.2285,0.84292,48115964,653.88,231.08,0.57863,0.5789,0.22873,0.13753,0.21237,0.060992,0.25825,-1.29E-04,0,0,0,0,5.02E-06,0.036497,10.3,83.323,77.535,0.0069442,NaN,12.209,962.9,338.7,0.05,0.04344,946.25
2.9408,443.31,280,4.712,284.59,6.3077,68.37,0.0051841,68.37,0.0043444,50.911,4.1933,28.61,-80.599,9.7908,0.2557,-7.30E-07,2.6894,-0.0043988,15563,60.045,11.672,0.026731,191.76,147.61,4.2861,0.8457,48212079,467.07,232.4,0.57928,0.57939,0.22855,0.13776,0.21298,0.03956,0.1699,-2.50E-04,0,0,0,0,1.55E-04,0.03661,10.3,83.323,77.618,0.0062322,NaN,12.118,961.26,338.64,0.05,0.043867,950.75
2.9908,457.32,280.24,-6.8814,284.86,6.9562,70.921,0.0055231,70.921,0.004462,51.105,1.0175,28.61,-80.599,9.7908,0.10435,-5.35E-07,3.9025,-0.0073507,15543,40.227,11.659,0.026718,192.3,147.51,4.3485,0.8465,48195287,280.26,232.5,0.5795,0.57952,0.22852,0.13782,0.21315,0.015989,0.069606,-4.35E-04,0,0,0,0,3.26E-04,0.036646,10.3,83.323,77.787,0.0056558,NaN,12.027,959.61,338.59,0.05,0.044294,951.23
3.0408,471.32,279.9,-16.847,284.53,16.954,73.477,0.0058701,73.477,0.0045774,51.138,1.9052,28.61,-80.599,9.7907,0.091696,-4.12E-07,-3.9568,-0.0093801,15523,20.409,11.646,0.026704,192.34,147.41,4.3619,0.8456,48081178,118.46,231.54,0.57934,0.57936,0.22864,0.13775,0.21295,0.014037,0.061421,2.79E-04,0,0,0,0,-3.36E-04,0.036604,10.3,83.323,77.989,0.0059277,NaN,11.936,957.97,338.53,0.05,0.044754,947.73
3.0908,485.3,279.06,-20.712,283.69,20.952,76.031,0.0062245,76.031,0.0046907,51.03,3.1657,28.61,-80.599,9.7907,0.20914,-5.15E-07,-2.8819,-0.0045247,15509,6.2689,11.636,0.026694,191.9,147.34,4.3264,0.84303,47872613,53.926,229.56,0.57882,0.5789,0.22889,0.13754,0.21239,0.032249,0.14003,-5.06E-05,0,0,0,0,-1.80E-04,0.036496,10.3,83.323,78.163,0.006778,NaN,11.846,956.33,338.48,0.05,0.045188,940.81
3.1408,499.23,278.03,-23.455,282.65,23.864,78.579,0.0065868,78.579,0.0048028,50.857,4.4017,28.61,-80.599,9.7906,0.3786,-1.25E-06,-0.93582,-0.0039439,15504,1.3511,11.633,0.02669,191.29,147.31,4.2693,0.84027,47654081,6.4271,227.52,0.57826,0.57852,0.22915,0.13732,0.21179,0.059002,0.25143,-1.51E-04,0,0,0,0,-1.91E-05,0.036362,10.3,83.323,78.263,0.0077588,NaN,11.755,954.7,338.42,0.05,0.045614,932.61
3.1908,513.1,276.86,-23.755,281.46,24.118,81.116,0.0069582,81.116,0.0049149,50.641,4.1657,28.61,-80.599,9.7906,0.3083,-2.16E-06,1.4748,-0.003064,15503,0.33243,11.632,0.02669,191.5,147.31,4.2904,0.8367,47393588,0,224.9,0.57753,0.5777,0.22948,0.13704,0.21101,0.047811,0.20478,-2.52E-04,0,0,0,0,4.78E-05,0.036209,10.3,83.323,78.248,0.0084486,NaN,11.665,953.15,338.37,0.05,0.046246,923.56
3.2408,526.91,275.68,-23.665,280.26,23.97,83.643,0.0073393,83.643,0.0050275,50.442,3.8161,28.61,-80.599,9.7906,0.22095,-3.19E-06,3.1893,-0.0017744,15503,0,11.632,0.026689,191.78,147.31,4.3174,0.83335,47146438,0,222.44,0.57684,0.57693,0.22979,0.13677,0.21028,0.03406,0.14666,1.99E-04,0,0,0,0,2.25E-04,0.036054,10.3,83.323,78.129,0.0085637,NaN,11.575,951.6,338.31,0.05,0.046699,914.5
3.2908,540.67,274.5,-23.604,279.06,23.842,86.161,0.0077301,86.161,0.0051404,50.263,3.3562,28.61,-80.599,9.7905,0.096318,-3.03E-06,4.2401,-0.0052839,15503,0,11.632,0.026689,192.19,147.31,4.3575,0.83012,46906278,0,220.08,0.57619,0.5762,0.23009,0.13651,0.20958,0.014723,0.063334,-6.12E-05,0,0,0,0,4.01E-04,0.035901,10.3,83.323,77.939,0.0083333,NaN,11.486,950.06,338.26,0.05,0.047141,905.54
3.3408,554.36,273.32,-23.626,277.87,23.758,88.67,0.0081297,88.67,0.0052531,50.115,2.5028,28.61,-80.599,9.7905,0.1415,-2.84E-06,-4.1279,-0.0026559,15503,0,11.632,0.026689,192,147.31,4.339,0.82661,46651552,0,217.62,0.57548,0.57552,0.23042,0.13624,0.20883,0.021684,0.094215,-2.64E-04,0,0,0,0,-3.84E-04,0.035749,10.3,83.323,77.724,0.0082274,NaN,11.397,948.53,338.21,0.05,0.047564,896.68
3.3908,568,272.14,-23.545,276.69,23.649,91.173,0.0085378,91.173,0.0053654,50,2.2104,28.61,-80.599,9.7904,0.22574,-3.11E-06,-2.8653,3.50E-04,15503,0,11.632,0.026689,191.68,147.31,4.3076,0.82346,46417665,0,215.4,0.57485,0.57494,0.23071,0.13599,0.20815,0.03477,0.14971,2.94E-04,0,0,0,0,-1.86E-04,0.035597,10.3,83.323,77.547,0.0082303,NaN,11.308,947.01,338.15,0.05,0.048013,887.92
3.4408,581.57,270.96,-23.48,275.52,23.55,93.67,0.0089543,93.67,0.0054771,49.899,1.8116,28.61,-80.599,9.7904,0.33426,-3.48E-06,-1.1275,0.0020078,15503,0,11.632,0.026689,191.27,147.31,4.2681,0.82001,46167730,0,213.04,0.57417,0.57436,0.23103,0.13572,0.20741,0.051827,0.22137,5.17E-05,0,0,0,0,-2.91E-05,0.035447,10.3,83.323,77.445,0.0084562,NaN,11.22,945.49,338.1,0.05,0.048438,879.26
3.4908,595.09,269.79,-23.24,274.35,23.349,96.163,0.0093793,96.163,0.0055884,49.801,2.2505,28.61,-80.599,9.7903,0.20878,-3.86E-06,0.67907,0.0015814,15503,0,11.632,0.026689,191.68,147.31,4.3081,0.81702,45943879,0,210.89,0.57358,0.57366,0.23131,0.13549,0.20678,0.0321,0.13862,-1.81E-05,0,0,0,0,1.06E-05,0.035298,10.3,83.323,77.437,0.0088616,NaN,11.132,943.98,338.04,0.05,0.048868,870.7
3.5408,608.55,268.64,-23.032,273.19,23.167,98.65,0.0098131,98.65,0.0056994,49.681,2.5017,28.61,-80.599,9.7903,0.12711,-4.11E-06,1.6678,0.0023228,15503,0,11.632,0.026689,191.94,147.31,4.3334,0.81371,45702904,0,208.59,0.57293,0.57296,0.23162,0.13523,0.20608,0.019433,0.084085,-2.63E-04,0,0,0,0,6.47E-05,0.035149,10.3,83.323,77.498,0.0090551,NaN,11.044,942.48,337.99,0.05,0.049293,862.25
3.5908,621.96,267.49,-22.844,272.04,22.996,101.13,0.010256,101.13,0.0058103,49.552,2.6401,28.61,-80.599,9.7903,0.072677,-3.97E-06,2.2719,0.0059814,15503,0,11.632,0.026689,192.11,147.31,4.3494,0.81022,45452552,0,206.23,0.57225,0.57226,0.23195,0.13496,0.20534,0.011068,0.048469,-2.67E-04,0,0,0,0,1.21E-04,0.035002,10.3,83.323,77.597,0.009403,NaN,10.957,940.98,337.94,0.05,0.049718,853.9
3.6408,635.3,266.35,-22.637,270.9,22.821,103.6,0.010707,103.6,0.0059212,49.414,2.8936,28.61,-80.599,9.7902,0.017941,-3.92E-06,-2.4512,0.017999,15503,0,11.632,0.026689,192.27,147.31,4.3657,0.80681,45207236,0,203.93,0.57159,0.57159,0.23226,0.1347,0.20462,0.0027214,0.012293,2.72E-05,0,0,0,0,-1.42E-04,0.034855,10.3,83.323,77.718,0.0095737,NaN,10.871,939.49,337.89,0.05,0.050158,845.66
3.6908,648.59,265.23,-22.428,269.76,22.653,106.07,0.011167,106.07,0.0060318,49.262,3.1844,28.61,-80.599,9.7902,0.11995,-3.74E-06,-2.0333,0.0012697,15503,0,11.632,0.026689,191.88,147.31,4.3276,0.80348,44967245,0,201.72,0.57095,0.57098,0.23258,0.13445,0.20393,0.01831,0.07945,8.03E-05,0,0,0,0,-9.88E-05,0.034709,10.3,83.323,77.832,0.0092445,NaN,10.784,938.01,337.83,0.05,0.050588,837.51
3.7408,661.83,264.11,-22.2,268.63,22.495,108.53,0.011634,108.53,0.0061418,49.092,3.6276,28.61,-80.599,9.7901,0.26337,-3.98E-06,-0.91391,4.87E-04,15503,0,11.632,0.026689,191.35,147.31,4.2762,0.80043,44743102,0,199.7,0.57037,0.57049,0.23286,0.13422,0.20329,0.040564,0.17387,-2.43E-04,0,0,0,0,-2.01E-05,0.034564,10.3,83.323,77.909,0.008952,NaN,10.698,936.53,337.78,0.05,0.051016,829.47
3.7908,675,263,-22.026,267.51,22.356,110.98,0.012108,110.98,0.0062508,48.904,3.8262,28.61,-80.599,9.7901,0.33158,-4.84E-06,0.86644,1.08E-04,15503,0,11.632,0.026689,191.09,147.31,4.2508,0.7974,44521041,0,197.71,0.5698,0.56999,0.23315,0.13399,0.20266,0.051279,0.21812,1.58E-04,0,0,0,0,1.82E-05,0.03442,10.3,83.323,77.912,0.0087981,NaN,10.612,935.06,337.73,0.05,0.051541,821.51
3.8408,688.13,261.91,-21.923,266.4,22.229,113.42,0.012587,113.42,0.0063587,48.715,3.6751,28.61,-80.599,9.7901,0.29291,-4.63E-06,2.7099,-5.82E-04,15503,0,11.632,0.026689,191.2,147.31,4.2614,0.79435,44298259,0,195.68,0.56923,0.56938,0.23344,0.13376,0.20203,0.045171,0.19199,1.33E-04,0,0,0,0,1.80E-04,0.034277,10.3,83.323,77.822,0.0090446,NaN,10.527,933.59,337.68,0.05,0.052003,813.65
3.8908,701.19,260.81,-21.871,265.29,22.117,115.85,0.013073,115.85,0.0064656,48.54,3.2889,28.61,-80.599,9.79,0.17772,-4.31E-06,4.077,8.12E-04,15503,0,11.632,0.026689,191.58,147.31,4.2981,0.79133,44077514,0,193.66,0.56867,0.56872,0.23373,0.13353,0.20141,0.027196,0.11606,-4.28E-04,0,0,0,0,4.10E-04,0.034134,10.3,83.323,77.649,0.0093488,NaN,10.442,932.13,337.63,0.05,0.052468,805.87
3.9408,714.21,259.72,-21.826,264.19,22.02,118.28,0.013566,118.28,0.0065717,48.385,2.9209,28.61,-80.599,9.79,0.060376,-4.27E-06,4.7396,-0.0018355,15503,0,11.632,0.026689,191.97,147.31,4.3363,0.78846,43865930,0,191.76,0.56814,0.56815,0.23401,0.13332,0.20082,0.0091657,0.039553,-1.78E-04,0,0,0,0,5.58E-04,0.033993,10.3,83.323,77.426,0.0097015,NaN,10.358,930.68,337.58,0.05,0.052909,798.18
3.9908,727.17,258.63,-21.922,263.09,22.001,120.69,0.014066,120.69,0.0066773,48.263,1.8619,28.61,-80.599,9.7899,0.27278,-4.05E-06,-4.2229,0.0021301,15503,0,11.632,0.026689,191.19,147.31,4.2609,0.78495,43619317,0,189.59,0.56749,0.56762,0.23433,0.13306,0.2001,0.041971,0.17895,-1.68E-04,0,0,0,0,-4.47E-04,0.033852,10.3,83.323,77.194,0.010376,NaN,10.273,929.23,337.52,0.05,0.053376,790.57
4.0408,740.07,257.53,-21.917,262,21.957,123.1,0.014573,123.1,0.0067829,48.187,1.3271,28.61,-80.599,9.7899,0.43982,-4.08E-06,-2.1496,-5.66E-04,15503,0,11.632,0.026689,190.59,147.31,4.2026,0.78172,43389277,0,187.61,0.5669,0.56723,0.23464,0.13282,0.19944,0.068381,0.28787,-1.40E-04,0,0,0,0,-1.17E-04,0.033713,10.3,83.323,77.031,0.010792,NaN,10.19,927.79,337.47,0.05,0.053817,783.04
4.0908,752.92,256.44,-21.772,260.91,21.818,125.51,0.01509,125.51,0.0068886,48.12,1.4146,28.61,-80.599,9.7899,0.41185,-3.98E-06,0.24664,-2.09E-04,15503,0,11.632,0.026689,190.67,147.31,4.2096,0.77875,43173668,0,185.71,0.56636,0.56666,0.23492,0.1326,0.19884,0.063899,0.2687,-1.42E-04,0,0,0,0,1.55E-06,0.033574,10.3,83.323,76.985,0.01071,NaN,10.106,926.35,337.42,0.05,0.054255,775.58
4.1408,765.71,255.35,-21.508,259.83,21.604,127.91,0.015615,127.91,0.0069943,48.036,2.0287,28.61,-80.599,9.7898,0.21204,-4.05E-06,1.9917,5.47E-04,15503,0,11.632,0.026689,191.34,147.31,4.2746,0.776,42971187,0,183.89,0.56587,0.56595,0.23519,0.1324,0.19828,0.032467,0.13851,-1.31E-04,0,0,0,0,1.02E-04,0.033436,10.3,83.323,77.045,0.010671,NaN,10.023,924.92,337.37,0.05,0.054683,768.22
4.1908,778.46,254.29,-21.26,258.76,21.415,130.31,0.016148,130.31,0.0070997,47.92,2.5709,28.61,-80.599,9.7898,0.022949,-4.17E-06,2.6023,0.0048225,15503,0,11.632,0.026689,191.98,147.31,4.3375,0.77308,4.28E+07,0,182.03,0.56535,0.56535,0.23547,0.13218,0.1977,0.0034698,0.015347,4.09E-05,0,0,0,0,1.75E-04,0.033298,10.3,83.323,77.164,0.010802,NaN,9.94,923.5,337.32,0.05,0.055111,760.94
4.2408,791.14,253.23,-21.065,257.7,21.26,132.71,0.016688,132.71,0.0072049,47.783,2.8718,28.61,-80.599,9.7897,0.09307,-4.17E-06,-2.3839,-3.10E-04,15503,0,11.632,0.026689,191.71,147.31,4.3107,0.76995,42536738,0,180.11,0.56479,0.56481,0.23577,0.13196,0.19707,0.014132,0.060814,9.93E-05,0,0,0,0,-1.48E-04,0.033162,10.3,83.323,77.291,0.010992,NaN,9.8576,922.08,337.27,0.05,0.055535,753.75
4.2908,803.78,252.18,-20.885,256.64,21.118,135.09,0.017235,135.09,0.0073098,47.633,3.1239,28.61,-80.599,9.7897,0.19171,-4.27E-06,-1.6265,-0.0025605,15503,0,11.632,0.026689,191.34,147.31,4.2745,0.76686,42317101,0,178.23,0.56425,0.56431,0.23607,0.13173,0.19645,0.029289,0.12542,3.82E-04,0,0,0,0,-6.96E-05,0.033026,10.3,83.323,77.394,0.011524,NaN,9.7754,920.67,337.22,0.05,0.056094,746.65
4.3408,816.36,251.14,-20.773,255.59,20.996,137.47,0.01779,137.47,0.0074147,47.477,3.0497,28.61,-80.599,9.7897,0.1819,-4.32E-06,-0.60683,-0.0021553,15503,0,11.632,0.026689,191.34,147.31,4.2754,0.76361,42088949,0,176.27,0.56368,0.56373,0.23638,0.1315,0.1958,0.027763,0.11906,-2.17E-04,0,0,0,0,-9.78E-06,0.032891,10.3,83.323,77.449,0.012246,NaN,9.6937,919.26,337.17,0.05,0.056543,739.62
4.3908,828.89,250.1,-20.647,254.54,20.875,139.84,0.018353,139.84,0.0075199,47.325,3.0825,28.61,-80.599,9.7896,0.20336,-4.35E-06,0.36897,-0.0031597,15503,0,11.632,0.026689,191.25,147.31,4.2659,0.76062,41875652,0,174.47,0.56316,0.56323,0.23666,0.13128,0.19521,0.031074,0.13281,1.93E-04,0,0,0,0,3.64E-06,0.032756,10.3,83.323,77.456,0.012805,NaN,9.6122,917.86,337.12,0.05,0.057047,732.67
4.4408,841.37,249.07,-20.597,253.5,20.777,142.2,0.018926,142.2,0.0076255,47.178,2.7287,28.61,-80.599,9.7896,0.092782,-4.06E-06,1.1805,-0.0047204,15503,0,11.632,0.026689,191.61,147.31,4.3014,0.75739,4.17E+07,0,172.54,0.5626,0.56261,0.23697,0.13105,0.19457,0.01407,0.060077,3.04E-04,0,0,0,0,3.76E-05,0.032623,10.3,83.323,77.414,0.013258,NaN,9.5311,916.47,337.07,0.05,0.057539,725.8
4.4908,853.8,248.04,-20.594,252.47,20.707,144.56,0.019507,144.56,0.0077315,47.055,2.1581,28.61,-80.599,9.7896,0.097605,-4.03E-06,-1.1795,-0.0026817,15503,0,11.632,0.026689,191.57,147.31,4.2972,0.75399,41415273,0,170.56,0.56201,0.56203,0.2373,0.13081,0.1939,0.014801,0.063485,-1.42E-04,0,0,0,0,-3.79E-05,0.03249,10.3,83.323,77.352,0.013476,NaN,9.4503,915.08,337.03,0.05,0.058172,719.01
4.5408,866.18,247.01,-20.505,251.44,20.606,146.91,0.020097,146.91,0.007838,46.952,2.0387,28.61,-80.598,9.7895,0.13403,-4.04E-06,-0.53473,-8.97E-05,15503,0,11.632,0.026689,191.42,147.31,4.2825,0.75099,41203475,0,168.8,0.5615,0.56154,0.23759,0.1306,0.19332,0.020367,0.087523,-3.11E-04,0,0,0,0,-7.86E-06,0.032358,10.3,83.323,77.308,0.013729,NaN,9.3699,913.7,336.98,0.05,0.058808,712.28
4.5908,878.5,245.99,-20.391,250.41,20.492,149.25,0.020696,149.25,0.007945,46.851,2.0382,28.61,-80.598,9.7895,0.12758,-3.86E-06,0.11582,-2.96E-04,15503,0,11.632,0.026689,191.42,147.31,4.2825,0.74804,40994576,0,167.08,0.56101,0.56104,0.23787,0.13039,0.19274,0.019374,0.082652,1.73E-04,0,0,0,0,3.72E-07,0.032227,10.3,83.323,77.298,0.013869,NaN,9.2897,912.32,336.93,0.05,0.059283,705.63
4.6408,890.77,244.97,-20.289,249.4,20.384,151.59,0.021304,151.59,0.0080522,46.75,1.9682,28.61,-80.598,9.7894,0.14315,-3.76E-06,0.77199,-0.0019849,15503,0,11.632,0.026689,191.34,147.31,4.2749,0.74495,40778422,0,165.3,0.56049,0.56052,0.23817,0.13017,0.19214,0.021754,0.093443,-9.28E-05,0,0,0,0,1.67E-05,0.032097,10.3,83.323,77.32,0.013446,NaN,9.21,910.95,336.88,0.05,0.059791,699.05
4.6908,903,243.96,-20.126,248.38,20.246,153.93,0.021921,153.93,0.0081594,46.647,2.2025,28.61,-80.598,9.7894,0.04906,-3.86E-06,1.28,-0.0052552,15503,0,11.632,0.026689,191.65,147.31,4.3053,0.7421,40576207,0,163.64,0.56002,0.56002,0.23845,0.12998,0.19159,0.0074075,0.031722,-2.58E-04,0,0,0,0,4.62E-05,0.031967,10.3,83.323,77.373,0.012761,NaN,9.1305,909.58,336.83,0.05,0.060239,692.54
4.7408,915.17,242.96,-19.942,247.38,20.106,156.26,0.022543,156.26,0.0082661,46.528,2.5663,28.61,-80.598,9.7894,0.094575,-3.85E-06,-1.1756,-5.28E-04,15503,0,11.632,0.026689,191.47,147.31,4.2876,0.73939,40381974,0,162.08,0.55957,0.55959,0.23872,0.12979,0.19107,0.014319,0.061703,4.94E-04,0,0,0,0,-3.92E-05,0.031838,10.3,83.323,77.437,0.012096,NaN,9.0514,908.22,336.78,0.05,0.060668,686.11
4.7908,927.29,241.97,-19.793,246.38,19.985,158.58,0.023171,158.58,0.0083719,46.394,2.7662,28.61,-80.598,9.7893,0.17854,-3.88E-06,-0.50062,-5.50E-04,15503,0,11.632,0.026689,191.15,147.31,4.2568,0.73659,40183396,0,160.49,0.55912,0.55917,0.23899,0.12959,0.19053,0.027173,0.11601,-5.45E-05,0,0,0,0,-7.17E-06,0.03171,10.3,83.323,77.48,0.011786,NaN,8.9726,906.87,336.74,0.05,0.061103,679.75
4.8408,939.37,240.98,-19.726,245.38,19.89,160.9,0.023804,160.9,0.0084765,46.26,2.5445,28.61,-80.598,9.7893,0.10881,-3.71E-06,0.22545,-1.19E-04,15503,0,11.632,0.026689,191.38,147.31,4.2784,0.73347,39967971,0,158.74,0.55861,0.55863,0.2393,0.12938,0.18994,0.016479,0.070705,-1.50E-05,0,0,0,0,1.47E-06,0.031582,10.3,83.323,77.486,0.011784,NaN,8.8941,905.52,336.69,0.05,0.061543,673.45
4.8908,951.39,240,-19.652,244.39,19.796,163.21,0.02444,163.21,0.0085801,46.137,2.3844,28.61,-80.598,9.7893,0.057729,-3.79E-06,0.59604,-1.60E-04,15503,0,11.632,0.026689,191.54,147.31,4.2939,0.73049,39760767,0,157.08,0.55813,0.55813,0.23959,0.12917,0.18937,0.0087116,0.037059,-3.05E-05,0,0,0,0,1.03E-05,0.031455,10.3,83.323,77.464,0.012296,NaN,8.8159,904.18,336.64,0.05,0.062028,667.22
4.9408,963.37,239.02,-19.545,243.41,19.693,165.51,0.025082,165.51,0.0086827,46.018,2.4097,28.61,-80.598,9.7892,0.073503,-3.73E-06,0.87966,-0.0042123,15503,0,11.632,0.026689,191.46,147.31,4.2866,0.72776,39567456,0,155.56,0.55769,0.5577,0.23986,0.12899,0.18885,0.011101,0.047386,-3.27E-04,0,0,0,0,2.27E-05,0.031329,10.3,83.323,77.428,0.0133,NaN,8.7381,902.84,336.59,0.05,0.062465,661.06
4.9908,975.29,238.04,-19.452,242.43,19.597,167.81,0.025729,167.81,0.0087849,45.898,2.3767,28.61,-80.598,9.7892,0.066469,-3.76E-06,1.2109,-0.0045957,15503,0,11.632,0.026689,191.46,147.31,4.2871,0.72502,39374308,0,154.04,0.55726,0.55727,0.24013,0.1288,0.18833,0.010031,0.042972,4.07E-04,0,0,0,0,4.33E-05,0.031203,10.3,83.323,77.375,0.014298,NaN,8.6606,901.51,336.55,0.05,0.062955,654.96
5.0408,987.17,237.07,-19.356,241.45,19.501,170.1,0.026384,170.1,0.008887,45.779,2.3711,28.61,-80.598,9.7891,0.068521,-3.78E-06,1.5112,-0.0058883,15503,0,11.632,0.026689,191.44,147.31,4.2845,0.72236,39186135,0,152.58,0.55685,0.55686,0.24039,0.12862,0.18784,0.01034,0.04401,1.73E-04,0,0,0,0,6.80E-05,0.031078,10.3,83.323,77.307,0.014921,NaN,8.5834,900.18,336.5,0.05,0.063502,648.92
5.0908,999,236.11,-19.291,240.48,19.418,172.39,0.027046,172.39,0.0089892,45.664,2.2164,28.61,-80.598,9.7891,0.0123,-3.79E-06,1.7117,-0.032882,15503,0,11.632,0.026689,191.62,147.31,4.3021,0.71959,38992119,0,151.07,0.55642,0.55642,0.24067,0.12843,0.18732,0.0018486,0.0081373,-7.58E-05,0,0,0,0,8.80E-05,0.030954,10.3,83.323,77.226,0.015271,NaN,8.5065,898.86,336.45,0.05,0.063931,642.94
5.1408,1010.8,235.14,-19.221,239.51,19.335,174.67,0.027716,174.67,0.0090917,45.556,2.1001,28.61,-80.598,9.7891,0.030532,-3.79E-06,-1.6618,-0.012353,15503,0,11.632,0.026689,191.53,147.31,4.2938,0.71688,38804132,0,149.6,0.556,0.556,0.24094,0.12825,0.18681,0.0045933,0.020169,3.12E-04,0,0,0,0,-8.36E-05,0.03083,10.3,83.323,77.141,0.015461,NaN,8.4299,897.6,336.41,0.05,0.064356,637.07
5.1908,1022.5,234.18,-19.203,238.55,19.28,176.94,0.028394,176.94,0.0091944,45.46,1.7236,28.61,-80.598,9.789,0.17444,-3.92E-06,-1.2428,-0.0029529,15503,0,11.632,0.026689,191,147.31,4.2422,0.71385,3.86E+07,0,148.03,0.55553,0.55558,0.24123,0.12805,0.18625,0.026485,0.11263,4.88E-04,0,0,0,0,-4.72E-05,0.030707,10.3,83.323,77.066,0.015227,NaN,8.3536,896.35,336.36,0.05,0.064782,631.26
5.2408,1034.2,233.22,-19.127,237.6,19.197,179.21,0.02908,179.21,0.0092971,45.377,1.6308,28.61,-80.598,9.789,0.20667,-3.92E-06,-0.36792,-0.0038233,15503,0,11.632,0.026689,190.87,147.31,4.2294,0.71105,38408653,0,146.55,0.5551,0.55517,0.24151,0.12786,0.18573,0.031437,0.1333,-1.70E-04,0,0,0,0,-4.17E-06,0.030584,10.3,83.323,77.025,0.014425,NaN,8.2777,895.11,336.32,0.05,0.065212,625.51
5.2908,1045.8,232.27,-18.984,236.64,19.075,181.48,0.029772,181.48,0.0093994,45.291,1.8595,28.61,-80.598,9.789,0.10979,-3.86E-06,0.34523,-0.0043376,15503,0,11.632,0.026689,191.19,147.31,4.2607,0.70851,38231722,0,145.19,0.55471,0.55473,0.24176,0.12769,0.18526,0.016591,0.070763,-3.30E-04,0,0,0,0,3.70E-06,0.030462,10.3,83.323,77.026,0.013665,NaN,8.2021,893.87,336.27,0.05,0.065643,619.81
5.3408,1057.4,231.32,-18.86,235.7,18.965,183.74,0.030469,183.74,0.0095009,45.194,1.9942,28.61,-80.598,9.7889,0.0463,-3.93E-06,0.65857,-0.0093748,15503,0,11.632,0.026689,191.4,147.31,4.2808,0.70583,38047391,0,143.79,0.55431,0.55431,0.24203,0.12751,0.18476,0.0069656,0.030153,3.98E-04,0,0,0,0,1.36E-05,0.030341,10.3,83.323,77.052,0.013053,NaN,8.1267,892.64,336.22,0.05,0.066124,614.18
5.3908,1069,230.39,-18.705,234.76,18.845,186,0.031169,186,0.0096014,45.088,2.2911,28.61,-80.598,9.7889,0.085124,-3.98E-06,-0.60005,-0.0026184,15503,0,11.632,0.026689,191.24,147.31,4.2657,0.70333,37873703,0,142.48,0.55394,0.55395,0.24228,0.12735,0.18431,0.012836,0.054698,-4.94E-04,0,0,0,0,-1.13E-05,0.03022,10.3,83.323,77.086,0.012535,NaN,8.0517,891.41,336.18,0.05,0.066551,608.6
5.4408,1080.5,229.45,-18.542,233.82,18.731,188.25,0.031873,188.25,0.0097008,44.964,2.6545,28.61,-80.598,9.7889,0.2418,-4.05E-06,0.083416,-0.0010535,15503,0,11.632,0.026689,190.68,147.31,4.2107,0.70098,37708364,0,141.27,0.55359,0.55369,0.24252,0.1272,0.18388,0.036831,0.15461,4.54E-04,0,0,0,0,2.21E-07,0.0301,10.3,83.323,77.101,0.012475,NaN,7.977,890.19,336.13,0.05,0.066976,603.08
5.4908,1091.9,228.53,-18.476,232.88,18.649,190.5,0.032579,190.5,0.009799,44.832,2.533,28.61,-80.598,9.7888,0.20109,-4.37E-06,1.0636,-0.0010137,15503,0,11.632,0.026689,190.8,147.31,4.2226,0.69822,37521010,0,139.86,0.55319,0.55326,0.24279,0.12702,0.18338,0.030542,0.12856,4.28E-04,0,0,0,0,3.62E-05,0.02998,10.3,83.323,77.072,0.013072,NaN,7.9025,888.97,336.09,0.05,0.067405,597.62
5.5408,1103.3,227.61,-18.426,231.96,18.575,192.73,0.033289,192.73,0.0098962,44.71,2.347,28.61,-80.598,9.7888,0.12978,-4.12E-06,1.7362,-0.0025236,15503,0,11.632,0.026689,191.03,147.31,4.2451,0.69549,37336158,0,138.47,0.55279,0.55282,0.24307,0.12684,0.18288,0.019615,0.082909,3.56E-04,0,0,0,0,9.71E-05,0.029861,10.3,83.323,77.001,0.014193,NaN,7.8284,887.76,336.04,0.05,0.067832,592.21
5.5908,1114.7,226.69,-18.369,231.03,18.502,194.97,0.034004,194.97,0.0099929,44.596,2.2165,28.61,-80.598,9.7888,0.077771,-4.11E-06,2.1525,-0.0054462,15503,0,11.632,0.026689,191.2,147.31,4.2613,0.6929,37159111,0,137.15,0.55241,0.55242,0.24333,0.12667,0.18242,0.011711,0.049297,-2.34E-04,0,0,0,0,1.50E-04,0.029743,10.3,83.323,76.903,0.01553,NaN,7.7546,886.55,336,0.05,0.068262,586.85
5.6408,1126,225.77,-18.408,230.11,18.479,197.19,0.034725,197.19,0.01009,44.499,1.6174,28.61,-80.598,9.7887,0.17545,-4.15E-06,-2.0123,0.0013766,15503,0,11.632,0.026689,190.83,147.31,4.2258,0.68978,36953783,0,135.63,0.55196,0.55201,0.24363,0.12647,0.18185,0.026583,0.1125,3.47E-04,0,0,0,0,-1.33E-04,0.029625,10.3,83.323,76.794,0.016428,NaN,7.6811,885.34,335.95,0.05,0.068793,581.55
5.6908,1137.3,224.85,-18.39,229.19,18.437,199.42,0.035453,199.42,0.010186,44.427,1.3077,28.61,-80.598,9.7887,0.30456,-3.96E-06,-1.0017,0.0023217,15503,0,11.632,0.026689,190.37,147.31,4.1803,0.68692,36762820,0,134.25,0.55155,0.5517,0.24392,0.12628,0.18134,0.046525,0.19429,3.04E-04,0,0,0,0,-3.32E-05,0.029507,10.3,83.323,76.717,0.01699,NaN,7.6079,884.15,335.91,0.05,0.069229,576.29
5.7408,1148.5,223.93,-18.321,228.28,18.362,201.64,0.036189,201.64,0.010283,44.365,1.2277,28.61,-80.598,9.7886,0.33406,-4.25E-06,0.27408,0.0011232,15503,0,11.632,0.026689,190.25,147.31,4.1687,0.68417,36578717,0,132.91,0.55116,0.55135,0.2442,0.12611,0.18085,0.051116,0.21277,-1.56E-04,0,0,0,0,2.50E-06,0.029391,10.3,83.323,76.699,0.017426,NaN,7.5349,882.95,335.87,0.05,0.069654,571.09
5.7908,1159.6,223.02,-18.154,227.37,18.224,203.85,0.036934,203.85,0.010381,44.296,1.5941,28.61,-80.598,9.7886,0.16861,-4.52E-06,1.3062,0.0015235,15503,0,11.632,0.026689,190.8,147.31,4.223,0.68181,36415652,0,131.71,0.55083,0.55088,0.24444,0.12596,0.18043,0.025517,0.10789,4.16E-04,0,0,0,0,5.73E-05,0.029275,10.3,83.323,76.741,0.017565,NaN,7.4623,881.76,335.82,0.05,0.070081,565.94
5.8408,1170.8,222.11,-18.005,226.47,18.103,206.07,0.037686,206.07,0.010478,44.208,1.8779,28.61,-80.598,9.7886,0.031333,-4.46E-06,1.6703,0.0061949,15503,0,11.632,0.026689,191.27,147.31,4.2686,0.67931,36245044,0,130.47,0.55048,0.55048,0.24469,0.1258,0.17999,0.0046982,0.020397,-4.69E-04,0,0,0,0,9.44E-05,0.029159,10.3,83.323,76.817,0.017329,NaN,7.39,880.58,335.78,0.05,0.070562,560.84
5.8908,1181.9,221.22,-17.863,225.57,17.991,208.27,0.038445,208.27,0.010576,44.108,2.142,28.61,-80.598,9.7885,0.10071,-4.40E-06,-1.5386,0.0028701,15503,0,11.632,0.026689,191.01,147.31,4.243,0.67679,36074297,0,129.26,0.55014,0.55015,0.24495,0.12564,0.17955,0.015166,0.064445,2.63E-04,0,0,0,0,-8.07E-05,0.029044,10.3,83.323,76.9,0.016947,NaN,7.3179,879.4,335.73,0.05,0.070991,555.79
5.9408,1192.9,220.33,-17.759,224.68,17.898,210.48,0.03921,210.48,0.010674,43.998,2.2295,28.61,-80.598,9.7885,0.15345,-4.47E-06,-1.0321,0.0011503,15503,0,11.632,0.026689,190.81,147.31,4.2233,0.67412,35895755,0,127.99,0.54977,0.54981,0.24522,0.12547,0.17908,0.023185,0.098387,-2.13E-04,0,0,0,0,-3.66E-05,0.028929,10.3,83.323,76.965,0.016488,NaN,7.2462,878.23,335.69,0.05,0.071455,550.8
5.9908,1203.9,219.44,-17.653,223.79,17.808,212.67,0.039981,212.67,0.010771,43.884,2.3436,28.61,-80.598,9.7885,0.2163,-4.65E-06,-0.3437,0.0011858,15503,0,11.632,0.026689,190.57,147.31,4.2003,0.67157,35724232,0,126.78,0.54943,0.5495,0.24548,0.12531,0.17863,0.032809,0.138,-4.50E-04,0,0,0,0,-4.09E-06,0.028815,10.3,83.323,77,0.016099,NaN,7.1747,877.06,335.65,0.05,0.072058,545.85
6.0408,1214.8,218.56,-17.587,222.9,17.732,214.86,0.040757,214.86,0.010868,43.767,2.2691,28.61,-80.598,9.7884,0.19276,-4.82E-06,0.44417,0.0024433,15503,0,11.632,0.026689,190.64,147.31,4.2066,0.66891,35546737,0,125.52,0.54907,0.54913,0.24575,0.12515,0.17817,0.029187,0.12301,-8.96E-05,0,0,0,0,6.89E-06,0.028701,10.3,83.323,76.997,0.015746,NaN,7.1035,875.89,335.6,0.05,0.072648,540.95
6.0908,1225.7,217.68,-17.491,222.02,17.65,217.05,0.041536,217.05,0.010964,43.652,2.3654,28.61,-80.598,9.7884,0.24322,-4.76E-06,1.2204,0.0040838,15503,0,11.632,0.026689,190.45,147.31,4.1881,0.66656,35386486,0,124.42,0.54876,0.54886,0.24599,0.125,0.17776,0.036941,0.15486,3.62E-04,0,0,0,0,5.24E-05,0.028588,10.3,83.323,76.956,0.015384,NaN,7.0326,874.73,335.56,0.05,0.073086,536.1
6.1408,1236.6,216.81,-17.408,221.14,17.574,219.23,0.042319,219.23,0.01106,43.532,2.4118,28.61,-80.598,9.7884,0.26857,-4.55E-06,2.1686,0.00431,15503,0,11.632,0.026689,190.34,147.31,4.1782,0.66427,3.52E+07,0,123.34,0.54846,0.54858,0.24623,0.12486,0.17736,0.040852,0.17009,-3.26E-04,0,0,0,0,1.67E-04,0.028475,10.3,83.323,76.872,0.015172,NaN,6.962,873.58,335.52,0.05,0.07356,531.3
6.1908,1247.4,215.94,-17.386,220.26,17.52,221.4,0.043105,221.4,0.011155,43.417,2.1613,28.61,-80.598,9.7883,0.15467,-4.47E-06,2.9664,0.010591,15503,0,11.632,0.026689,190.72,147.31,4.2152,0.66174,35060582,0,122.15,0.54812,0.54816,0.24649,0.1247,0.17693,0.023346,0.09793,-4.44E-04,0,0,0,0,3.14E-04,0.028363,10.3,83.323,76.742,0.015152,NaN,6.8917,872.43,335.48,0.05,0.074003,526.54
6.2408,1258.2,215.07,-17.395,219.39,17.486,223.57,0.043895,223.57,0.011249,43.318,1.7782,28.61,-80.598,9.7883,0.028477,-4.40E-06,-3.1987,0.062841,15503,0,11.632,0.026689,191.15,147.31,4.257,0.65908,34885334,0,120.92,0.54778,0.54778,0.24677,0.12454,0.17647,0.0042617,0.018705,-3.11E-04,0,0,0,0,-3.68E-04,0.028251,10.3,83.323,76.585,0.015371,NaN,6.8217,871.28,335.43,0.05,0.07457,521.82
6.2908,1268.9,214.2,-17.381,218.52,17.448,225.74,0.044688,225.74,0.011343,43.236,1.524,28.61,-80.598,9.7883,0.15279,-4.33E-06,-2.8558,0.011908,15503,0,11.632,0.026689,190.7,147.31,4.2127,0.65658,34718409,0,119.79,0.54745,0.54749,0.24702,0.12439,0.17604,0.023049,0.097719,2.24E-04,0,0,0,0,-2.96E-04,0.02814,10.3,83.323,76.432,0.016016,NaN,6.7519,870.14,335.39,0.05,0.075397,517.15
6.3408,1279.6,213.33,-17.298,217.66,17.372,227.9,0.045485,227.9,0.011435,43.159,1.598,28.61,-80.598,9.7882,0.11912,-4.30E-06,-2.3382,0.0079002,15503,0,11.632,0.026689,190.8,147.31,4.223,0.65445,34571605,0,118.79,0.54719,0.54721,0.24725,0.12426,0.17568,0.017927,0.076331,9.08E-05,0,0,0,0,-2.00E-04,0.028029,10.3,83.323,76.302,0.016816,NaN,6.6824,869,335.35,0.05,0.075912,512.52
6.3908,1290.3,212.47,-17.225,216.79,17.301,230.05,0.046287,230.05,0.011528,43.079,1.6182,28.61,-80.598,9.7882,0.10927,-4.35E-06,-1.9522,0.0052328,15503,0,11.632,0.026689,190.83,147.31,4.225,0.65221,34419147,0,117.77,0.54691,0.54693,0.24749,0.12412,0.1753,0.016431,0.06994,-2.77E-04,0,0,0,0,-1.40E-04,0.027919,10.3,83.323,76.195,0.017674,NaN,6.6133,867.87,335.31,0.05,0.076339,507.93
6.4408,1300.9,211.61,-17.219,215.94,17.27,232.2,0.047096,232.2,0.011621,43.004,1.3259,28.61,-80.598,9.7882,0.24991,-4.51E-06,-1.3636,0.0041416,15503,0,11.632,0.026689,190.32,147.31,4.1756,0.64949,34242129,0,116.58,0.54656,0.54667,0.24777,0.12396,0.17484,0.037921,0.15828,3.54E-05,0,0,0,0,-6.90E-05,0.027809,10.3,83.323,76.11,0.018724,NaN,6.5443,866.74,335.26,0.05,0.076763,503.38
6.4908,1311.4,210.75,-17.167,215.08,17.212,234.35,0.047911,234.35,0.011714,42.941,1.2348,28.61,-80.598,9.7881,0.29102,-4.29E-06,-0.40293,0.0032638,15503,0,11.632,0.026689,190.16,147.31,4.1603,0.64694,34074263,0,115.46,0.54624,0.54639,0.24803,0.1238,0.17441,0.044268,0.18387,-2.33E-04,0,0,0,0,-6.08E-06,0.0277,10.3,83.323,76.066,0.019628,NaN,6.4757,865.62,335.22,0.05,0.077219,498.88
6.5408,1321.9,209.89,-17.076,214.23,17.126,236.5,0.048735,236.5,0.011807,42.878,1.3124,28.61,-80.598,9.7881,0.24669,-4.27E-06,0.52075,0.0027573,15503,0,11.632,0.026689,190.3,147.31,4.1738,0.64451,33912669,0,114.37,0.54594,0.54605,0.24828,0.12366,0.174,0.037409,0.15587,-4.84E-04,0,0,0,0,1.02E-05,0.027591,10.3,83.323,76.069,0.020229,NaN,6.4074,864.5,335.18,0.05,0.077797,494.42
6.5908,1332.4,209.04,-16.963,213.38,17.027,238.64,0.049567,238.64,0.011901,42.808,1.4777,28.61,-80.598,9.7881,0.15465,-4.24E-06,1.2028,0.0048887,15503,0,11.632,0.026689,190.6,147.31,4.2035,0.6421,33753192,0,113.3,0.54565,0.54569,0.24854,0.12351,0.1736,0.023306,0.098192,9.12E-05,0,0,0,0,5.50E-05,0.027482,10.3,83.323,76.114,0.020645,NaN,6.3393,863.39,335.14,0.05,0.078383,490
6.6408,1342.9,208.2,-16.802,212.54,16.906,240.78,0.050408,240.78,0.011995,42.725,1.8767,28.61,-80.598,9.7881,0.061618,-4.25E-06,-1.385,0.010384,15503,0,11.632,0.026689,190.92,147.31,4.2342,0.63999,3.36E+07,0,112.35,0.5454,0.54541,0.24876,0.12339,0.17325,0.0092273,0.039587,-3.03E-06,0,0,0,0,-7.34E-05,0.027374,10.3,83.323,76.181,0.020803,NaN,6.2715,862.28,335.1,0.05,0.078836,485.63
6.6908,1353.2,207.36,-16.69,211.7,16.816,242.91,0.051256,242.91,0.01209,42.626,2.0569,28.61,-80.598,9.788,0.16717,-4.36E-06,-0.96967,0.0033177,15503,0,11.632,0.026689,190.53,147.31,4.1967,0.63762,33452641,0,111.33,0.54512,0.54516,0.24901,0.12325,0.17285,0.025205,0.1061,1.79E-04,0,0,0,0,-3.63E-05,0.027267,10.3,83.323,76.242,0.020785,NaN,6.2039,861.17,335.06,0.05,0.07929,481.29
6.7408,1363.6,206.53,-16.567,210.86,16.727,245.04,0.052112,245.04,0.012185,42.517,2.3036,28.61,-80.597,9.788,0.30426,-4.33E-06,-0.21409,0.0017524,15503,0,11.632,0.026689,190.05,147.31,4.1492,0.63544,33305547,0,110.39,0.54486,0.54501,0.24925,0.12312,0.17249,0.04628,0.1917,3.59E-04,0,0,0,0,-1.78E-06,0.027159,10.3,83.323,76.273,0.02056,NaN,6.1367,860.07,335.02,0.05,0.07985,477
6.7908,1373.9,205.7,-16.533,210.03,16.67,247.16,0.052976,247.16,0.012281,42.405,2.1385,28.61,-80.597,9.788,0.2303,-4.32E-06,0.70507,7.89E-04,15503,0,11.632,0.026689,190.29,147.31,4.1726,0.6328,33135352,0,109.26,0.54454,0.54463,0.24952,0.12296,0.17206,0.034854,0.14511,-4.43E-04,0,0,0,0,1.95E-05,0.027052,10.3,83.323,76.26,0.020255,NaN,6.0697,858.97,334.98,0.05,0.080464,472.75
6.8408,1384.2,204.88,-16.497,209.2,16.617,249.28,0.053846,249.28,0.012376,42.302,1.9912,28.61,-80.597,9.7879,0.16059,-4.26E-06,1.3172,0.0011755,15503,0,11.632,0.026689,190.51,147.31,4.1948,0.63029,32971865,0,108.19,0.54425,0.54429,0.24979,0.12282,0.17164,0.024188,0.1012,-3.35E-04,0,0,0,0,6.85E-05,0.026946,10.3,83.323,76.208,0.019901,NaN,6.003,857.88,334.94,0.05,0.081019,468.54
6.8908,1394.4,204.05,-16.427,208.37,16.551,251.39,0.054722,251.39,0.012472,42.202,2.0197,28.61,-80.597,9.7879,0.17996,-4.31E-06,1.8412,0.002646,15503,0,11.632,0.026689,190.43,147.31,4.187,0.6281,32825737,0,107.26,0.544,0.54405,0.25002,0.12269,0.17129,0.027136,0.1139,1.51E-04,0,0,0,0,1.35E-04,0.02684,10.3,83.323,76.129,0.01947,NaN,5.9365,856.79,334.9,0.05,0.081766,464.37
6.9408,1404.6,203.23,-16.391,207.55,16.501,253.5,0.055603,253.5,0.012567,42.103,1.901,28.61,-80.597,9.7879,0.11944,-4.36E-06,2.3352,0.003634,15503,0,11.632,0.026689,190.63,147.31,4.2064,0.62577,32672696,0,106.27,0.54373,0.54376,0.25027,0.12255,0.17091,0.017935,0.075119,2.46E-04,0,0,0,0,2.19E-04,0.026735,10.3,83.323,76.024,0.019207,NaN,5.8703,855.71,334.86,0.05,0.082357,460.23
