# Time (s),Altitude (m),Vertical velocity (m/s),Vertical acceleration (m/s²),Total velocity (m/s),Total acceleration (m/s²),Position East of launch (m),Position North of launch (m),Lateral distance (m),Lateral direction (°),Lateral velocity (m/s),Lateral acceleration (m/s²),Latitude (°),Longitude (°),Gravitational acceleration (m/s²),Angle of attack (°),Roll rate (°/s),Pitch rate (°/s),Yaw rate (°/s),Mass (g),Propellant mass (g),Longitudinal moment of inertia (kg·m²),Rotational moment of inertia (kg·m²),CP location (cm),CG location (cm),Stability margin calibers (?),Mach number (?),Reynolds number (?),Thrust (N),Drag force (N),Drag coefficient (?),Axial drag coefficient (?),Friction drag coefficient (?),Pressure drag coefficient (?),Base drag coefficient (?),Normal force coefficient (?),Pitch moment coefficient (?),Yaw moment coefficient (?),Side force coefficient (?),Roll moment coefficient (?),Roll forcing coefficient (?),Roll damping coefficient (?),Pitch damping coefficient (?),Coriolis acceleration (m/s²),Reference length (cm),Reference area (cm²),Vertical orientation (zenith) (°),Lateral orientation (azimuth) (°),Wind velocity (m/s),Air temperature (°C),Air pressure (mbar),Speed of sound (m/s),Simulation time step (s),Computation time (s),Dynamic Pressure (mbar)
0,0,0,25.154,0,25.542,0,0,0,0,0,4.4353,28.61,-80.6,9.7884,80,0,0,0,18166,2663.3,13.153,0.028562,NaN,158.95,NaN,0.023461,1291851,639.11,0.0025964,0.67349,0.0080777,0.44866,0.10476,0.12007,NaN,NaN,NaN,NaN,NaN,NaN,NaN,NaN,0,10.3,83.323,80,0,NaN,28.893,998.89,348.81,0.01,0.0078587,0
0.01,0.0012577,0.25154,92.685,0.25542,94.115,2.22E-04,0,2.22E-04,0,0.044353,16.343,28.61,-80.6,9.7884,78.248,0,0,0,18166,2663.3,13.153,0.028562,NaN,158.95,NaN,0.023587,1298805,1884.8,0.0041712,0.67303,0.012839,0.44819,0.10476,0.12007,NaN,NaN,NaN,NaN,NaN,NaN,NaN,NaN,3.28E-05,10.3,83.323,80,0,NaN,28.893,998.89,348.81,0.01,0.010816,7.52E-04
0.02,0.0084084,1.1787,102.45,1.1968,104.03,0.0014826,0,0.0014826,0,0.20783,18.065,28.61,-80.6,9.7884,71.996,0,0,0,18160,2657.3,13.15,0.028558,NaN,158.93,NaN,0.024269,1336367,2064.3,0.014664,0.67057,0.042632,0.44573,0.10477,0.12008,NaN,NaN,NaN,NaN,NaN,NaN,NaN,NaN,1.54E-04,10.3,83.323,80,0,NaN,28.893,998.89,348.81,0.01,0.013551,0.016503
0.03,0.025319,2.2036,96.623,2.2376,98.114,0.0044645,0,0.0044645,0,0.38855,17.037,28.61,-80.6,9.7884,65.563,0,0,0,18152,2649.1,13.146,0.028552,NaN,158.9,NaN,0.025339,1395285,1956,0.036531,0.66689,0.097428,0.44204,0.10477,0.12008,NaN,NaN,NaN,NaN,NaN,NaN,NaN,NaN,2.88E-04,10.3,83.323,80,0,NaN,28.893,998.89,348.81,0.01,0.016814,0.057684
0.04,0.052188,3.1703,96.918,3.2192,98.413,0.0092022,0,0.0092022,0,0.55901,17.089,28.61,-80.6,9.7884,60.033,0,0,0,18142,2639.4,13.141,0.028545,NaN,158.87,NaN,0.026616,1465578,1960.4,0.068264,0.66276,0.16501,0.4379,0.10477,0.12009,NaN,NaN,NaN,NaN,NaN,NaN,NaN,NaN,4.14E-04,10.3,83.323,80,0,NaN,28.892,998.89,348.81,0.01,0.01974,0.1194
0.05,0.088739,4.1399,97.211,4.2038,98.711,0.015647,0,0.015647,0,0.72998,17.141,28.61,-80.6,9.7884,55.036,0,0,0,18133,2629.9,13.137,0.028538,NaN,158.83,NaN,0.028122,1548485,1964.8,0.11129,0.6582,0.24098,0.43332,0.10477,0.1201,NaN,NaN,NaN,NaN,NaN,NaN,NaN,NaN,5.41E-04,10.3,83.323,80,0,NaN,28.892,998.89,348.81,0.01,0.022457,0.2036
0.06,0.135,5.1125,97.504,5.1914,99.008,0.023804,0,0.023804,0,0.90147,17.193,28.61,-80.6,9.7884,50.548,0,0,0,18123,2620.4,13.132,0.028532,NaN,158.79,NaN,0.02981,1641435,1969.2,0.16551,0.65345,0.31895,0.42856,0.10478,0.12012,NaN,NaN,NaN,NaN,NaN,NaN,NaN,NaN,6.68E-04,10.3,83.323,80,0,NaN,28.892,998.89,348.81,0.01,0.024241,0.31049
0.07,0.191,6.088,97.797,6.1819,99.305,0.033679,0,0.033679,0,1.0735,17.244,28.61,-80.6,9.7884,46.552,0,0,0,18114,2611,13.127,0.028525,NaN,158.76,NaN,0.031666,1743668,1973.6,0.23053,0.64861,0.39367,0.4237,0.10478,0.12013,NaN,NaN,NaN,NaN,NaN,NaN,NaN,NaN,7.95E-04,10.3,83.323,80,0,NaN,28.892,998.88,348.81,0.01,0.026116,0.44029
0.08,0.25677,7.0664,98.089,7.1754,99.602,0.045276,0,0.045276,0,1.246,17.296,28.61,-80.6,9.7884,43.004,0,0,0,18104,2601.5,13.123,0.028518,NaN,158.72,NaN,0.033666,1853767,1978,0.30575,0.64379,0.46195,0.41886,0.10479,0.12015,NaN,NaN,NaN,NaN,NaN,NaN,NaN,NaN,9.23E-04,10.3,83.323,80,0,NaN,28.892,998.88,348.81,0.01,0.028052,0.59317
0.09,0.33234,8.0477,98.381,8.1719,99.899,0.058601,0,0.058601,0,1.419,17.347,28.61,-80.6,9.7884,39.855,0,0,0,18095,2592.1,13.118,0.028512,NaN,158.69,NaN,0.035786,1970524,1982.5,0.39053,0.63907,0.5222,0.41411,0.1048,0.12017,NaN,NaN,NaN,NaN,NaN,NaN,NaN,NaN,0.001051,10.3,83.323,80,0,NaN,28.891,998.87,348.81,0.01,0.029669,0.76936
0.1,0.41774,9.032,98.673,9.1713,100.2,0.073659,0,0.073659,0,1.5926,17.399,28.61,-80.6,9.7884,37.059,0,0,0,18085,2582.6,13.113,0.028505,NaN,158.65,NaN,0.03801,2092930,1986.9,0.48424,0.63449,0.57397,0.4095,0.1048,0.12019,NaN,NaN,NaN,NaN,NaN,NaN,NaN,NaN,0.0011795,10.3,83.323,80,0,NaN,28.891,998.87,348.81,0.01,0.031408,0.96906
0.11,0.513,10.019,98.965,10.174,100.49,0.090455,0,0.090455,0,1.7666,17.45,28.61,-80.6,9.7884,34.611,0,0,0,18076,2573.2,13.109,0.028499,NaN,158.62,NaN,0.040349,2221746,1991.3,0.58632,0.63004,0.61671,0.40501,0.10481,0.12021,NaN,NaN,NaN,NaN,NaN,NaN,NaN,NaN,0.0013084,10.3,83.323,80,0,NaN,28.89,998.86,348.81,0.0098292,0.033648,1.1925
0.11983,0.61626,10.992,99.25,11.162,100.78,0.10866,0,0.10866,0,1.9382,17.5,28.61,-80.6,9.7884,32.464,0,0,0,18066,2563.8,13.104,0.028492,NaN,158.58,NaN,0.04272,2352264,1995.4,0.69429,0.62584,0.65149,0.40079,0.10482,0.12024,NaN,NaN,NaN,NaN,NaN,NaN,NaN,NaN,0.0014355,10.3,83.323,80,0,NaN,28.89,998.86,348.81,0.008959,0.035792,1.4354
0.12879,0.71873,11.882,99.503,12.065,101.04,0.12673,0,0.12673,0,2.0951,17.545,28.61,-80.6,9.7884,30.703,0,0,0,18058,2554.9,13.1,0.028486,NaN,158.55,NaN,0.044933,2474151,1999.2,0.79894,0.62219,0.67764,0.3971,0.10483,0.12026,NaN,NaN,NaN,NaN,NaN,NaN,NaN,NaN,0.0015517,10.3,83.323,80,0,NaN,28.889,998.85,348.81,0.0082884,0.038311,1.677
0.13708,0.82063,12.707,99.738,12.903,101.28,0.1447,0,0.1447,0,2.2405,17.587,28.61,-80.6,9.7884,29.218,0,0,0,18049,2546.8,13.095,0.02848,NaN,158.52,NaN,0.047021,2589097,2002.8,0.90079,0.61896,0.69769,0.39383,0.10484,0.12029,NaN,NaN,NaN,NaN,NaN,NaN,NaN,NaN,0.0016594,10.3,83.323,80,0,NaN,28.889,998.85,348.81,0.0077503,0.040817,1.918
0.14483,0.9221,13.48,99.959,13.688,101.5,0.16259,0,0.16259,0,2.3769,17.625,28.61,-80.6,9.7884,27.942,0,0,0,18042,2539.2,13.092,0.028475,NaN,158.49,NaN,0.049004,2698278,2006.1,1.0002,0.61605,0.71327,0.39089,0.10485,0.12031,NaN,NaN,NaN,NaN,NaN,NaN,NaN,NaN,0.0017604,10.3,83.323,80,0,NaN,28.888,998.84,348.81,0.0073057,0.043361,2.1585
0.15213,1.0233,14.21,99.991,14.43,101.69,0.18043,0,0.18043,0,2.5057,18.524,28.61,-80.6,9.7884,26.828,0,0,0,18035,2532.1,13.088,0.02847,157.17,158.46,-0.12503,0.050898,2802539,2009.2,1.0975,0.61341,0.7255,0.38822,0.10485,0.12034,9.7645,-7.4129,-1.70E-04,0,0,0,0,0,0.0018558,10.3,83.323,80,0,NaN,28.888,998.83,348.81,0.010959,0.045975,2.3988
0.16309,1.185,15.307,100.13,15.545,101.83,0.209,1.08E-08,0.209,2.96E-06,2.7086,18.519,28.61,-80.6,9.7884,25.327,0,-0.05023,1.28E-06,18026,2523.3,13.084,0.028463,157.75,158.43,-0.065798,0.053788,2961649,2010.9,1.2496,0.60963,0.73965,0.38438,0.10487,0.12038,9.0422,-5.3921,3.36E-04,0,0,0,0,-1.26E-05,0.0019992,10.3,83.323,80,-6.77E-08,NaN,28.887,998.82,348.8,0.016438,0.048524,2.7838
0.17953,1.4501,16.954,100.33,17.22,102.03,0.25602,7.00E-08,0.25602,1.57E-05,3.0129,18.505,28.61,-80.6,9.7884,23.353,0,-0.10475,-9.12E-07,18012,2509.8,13.077,0.028454,158.6,158.38,0.021442,0.05819,3203995,2013.3,1.4907,0.60434,0.75394,0.37901,0.10489,0.12044,8.1351,-2.8153,-8.88E-05,0,0,0,0,-4.69E-05,0.0022147,10.3,83.323,80.002,0,NaN,28.886,998.81,348.8,0.024657,0.051159,3.416
0.20419,1.8987,19.431,100.64,19.738,102.32,0.33593,2.67E-07,0.33593,4.55E-05,3.4687,18.475,28.61,-80.6,9.7884,20.911,0,-0.13281,0,17992,2489.6,13.067,0.02844,159.81,158.3,0.14653,0.064927,3574900,2016.9,1.8803,0.59717,0.76389,0.3717,0.10493,0.12055,7.0854,0.23813,-4.31E-04,0,0,0,0,-6.05E-05,0.0025388,10.3,83.323,80.005,1.10E-07,NaN,28.884,998.78,348.8,0.036985,0.055274,4.4882
0.24117,2.6863,23.16,101.08,23.529,102.75,0.47685,8.43E-07,0.47685,1.01E-04,4.1509,18.44,28.61,-80.6,9.7883,18.186,0,-0.065289,-5.62E-06,17962,2459.2,13.052,0.028418,161.42,158.18,0.31405,0.075325,4147278,2022,2.5278,0.58784,0.76301,0.36211,0.10499,0.12074,5.8163,1.8269,-3.98E-04,0,0,0,0,-1.09E-05,0.0030264,10.3,83.323,80.009,3.06E-07,NaN,28.88,998.74,348.8,0.05,0.058222,6.3774
0.29117,3.9709,28.226,101.67,28.678,103.34,0.70745,2.26E-06,0.70745,1.83E-04,5.0731,18.485,28.61,-80.6,9.7883,14.995,0,0.13281,-1.31E-05,17919,2416.3,13.03,0.028388,163.74,158.02,0.55563,0.08928,4915351,2027.9,3.4639,0.5777,0.74434,0.35157,0.1051,0.12104,4.3623,2.4235,-1.29E-05,0,0,0,0,3.20E-05,0.0036888,10.3,83.323,80.007,1.47E-06,NaN,28.875,998.66,348.8,0.05,0.060812,9.4736
0.34117,5.5095,33.321,102.25,33.856,103.92,0.98423,4.55E-06,0.98423,2.65E-04,5.998,18.534,28.61,-80.6,9.7883,12.784,0,0.45158,-5.25E-06,17870,2367.1,13.005,0.028354,165.71,157.83,0.76539,0.10362,5704656,2033.8,4.4742,0.56929,0.71377,0.34267,0.10522,0.1214,3.456,2.6447,-1.54E-04,0,0,0,0,2.75E-04,0.004355,10.3,83.323,79.993,5.02E-06,NaN,28.868,998.57,348.79,0.05,0.063633,13.203
0.39117,7.3036,38.445,102.83,39.064,104.5,1.3073,7.86E-06,1.3073,3.45E-04,6.9266,18.644,28.61,-80.6,9.7883,10.977,0,0.89199,-1.19E-05,17820,2317.8,12.98,0.028319,167.61,157.64,0.9675,0.11808,6500129,2039.6,5.5544,0.5623,0.68246,0.33512,0.10536,0.12181,2.7797,2.6886,1.37E-04,0,0,0,0,8.26E-04,0.0050249,10.3,83.323,79.96,7.19E-06,NaN,28.859,998.47,348.79,0.05,0.065548,17.576
0.44117,9.3546,43.598,103.4,44.301,105.08,1.677,1.24E-05,1.677,4.23E-04,7.8592,18.675,28.61,-80.6,9.7883,10.163,0,1.4598,-3.46E-05,17771,2268.5,12.955,0.028284,168.56,157.45,1.0788,0.13325,7334389,2045.5,6.8782,0.55617,0.66377,0.32833,0.10553,0.12231,2.495,2.6894,-1.98E-05,0,0,0,0,0.0017368,0.0056985,10.3,83.323,79.902,1.71E-05,NaN,28.85,998.35,348.78,0.05,0.067843,22.602
0.49117,11.664,48.779,103.95,49.566,105.66,2.0934,1.82E-05,2.0934,4.99E-04,8.797,18.895,28.61,-80.6,9.7883,8.9717,0,2.1647,-6.01E-05,17722,2219.2,12.93,0.02825,170.08,157.26,1.2452,0.14806,8149092,2051.4,8.1958,0.55111,0.64065,0.32254,0.10572,0.12285,2.0997,2.6115,2.77E-04,0,0,0,0,0.0030932,0.0063758,10.3,83.323,79.812,3.41E-05,NaN,28.84,998.22,348.78,0.05,0.070976,28.291
0.54117,14.233,53.987,104.49,54.86,106.22,2.5569,2.56E-05,2.5569,5.73E-04,9.7463,19.096,28.61,-80.6,9.7883,8.3293,0,3.0035,-1.70E-05,17673,2170,12.904,0.028215,170.98,157.06,1.351,0.16337,8990828,2057.2,9.7514,0.54664,0.62617,0.31724,0.10593,0.12347,1.8979,2.5589,-4.65E-04,0,0,0,0,0.0048911,0.0070569,10.3,83.323,79.683,5.80E-05,NaN,28.828,998.07,348.77,0.05,0.074436,34.653
0.59117,17.063,59.222,105,60.183,106.8,3.0682,3.46E-05,3.0682,6.46E-04,10.711,19.55,28.61,-80.6,9.7883,7.2834,0,3.9802,1.07E-04,17623,2120.7,12.878,0.02818,172.55,156.87,1.5223,0.17832,9812466,2063.1,11.26,0.54291,0.60698,0.31261,0.10616,0.12413,1.5857,2.4068,5.74E-05,0,0,0,0,0.0072099,0.0077417,10.3,83.323,79.509,5.74E-05,NaN,28.815,997.9,348.76,0.05,0.078475,41.698
0.64117,20.156,64.481,105.47,65.534,107.38,3.6284,4.55E-05,3.6284,7.18E-04,11.702,20.123,28.61,-80.6,9.7883,6.3707,0,5.0571,6.63E-05,17574,2071.4,12.853,0.028146,174.05,156.67,1.6876,0.19343,10642656,2069,12.894,0.53965,0.59082,0.30837,0.10641,0.12486,1.3305,2.2359,-9.16E-05,0,0,0,0,0.0098924,0.0084303,10.3,83.323,79.284,6.28E-05,NaN,28.801,997.72,348.75,0.05,0.081933,49.437
0.69117,23.512,69.763,105.91,70.914,107.95,4.239,5.83E-05,4.239,7.88E-04,12.725,20.888,28.61,-80.6,9.7883,5.4057,0,6.2131,2.64E-04,17525,2022.1,12.827,0.028111,175.8,156.47,1.8765,0.20853,11472001,2074.9,14.59,0.53684,0.57534,0.3045,0.10669,0.12565,1.078,2.01,3.16E-04,0,0,0,0,0.012848,0.0091228,10.3,83.323,79.002,6.68E-05,NaN,28.786,997.53,348.74,0.05,0.085019,57.879
0.74117,27.133,75.066,106.32,76.322,108.52,4.9017,7.33E-05,4.9017,8.57E-04,13.79,21.749,28.61,-80.6,9.7883,4.6496,0,7.4133,1.65E-04,17476,1972.9,12.801,0.028076,177.3,156.28,2.0416,0.22392,12316700,2080.7,16.481,0.53438,0.56379,0.30087,0.10698,0.12652,0.89284,1.8072,4.18E-04,0,0,0,0,0.015865,0.0098192,10.3,83.323,78.662,8.67E-05,NaN,28.769,997.32,348.73,0.05,0.087848,67.033
0.79117,31.019,80.389,106.69,81.758,109.09,5.6188,9.06E-05,5.6188,9.24E-04,14.902,22.761,28.61,-80.6,9.7883,3.9551,0,8.6468,1.83E-04,17426,1923.6,12.775,0.028042,178.8,156.08,2.2058,0.23945,13169316,2086.6,18.521,0.53225,0.55415,0.29748,0.10731,0.12745,0.73261,1.5972,-4.86E-04,0,0,0,0,0.018875,0.010519,10.3,83.323,78.26,1.49E-04,NaN,28.751,997.09,348.72,0.05,0.090196,76.909
0.84117,35.172,85.728,106.99,87.222,109.67,6.3928,1.10E-04,6.3928,9.90E-04,16.071,24.078,28.61,-80.6,9.7882,2.9794,0,9.832,4.75E-04,17377,1874.3,12.748,0.028007,181.09,155.88,2.4478,0.25473,14007538,2092.5,20.549,0.53046,0.54342,0.29438,0.10765,0.12844,0.5233,1.2591,2.38E-04,0,0,0,0,0.021565,0.011224,10.3,83.323,77.798,2.02E-04,NaN,28.732,996.85,348.71,0.05,0.092492,87.515
0.89117,39.592,91.082,107.24,92.712,110.24,7.2271,1.33E-04,7.2271,0.0010556,17.31,25.523,28.61,-80.6,9.7882,2.1008,0,10.844,0.0010083,17328,1825,12.722,0.027972,183.39,155.68,2.6907,0.27019,14855097,2098.3,22.782,0.52895,0.53562,0.29144,0.10801,0.12949,0.35083,0.9205,2.97E-04,0,0,0,0,0.02332,0.011932,10.3,83.323,77.28,2.54E-04,NaN,28.712,996.6,348.7,0.05,0.095636,98.86
0.94117,44.28,96.447,107.47,98.228,110.79,8.125,1.59E-04,8.125,0.0011205,18.62,26.928,28.61,-80.6,9.7882,1.6163,0,11.695,0.0015809,17278,1775.8,12.695,0.027938,184.78,155.47,2.8452,0.28623,15733646,2104.2,25.37,0.52765,0.53167,0.28858,0.10841,0.13065,0.26227,0.72174,-2.91E-04,0,0,0,0,0.024172,0.012644,10.3,83.323,76.716,3.01E-04,NaN,28.691,996.32,348.69,0.05,0.098239,110.95
0.99117,49.237,101.82,107.64,103.77,111.35,9.0903,1.88E-04,9.0903,0.0011849,20.004,28.478,28.61,-80.6,9.7882,1.088,0,12.413,0.0025892,17229,1726.5,12.669,0.027903,186.39,155.27,3.0214,0.3023,16613810,2110.1,28.119,0.5266,0.52845,0.28588,0.10884,0.13188,0.17092,0.49162,-3.21E-04,0,0,0,0,0.024412,0.013359,10.3,83.323,76.113,3.38E-04,NaN,28.668,996.04,348.67,0.05,0.10059,123.8
1.0412,54.463,107.2,107.75,109.33,111.9,10.127,2.21E-04,10.127,0.0012487,21.47,30.194,28.61,-80.6,9.7882,0.44148,0,12.864,0.0071918,17180,1677.2,12.642,0.027869,188.51,155.06,3.2471,0.31827,17488109,2115.9,31.021,0.52579,0.5261,0.28333,0.10929,0.13317,0.066556,0.19264,-4.69E-04,0,0,0,0,0.023654,0.014079,10.3,83.323,75.479,3.92E-04,NaN,28.645,995.73,348.66,0.05,0.10331,137.4
1.0912,59.958,112.59,107.65,114.92,112.27,11.239,2.57E-04,11.239,0.0013119,23.022,31.878,28.61,-80.6,9.7882,0.094669,0,-12.945,0.037002,17131,1627.9,12.615,0.027834,189.74,154.86,3.3864,0.33445,18373188,2119,34.186,0.52519,0.5252,0.28088,0.10976,0.13454,0.013954,0.06879,3.66E-04,0,0,0,0,-0.021694,0.014801,10.3,83.323,74.832,4.29E-04,NaN,28.619,995.41,348.64,0.05,0.10557,151.76
1.1412,65.722,117.97,106.88,120.52,111.96,12.43,2.98E-04,12.43,0.0013745,24.658,33.352,28.61,-80.6,9.7882,0.50416,0,-12.665,0.0073256,17081,1578.5,12.588,0.027799,188.36,154.65,3.2733,0.35083,19269053,2110.3,37.605,0.52479,0.5252,0.27852,0.11027,0.136,0.076413,0.26872,3.33E-04,0,0,0,0,-0.018873,0.015527,10.3,83.323,74.191,4.86E-04,NaN,28.593,995.08,348.63,0.05,0.1076,166.88
1.1912,71.754,123.31,106.02,126.1,111.56,13.706,3.44E-04,13.706,0.0014367,26.366,34.72,28.61,-80.6,9.7881,0.79245,0,-12.058,0.0047676,17031,1528.8,12.56,0.027764,187.45,154.44,3.2054,0.36733,2.02E+07,2100.4,41.239,0.52459,0.52559,0.27625,0.11081,0.13754,0.12246,0.40844,-2.98E-04,0,0,0,0,-0.015609,0.01625,10.3,83.323,73.571,5.51E-04,NaN,28.566,994.73,348.61,0.05,0.11042,182.64
1.2412,78.053,128.61,105.15,131.66,111.15,15.068,3.94E-04,15.068,0.0014985,28.14,36.021,28.61,-80.6,9.7881,1.0551,0,-11.143,0.0036708,16982,1479,12.532,0.027729,186.66,154.23,3.1489,0.38373,21065730,2090.6,45.051,0.52458,0.52633,0.27408,0.11136,0.13914,0.16591,0.53465,1.21E-04,0,0,0,0,-0.012214,0.016971,10.3,83.323,72.99,6.66E-04,NaN,28.537,994.36,348.59,0.05,0.11357,199.03
1.2912,84.615,133.87,104.24,137.18,110.73,16.521,4.50E-04,16.521,0.0015604,29.981,37.352,28.61,-80.6,9.7881,1.4415,0,-9.8224,0.0028402,16932,1429.2,12.504,0.027694,185.52,154.01,3.0594,0.39971,21937226,2080.7,49.013,0.52475,0.52795,0.27205,0.11193,0.14077,0.23237,0.71963,-2.59E-04,0,0,0,0,-0.0087484,0.017689,10.3,83.323,72.464,8.33E-04,NaN,28.507,993.98,348.57,0.05,0.11646,216.03
1.3412,91.438,139.07,103.27,142.68,110.31,18.067,5.12E-04,18.067,0.0016231,31.891,38.787,28.61,-80.6,9.7881,2.0267,0,-7.8667,0.0026193,16882,1379.3,12.476,0.027659,183.89,153.8,2.9215,0.41499,2.28E+07,2070.8,53.139,0.52506,0.53124,0.27017,0.1125,0.14239,0.33869,0.99512,1.05E-04,0,0,0,0,-0.0052064,0.018404,10.3,83.323,72.018,0.0010638,NaN,28.476,993.59,348.56,0.05,0.11914,233.63
1.3912,98.521,144.24,102.44,148.16,109.87,19.711,5.81E-04,19.711,0.0016876,33.862,39.706,28.61,-80.6,9.7881,2.2611,0,-5.2386,0.0026447,16832,1329.5,12.448,0.027624,183.29,153.58,2.8844,0.43062,23620826,2060.9,57.399,0.52552,0.53314,0.26832,0.1131,0.14411,0.38339,1.1075,-4.12E-05,0,0,0,0,-0.0021444,0.019116,10.3,83.323,71.689,0.0013969,NaN,28.444,993.17,348.54,0.05,0.12194,251.82
1.4412,105.86,149.36,101.73,153.61,109.31,21.454,6.57E-04,21.454,0.0017552,35.865,40.003,28.61,-80.6,9.788,2.203,0,-2.2963,0.0023789,16782,1279.7,12.42,0.027589,183.49,153.37,2.9248,0.4465,24485106,2049.7,61.714,0.52613,0.5334,0.26649,0.11373,0.14592,0.37254,1.0905,4.10E-04,0,0,0,0,-3.83E-04,0.019826,10.3,83.323,71.5,0.0017629,NaN,28.41,992.75,348.52,0.05,0.12428,270.6
1.4912,113.46,154.46,101.07,159.03,108.52,23.297,7.43E-04,23.297,0.0018269,37.864,39.516,28.61,-80.6,9.788,1.8153,-3.94E-07,0.60309,0.0014272,16733,1230.7,12.392,0.027555,184.61,153.15,3.0541,0.46279,25370523,2035.3,66.086,0.52691,0.53194,0.26467,0.1144,0.14784,0.30024,0.91651,7.92E-05,0,0,0,0,2.46E-05,0.020532,10.3,83.323,71.459,0.0020573,NaN,28.376,992.31,348.49,0.05,0.12621,289.95
1.5412,121.31,159.52,100.52,164.42,107.7,25.24,8.38E-04,25.24,0.0019034,39.829,38.683,28.61,-80.6,9.788,1.4081,-3.27E-07,3.1257,0.0012495,16685,1182.6,12.364,0.027521,185.84,152.94,3.194,0.47879,26239464,2020.9,70.564,0.52782,0.5309,0.26293,0.11509,0.1498,0.22738,0.72584,1.58E-04,0,0,0,0,6.18E-04,0.021234,10.3,83.323,71.554,0.0022864,NaN,28.34,991.85,348.47,0.05,0.12892,309.82
1.5912,129.41,164.56,99.936,169.77,106.88,27.279,9.45E-04,27.279,0.0019845,41.752,37.899,28.61,-80.6,9.788,1.2384,-4.14E-07,5.3566,0.001952,16637,1134.7,12.336,0.027487,186.39,152.73,3.2686,0.49382,27054966,2006.4,75.072,0.5288,0.5312,0.26133,0.11576,0.1517,0.19805,0.64544,-4.58E-04,0,0,0,0,0.0017058,0.021931,10.3,83.323,71.766,0.0025405,NaN,28.303,991.38,348.45,0.05,0.1308,330.22
1.6412,137.76,169.57,99.55,175.09,106.02,29.414,0.0010628,29.414,0.0020702,43.623,36.463,28.61,-80.6,9.7879,0.76643,-7.05E-07,7.2422,0.0025061,16590,1086.8,12.309,0.027453,187.92,152.51,3.4377,0.50932,27894774,1992,79.767,0.52992,0.53086,0.25973,0.11647,0.15372,0.11908,0.40622,4.34E-04,0,0,0,0,0.0029316,0.022624,10.3,83.323,72.084,0.0028846,NaN,28.265,990.9,348.43,0.05,0.13401,351.11
1.6912,146.36,174.56,99.126,180.38,105.15,31.64,0.001193,31.64,0.0021603,45.419,35.092,28.61,-80.6,9.7879,0.47209,-7.43E-07,8.4346,0.0032323,16542,1039,12.281,0.02742,188.94,152.3,3.5577,0.52407,28693073,1977.5,84.509,0.53111,0.53147,0.25824,0.11717,0.1557,0.072034,0.25214,9.30E-05,0,0,0,0,0.0037562,0.023311,10.3,83.323,72.478,0.0031948,NaN,28.226,990.4,348.4,0.05,0.13705,372.48
1.7412,155.22,179.54,98.8,185.62,104.25,33.954,0.0013363,33.954,0.0022549,47.138,33.271,28.61,-80.6,9.7879,0.050655,-8.11E-07,-8.9075,0.018275,16494,991.1,12.252,0.027386,190.46,152.08,3.7257,0.53929,29515875,1963,89.604,0.53244,0.53245,0.25672,0.11791,0.15781,0.0075243,0.031692,-3.72E-04,0,0,0,0,-0.0039567,0.023993,10.3,83.323,72.916,0.0035009,NaN,28.185,989.88,348.38,0.05,0.13901,394.31
1.7912,164.32,184.5,98.384,190.83,103.27,36.352,0.0014934,36.352,0.0023538,48.763,31.392,28.61,-80.6,9.7879,0.54294,-6.47E-07,-8.1822,5.60E-04,16446,943.62,12.224,0.027353,188.83,151.87,3.5883,0.5544,30332076,1947.6,94.985,0.53388,0.53436,0.25525,0.11867,0.15996,0.083388,0.30188,3.61E-06,0,0,0,0,-0.0031596,0.024669,10.3,83.323,73.348,0.0038121,NaN,28.144,989.35,348.35,0.05,0.14079,416.58
1.8412,173.67,189.43,97.867,195.99,102.23,38.829,0.0016648,38.829,0.0024565,50.294,29.546,28.61,-80.6,9.7878,0.99884,-4.39E-07,-6.277,4.76E-04,16401,898.29,12.197,0.027321,187.42,151.66,3.4718,0.56955,31149347,1931.6,100.69,0.53543,0.53702,0.2538,0.11945,0.16217,0.15809,0.55089,-3.39E-04,0,0,0,0,-0.0017621,0.025338,10.3,83.323,73.715,0.0040492,NaN,28.101,988.81,348.33,0.05,0.14264,439.25
1.8912,183.26,194.34,97.259,201.11,101.16,41.38,0.0018509,41.38,0.0025628,51.735,27.826,28.61,-80.6,9.7878,1.4351,-1.07E-06,-3.1268,-2.64E-04,16357,854.7,12.171,0.02729,186.16,151.46,3.3689,0.58497,31980785,1915.6,106.82,0.53711,0.54036,0.25235,0.12027,0.16448,0.2336,0.78775,4.22E-04,0,0,0,0,-4.15E-04,0.026001,10.3,83.323,73.955,0.004104,NaN,28.058,988.26,348.3,0.05,0.1447,462.27
1.9412,193.1,199.21,96.326,206.17,100.13,44.001,0.0020519,44.001,0.0026718,53.116,27.346,28.61,-80.6,9.7878,1.4094,0,0.83278,-5.20E-04,16314,811.12,12.145,0.02726,186.31,151.26,3.4028,0.5994,32756897,1899.7,112.41,0.53878,0.54193,0.25102,0.12106,0.16671,0.22927,0.78007,-4.19E-04,0,0,0,0,2.80E-05,0.026656,10.3,83.323,74.013,0.004202,NaN,28.013,987.68,348.27,0.05,0.14671,485.62
1.9912,203.18,204.02,95.167,211.18,99.112,46.691,0.0022676,46.691,0.0027826,54.497,27.684,28.61,-80.6,9.7877,1.1805,5.75E-07,4.598,5.73E-04,16270,767.53,12.119,0.027229,187.07,151.06,3.4969,0.61364,33521532,1883.7,117.92,0.54053,0.54276,0.24972,0.12186,0.16895,0.18954,0.66232,3.49E-04,0,0,0,0,8.15E-04,0.027304,10.3,83.323,73.875,0.0041429,NaN,27.967,987.1,348.25,0.05,0.1494,509.28
2.0412,213.5,208.78,93.822,216.13,98.091,49.451,0.0024981,49.451,0.0028944,55.911,28.624,28.61,-80.599,9.7877,0.83388,6.37E-07,7.7104,0.0029411,16227,723.95,12.092,0.027198,188.24,150.85,3.6299,0.62786,34284838,1867.7,123.55,0.54236,0.54349,0.24843,0.12268,0.17125,0.13115,0.47349,4.97E-05,0,0,0,0,0.0021892,0.027946,10.3,83.323,73.564,0.0039374,NaN,27.92,986.5,348.22,0.05,0.15123,533.23
2.0912,224.06,213.46,92.312,221.04,97.072,52.283,0.0027429,52.283,0.0030058,57.384,30.026,28.61,-80.599,9.7877,0.39399,6.93E-07,9.7177,0.0049021,16183,680.36,12.066,0.027168,189.78,150.65,3.7989,0.642,35042278,1851.8,129.34,0.54427,0.54453,0.24718,0.12351,0.17358,0.060311,0.2261,-2.52E-04,0,0,0,0,0.0033265,0.028583,10.3,83.323,73.123,0.0037219,NaN,27.872,985.89,348.19,0.05,0.15337,557.45
2.1412,234.84,218.06,90.692,225.89,96.052,55.191,0.0030015,55.191,0.003116,58.934,31.638,28.61,-80.599,9.7876,0.086523,7.30E-07,-10.227,0.028891,16139,636.78,12.039,0.027137,190.93,150.44,3.9308,0.65599,35790639,1835.8,135.38,0.54624,0.54625,0.24595,0.12435,0.17594,0.012995,0.054484,1.96E-04,0,0,0,0,-0.0035292,0.029212,10.3,83.323,72.618,0.0036409,NaN,27.823,985.26,348.16,0.05,0.15551,581.9
2.1912,245.86,222.58,88.984,230.68,95.038,58.178,0.003274,58.178,0.0032244,60.569,33.377,28.61,-80.599,9.7876,0.59531,4.98E-07,-8.9401,0.0056419,16096,593.19,12.012,0.027106,189.27,150.24,3.7897,0.66957,36515478,1819.8,141.61,0.54823,0.54883,0.24476,0.12519,0.17828,0.092525,0.35369,2.79E-04,0,0,0,0,-0.0025893,0.029836,10.3,83.323,72.131,0.0036167,NaN,27.772,984.62,348.13,0.05,0.1574,606.55
2.2412,257.1,227.02,87.366,235.41,94.007,61.249,0.0035606,61.249,0.0033308,62.283,34.704,28.61,-80.599,9.7876,0.96348,1.17E-06,-5.8842,0.0033644,16052,549.61,11.985,0.027076,188.16,150.03,3.7024,0.68301,37231610,1803.9,148.05,0.55029,0.55182,0.24361,0.12604,0.18065,0.15344,0.56956,3.57E-04,0,0,0,0,-0.0010782,0.030452,10.3,83.323,71.754,0.0038683,NaN,27.721,983.96,348.1,0.05,0.1595,631.37
2.2912,268.56,231.38,85.984,240.08,92.948,64.407,0.0038621,64.407,0.0034357,64.046,35.299,28.61,-80.599,9.7875,1.1493,2.71E-06,-1.5927,0.0024998,16009,506.02,11.958,0.027045,187.67,149.82,3.6746,0.69627,37922452,1789.1,154.43,0.5524,0.55457,0.24249,0.12689,0.18302,0.18537,0.68142,1.65E-04,0,0,0,0,-7.60E-05,0.031062,10.3,83.323,71.563,0.0041809,NaN,27.619,982.71,348.04,0.042715,0.16379,656.07
2.3339,278.52,235.06,85.266,244.03,92.066,67.175,0.0041326,67.175,0.0035248,65.553,34.725,28.61,-80.599,9.7875,1.0189,2.64E-06,2.3518,1.68E-04,15968,465.61,11.933,0.027017,188.15,149.62,3.7407,0.70788,38526635,1774.9,159.86,0.55431,0.55603,0.24151,0.12765,0.18514,0.16317,0.61022,1.94E-04,0,0,0,0,1.60E-04,0.031577,10.3,83.323,71.58,0.004388,NaN,27.531,981.62,347.98,0.0461,0.16753,677.26
2.38,289.45,239,84.58,248.24,90.939,70.234,0.0044381,70.234,0.0036205,67.132,33.41,28.61,-80.599,9.7875,0.76315,2.11E-06,5.9319,-5.59E-04,15930,426.9,11.908,0.026989,189.06,149.44,3.8466,0.72011,3.92E+07,1759.5,165.62,0.55638,0.55736,0.2405,0.12847,0.18741,0.1204,0.46204,-3.14E-04,0,0,0,0,9.87E-04,0.032127,10.3,83.323,71.775,0.0045003,NaN,27.434,980.42,347.92,0.05,0.17043,700.25
2.43,301.5,243.24,84.089,252.77,89.664,73.631,0.0047856,73.631,0.0037239,68.76,31.124,28.61,-80.599,9.7874,0.2914,1.37E-06,8.4795,-0.002123,15888,385.01,11.882,0.02696,190.74,149.23,4.0294,0.73344,3.99E+07,1743.6,172.04,0.55871,0.55885,0.2394,0.12938,0.18993,0.044663,0.17806,-3.11E-04,0,0,0,0,0.0019443,0.032717,10.3,83.323,72.143,0.0048195,NaN,27.327,979.11,347.86,0.05,0.17379,725.29
2.48,313.77,247.46,83.699,257.24,88.42,77.107,0.0051506,77.107,0.0038273,70.258,28.505,28.61,-80.599,9.7874,0.24856,1.47E-06,-8.5062,-0.0043103,15844,341.43,11.854,0.026929,190.98,149.02,4.0741,0.74675,40536259,1727.6,178.84,0.5611,0.56121,0.23831,0.1303,0.19249,0.038039,0.15639,-2.01E-04,0,0,0,0,-0.0018882,0.033299,10.3,83.323,72.579,0.0052034,NaN,27.218,977.76,347.79,0.05,0.17666,750.42
2.53,326.25,251.66,83.209,261.66,87.18,80.655,0.0055338,80.655,0.0039311,71.63,26.013,28.61,-80.599,9.7874,0.71819,1.73E-06,-6.0335,-0.0024985,15801,297.84,11.826,0.026899,189.5,148.81,3.9506,0.75998,41216366,1711.6,186.04,0.56356,0.56444,0.23723,0.13124,0.19508,0.11341,0.44937,-4.81E-04,0,0,0,0,-9.18E-04,0.033872,10.3,83.323,72.952,0.0055073,NaN,27.108,976.4,347.73,0.05,0.18009,775.61
2.58,338.94,255.83,81.908,266.02,85.399,84.268,0.0059355,84.268,0.0040357,72.891,24.171,28.61,-80.599,9.7873,0.98617,5.57E-07,-1.4187,-0.0017325,15757,254.26,11.798,0.026868,188.73,148.59,3.8973,0.77306,41885937,1695.2,193.33,0.56605,0.5677,0.23618,0.13218,0.19769,0.15855,0.61775,3.93E-04,0,0,0,0,-4.90E-05,0.034437,10.3,83.323,73.145,0.0058275,NaN,26.995,975.01,347.66,0.038013,0.18284,800.82
2.618,348.72,258.97,78.481,269.28,81.821,87.057,0.0062539,87.057,0.0041159,73.811,23.142,28.61,-80.599,9.7873,0.96923,1.40E-06,2.7184,-0.0019714,15719,216.39,11.774,0.026841,188.86,148.4,3.9281,0.78267,42375962,1632.9,198.59,0.56793,0.56953,0.2354,0.13289,0.19964,0.15581,0.61169,3.11E-04,0,0,0,0,1.76E-04,0.03486,10.3,83.323,73.12,0.0061096,NaN,26.908,973.94,347.61,0.037416,0.18516,819.93
2.6554,358.47,261.9,72.904,272.34,76.265,89.835,0.0065784,89.835,0.0041957,74.692,22.392,28.61,-80.599,9.7873,0.77907,6.46E-07,6.4275,-0.0028366,15689,185.85,11.754,0.02682,189.54,148.25,4.0092,0.79158,42827170,1534.2,203.34,0.5697,0.57075,0.23469,0.13355,0.20146,0.12388,0.49583,-3.31E-04,0,0,0,0,9.61E-04,0.035257,10.3,83.323,72.947,0.0063786,NaN,26.822,972.87,347.55,0.0451,0.18812,838.01
2.7005,370.35,265.15,61.656,275.75,65.056,93.226,0.0069849,93.226,0.0042928,75.729,20.757,28.61,-80.599,9.7872,0.42902,4.62E-07,9.6382,-0.0022872,15661,158.37,11.736,0.026801,190.79,148.11,4.1437,0.80163,43331960,1364.8,208.73,0.57174,0.57206,0.2339,0.13431,0.20354,0.066793,0.27459,2.72E-04,0,0,0,0,0.0021073,0.035699,10.3,83.323,72.578,0.0064819,NaN,26.717,971.57,347.49,0.05,0.18985,858.25
2.7505,383.68,268.18,48.604,278.97,52.485,97.04,0.007455,97.04,0.0044017,76.833,19.809,28.61,-80.599,9.7872,0.24487,0,-10.15,-8.02E-04,15638,135.46,11.721,0.026785,191.5,148,4.2235,0.81023,43753115,1177.9,213.5,0.57353,0.57363,0.23322,0.13496,0.20534,0.03771,0.16196,1.50E-04,0,0,0,0,-0.0022886,0.036118,10.3,83.323,72.067,0.0065651,NaN,26.598,970.11,347.42,0.05,0.19177,877.44
2.8005,397.15,270.59,36.386,281.57,40.574,100.91,0.0079453,100.91,0.0045114,77.874,17.954,28.61,-80.599,9.7871,0.65451,-7.36E-07,-7.2798,-8.40E-05,15618,115.64,11.708,0.026771,190.17,147.9,4.104,0.81784,4.41E+07,992.7,218.05,0.57514,0.57589,0.23263,0.13555,0.20695,0.10354,0.42634,-2.98E-04,0,0,0,0,-0.001156,0.036458,10.3,83.323,71.621,0.0066661,NaN,26.479,968.64,347.35,0.049163,0.19419,892.89
2.8497,410.5,272.37,24.818,283.53,29.102,104.76,0.0084462,104.76,0.0046195,78.787,15.198,28.61,-80.599,9.7871,0.85794,-1.46E-06,-2.5037,0.0021294,15599,95.988,11.696,0.026757,189.55,147.8,4.0536,0.82358,44384906,831.62,221.46,0.57638,0.57765,0.2322,0.136,0.20818,0.13754,0.55787,-1.84E-04,0,0,0,0,-1.35E-04,0.036716,10.3,83.323,71.375,0.0068385,NaN,26.361,967.18,347.27,0.037065,0.19853,904.38
2.8867,420.61,273.33,17.788,284.62,21.756,107.69,0.008836,107.69,0.0047012,79.361,12.527,28.61,-80.599,9.7871,0.77973,-1.51E-06,1.3959,0.0044049,15582,78.9,11.684,0.026745,189.83,147.71,4.0895,0.82708,44539185,687.02,223.29,0.57714,0.5782,0.23194,0.13627,0.20893,0.12444,0.50839,-1.15E-04,0,0,0,0,4.16E-05,0.036859,10.3,83.323,71.356,0.007199,NaN,26.271,966.07,347.22,0.040338,0.20745,910.54
2.9271,431.65,274.04,8.4941,285.44,11.963,110.9,0.0092721,110.9,0.0047904,79.846,8.424,28.61,-80.599,9.787,0.56349,-1.55E-06,4.9076,0.0033128,15566,63.56,11.674,0.026734,190.57,147.63,4.1688,0.82977,44646848,518.26,224.5,0.57774,0.5783,0.23175,0.13649,0.20951,0.088747,0.36946,-1.24E-04,0,0,0,0,5.11E-04,0.036968,10.3,83.323,71.487,0.0075691,NaN,26.173,964.87,347.16,0.05,0.21197,914.93
2.9771,445.37,274.43,-3.5019,285.91,4.439,114.9,0.0098295,114.9,0.0049015,80.213,2.728,28.61,-80.599,9.787,0.17134,-2.12E-06,7.3221,0.013343,15548,45.657,11.662,0.026721,191.94,147.54,4.3101,0.83149,44693111,331.44,225.04,0.57814,0.57819,0.23164,0.13662,0.20988,0.026322,0.1128,-1.42E-04,0,0,0,0,0.0011331,0.037032,10.3,83.323,71.803,0.0079891,NaN,26.052,963.37,347.09,0.05,0.21614,916.94
3.0271,459.08,274.27,-13.906,285.79,14.129,118.92,0.010405,118.92,0.0050131,80.309,2.4963,28.61,-80.599,9.7869,0.28018,-2.29E-06,-6.9865,0.0062674,15528,25.839,11.649,0.026707,191.55,147.44,4.2829,0.83156,44650809,152.33,224.78,0.57819,0.57833,0.23167,0.13663,0.20989,0.043347,0.18681,-3.39E-04,0,0,0,0,-0.0010318,0.037017,10.3,83.323,72.172,0.0085481,NaN,25.93,961.87,347.01,0.05,0.21926,915.07
3.0771,472.78,273.59,-18.603,285.09,19.327,122.93,0.010997,122.93,0.0051255,80.15,5.2405,28.61,-80.599,9.7869,0.58752,-2.89E-06,-3.9523,8.10E-04,15512,9.1719,11.638,0.026696,190.49,147.35,4.1879,0.82979,44509385,68.936,223.52,0.57785,0.57846,0.23185,0.13649,0.20951,0.092672,0.38853,-4.42E-04,0,0,0,0,-3.32E-04,0.036927,10.3,83.323,72.454,0.0087634,NaN,25.809,960.37,346.94,0.05,0.22227,909.55
3.1271,486.44,272.66,-21.705,284.12,22.628,126.93,0.011604,126.93,0.0052382,79.881,6.3977,28.61,-80.599,9.7869,0.63925,-3.21E-06,0.12826,0.0033161,15504,1.7272,11.633,0.02669,190.29,147.32,4.1725,0.82695,44310850,16.157,221.46,0.57728,0.578,0.23212,0.13626,0.2089,0.10113,0.42211,1.51E-04,0,0,0,0,3.52E-07,0.036802,10.3,83.323,72.55,0.0085105,NaN,25.688,958.87,346.87,0.048753,0.22522,902.37
3.1758,499.7,271.61,-22.676,283.03,23.503,130.81,0.01221,130.81,0.0053478,79.581,6.1828,28.61,-80.599,9.7868,0.51501,-4.08E-06,3.7655,0.0040421,15503,0.52046,11.633,0.02669,190.68,147.31,4.211,0.82379,44096985,0,219.1,0.57665,0.57711,0.23241,0.13602,0.20822,0.080811,0.34036,-1.49E-04,0,0,0,0,3.06E-04,0.03666,10.3,83.323,72.452,0.0079744,NaN,25.57,957.42,346.79,0.05,0.22878,894.4
3.2258,513.25,270.47,-22.822,281.85,23.401,134.79,0.012842,134.79,0.005459,79.295,5.172,28.61,-80.599,9.7868,0.24298,-3.80E-06,6.2575,0.0058675,15503,0,11.632,0.026689,191.59,147.31,4.2992,0.82045,43872634,0,216.6,0.57598,0.57608,0.23272,0.13576,0.20751,0.037455,0.16043,-3.71E-04,0,0,0,0,8.52E-04,0.036509,10.3,83.323,72.194,0.0076134,NaN,25.45,955.94,346.72,0.05,0.23233,886
3.2758,526.75,269.32,-22.992,280.69,23.367,138.75,0.013485,138.75,0.0055686,79.064,4.1705,28.61,-80.599,9.7867,0.048495,-3.95E-06,-6.7494,0.039605,15503,0,11.632,0.026689,192.25,147.31,4.3635,0.81734,43660948,0,214.36,0.57536,0.57537,0.23301,0.13551,0.20684,0.0073792,0.033652,-6.37E-05,0,0,0,0,-9.99E-04,0.036359,10.3,83.323,71.862,0.007532,NaN,25.33,954.46,346.65,0.05,0.23545,877.68
3.3258,540.19,268.17,-23.235,279.53,23.425,142.69,0.014137,142.69,0.0056766,78.879,2.9796,28.61,-80.599,9.7867,0.39456,-4.59E-06,-5.5925,0.0060717,15503,0,11.632,0.026689,191.01,147.31,4.2429,0.81387,43431035,0,212.06,0.57468,0.57495,0.23332,0.13525,0.20611,0.061373,0.26133,-3.78E-05,0,0,0,0,-6.92E-04,0.03621,10.3,83.323,71.544,0.0077074,NaN,25.211,952.99,346.58,0.05,0.23806,869.46
3.3758,553.57,267,-23.37,278.38,23.467,146.63,0.0148,146.63,0.005783,78.76,2.1354,28.61,-80.598,9.7867,0.63245,-3.15E-06,-2.1541,0.004929,15503,0,11.632,0.026689,190.18,147.31,4.1621,0.81032,43196903,0,209.79,0.57398,0.57468,0.23365,0.13497,0.20536,0.099833,0.41606,-3.67E-04,0,0,0,0,-1.04E-04,0.036063,10.3,83.323,71.345,0.0082358,NaN,25.092,951.53,346.5,0.05,0.24087,861.31
3.4258,566.89,265.84,-23.142,277.23,23.265,150.57,0.015474,150.57,0.0058885,78.651,2.3829,28.61,-80.598,9.7866,0.55818,-3.92E-06,1.592,0.0066773,15503,0,11.632,0.026689,190.4,147.31,4.1839,0.80735,42994411,0,207.67,0.57341,0.57395,0.23393,0.13474,0.20473,0.08767,0.36701,1.61E-05,0,0,0,0,5.70E-05,0.035917,10.3,83.323,71.333,0.0091737,NaN,24.974,950.07,346.43,0.05,0.24395,853.26
3.4758,580.15,264.69,-22.781,276.09,22.976,154.5,0.016162,154.5,0.0059937,78.514,2.9846,28.61,-80.598,9.7866,0.36944,-4.10E-06,4.3108,0.0064621,15503,0,11.632,0.026689,191.02,147.31,4.2436,0.80419,42782700,0,205.4,0.5728,0.57304,0.23422,0.1345,0.20407,0.057314,0.2432,4.18E-05,0,0,0,0,4.22E-04,0.035771,10.3,83.323,71.486,0.0099879,NaN,24.857,948.62,346.36,0.05,0.24733,845.3
3.5258,593.36,263.56,-22.404,274.96,22.694,158.42,0.016864,158.42,0.0060992,78.349,3.615,28.61,-80.598,9.7865,0.15657,-4.45E-06,5.8835,0.0095033,15503,0,11.632,0.026689,191.73,147.31,4.3128,0.80071,42553836,0,203.01,0.57213,0.57218,0.23455,0.13424,0.20335,0.02395,0.10276,-3.06E-04,0,0,0,0,7.93E-04,0.035626,10.3,83.323,71.746,0.010266,NaN,24.74,947.18,346.29,0.05,0.25583,837.45
3.5758,606.51,262.45,-21.978,273.84,22.426,162.33,0.01758,162.33,0.0062051,78.15,4.4622,28.61,-80.598,9.7865,0.13267,-4.37E-06,-6.0425,0.0088196,15503,0,11.632,0.026689,191.79,147.31,4.3184,0.79743,42336204,0,200.81,0.57151,0.57154,0.23485,0.13399,0.20267,0.020255,0.088501,9.07E-05,0,0,0,0,-8.43E-04,0.035482,10.3,83.323,72.051,0.010095,NaN,24.623,945.74,346.22,0.05,0.25891,829.7
3.6258,619.6,261.36,-21.625,272.73,22.224,166.23,0.018309,166.23,0.0063107,77.906,5.1276,28.61,-80.598,9.7865,0.3627,-4.38E-06,-4.4379,0.0017334,15503,0,11.632,0.026689,190.96,147.31,4.2378,0.79411,42117315,0,198.69,0.57088,0.57111,0.23516,0.13374,0.20198,0.056184,0.23874,1.07E-04,0,0,0,0,-4.59E-04,0.035339,10.3,83.323,72.318,0.0096335,NaN,24.507,944.31,346.15,0.05,0.26792,822.04
3.6758,632.64,260.29,-21.307,271.62,22.07,170.12,0.019049,170.12,0.0064156,77.64,5.753,28.61,-80.598,9.7864,0.57003,-4.05E-06,-1.95,-7.41E-06,15503,0,11.632,0.026689,190.23,147.31,4.1673,0.7912,4.19E+07,0,196.86,0.57034,0.5709,0.23544,0.13352,0.20138,0.089449,0.37316,4.54E-04,0,0,0,0,-8.93E-05,0.035196,10.3,83.323,72.483,0.009335,NaN,24.391,942.88,346.08,0.05,0.26981,814.47
3.7258,645.63,259.23,-21.073,270.52,21.953,174,0.019799,174,0.0065195,77.337,6.1518,28.61,-80.598,9.7864,0.69952,-5.52E-06,1.8289,-4.33E-04,15503,0,11.632,0.026689,189.78,147.31,4.1236,0.7887,41745530,0,195.26,0.56988,0.57072,0.23568,0.13334,0.20087,0.11064,0.45597,3.73E-04,0,0,0,0,7.91E-05,0.035054,10.3,83.323,72.488,0.0093634,NaN,24.276,941.46,346.01,0.05,0.27262,806.98
3.7758,658.57,258.18,-21.038,269.42,21.838,177.86,0.020557,177.86,0.0066223,77.036,5.8568,28.61,-80.598,9.7863,0.6185,-5.19E-06,5.5825,-7.93E-05,15503,0,11.632,0.026689,190.03,147.31,4.1477,0.78614,41567829,0,193.48,0.56941,0.57007,0.23592,0.13315,0.20034,0.097304,0.40257,3.54E-04,0,0,0,0,7.42E-04,0.034912,10.3,83.323,72.301,0.0096076,NaN,24.162,940.04,345.94,0.05,0.27466,799.57
3.8258,671.45,257.12,-21.228,268.34,21.765,181.7,0.021325,181.7,0.0067243,76.763,4.8039,28.61,-80.598,9.7863,0.297,-4.45E-06,8.3709,-0.0015785,15503,0,11.632,0.026689,191.1,147.31,4.2514,0.78324,41372872,0,191.42,0.56888,0.56903,0.2362,0.13293,0.19975,0.045762,0.19335,-4.57E-04,0,0,0,0,0.0016807,0.034771,10.3,83.323,71.945,0.010144,NaN,24.047,938.63,345.87,0.05,0.27689,792.23
3.8758,684.28,256.05,-21.548,267.25,21.815,185.53,0.022103,185.53,0.0068258,76.559,3.3988,28.61,-80.598,9.7863,0.16314,-4.39E-06,-8.6929,0.0022603,15503,0,11.632,0.026689,191.54,147.31,4.2944,0.78003,41161990,0,189.33,0.56829,0.56834,0.2365,0.13269,0.1991,0.024911,0.10853,-2.59E-04,0,0,0,0,-0.0018282,0.034632,10.3,83.323,71.508,0.010681,NaN,23.934,937.23,345.8,0.05,0.28105,784.97
3.9258,697.05,254.97,-21.872,266.17,21.971,189.36,0.022894,189.36,0.0069271,76.421,2.0878,28.61,-80.598,9.7862,0.58843,-4.69E-06,-6.6396,0.0011805,15503,0,11.632,0.026689,190.05,147.31,4.1502,0.77674,40946788,0,187.44,0.56769,0.56829,0.23681,0.13245,0.19843,0.09231,0.38452,1.60E-04,0,0,0,0,-0.001076,0.034494,10.3,83.323,71.115,0.011219,NaN,23.82,935.83,345.73,0.05,0.28497,777.78
3.9758,709.78,253.87,-21.964,265.1,22.016,193.18,0.023697,193.18,0.0070286,76.34,1.5008,28.61,-80.598,9.7862,0.77678,-3.97E-06,-2.6697,0.0024781,15503,0,11.632,0.026689,189.41,147.31,4.0876,0.77376,40748888,0,185.69,0.56716,0.56819,0.23709,0.13223,0.19783,0.12327,0.50365,3.49E-04,0,0,0,0,-1.75E-04,0.034357,10.3,83.323,70.878,0.011673,NaN,23.708,934.44,345.67,0.0479,0.28866,770.65
4.0237,721.91,252.82,-21.768,264.07,21.837,196.83,0.024481,196.83,0.0071261,76.262,1.7361,28.61,-80.598,9.7861,0.70233,-4.48E-06,1.141,0.0028797,15503,0,11.632,0.026689,189.63,147.31,4.1094,0.7712,40575276,0,183.99,0.5667,0.56755,0.23734,0.13205,0.19732,0.11091,0.45624,-5.90E-05,0,0,0,0,3.23E-05,0.034226,10.3,83.323,70.843,0.012061,NaN,23.6,933.11,345.6,0.05,0.29159,763.89
4.0737,734.52,251.74,-21.412,263.01,21.543,200.64,0.025313,200.64,0.0072283,76.161,2.3724,28.61,-80.598,9.7861,0.487,-3.58E-06,4.3705,0.0050477,15503,0,11.632,0.026689,190.33,147.31,4.1769,0.76838,40386671,0,182.08,0.56621,0.56662,0.23761,0.13184,0.19675,0.075844,0.3167,1.38E-04,0,0,0,0,4.77E-04,0.034091,10.3,83.323,70.986,0.01242,NaN,23.488,931.73,345.53,0.05,0.29361,756.92
4.1237,747.08,250.68,-20.954,261.95,21.216,204.45,0.026159,204.45,0.007331,76.02,3.329,28.61,-80.598,9.7861,0.1481,-3.30E-06,6.0889,0.01154,15503,0,11.632,0.026689,191.48,147.31,4.2885,0.76561,40201025,0,180.22,0.56572,0.56576,0.23788,0.13164,0.1962,0.022559,0.095524,9.43E-05,0,0,0,0,9.33E-04,0.033956,10.3,83.323,71.255,0.012536,NaN,23.377,930.36,345.47,0.05,0.29665,750.03
4.1737,759.59,249.65,-20.53,260.91,20.961,208.24,0.027019,208.24,0.007434,75.829,4.2323,28.61,-80.598,9.786,0.1897,-3.34E-06,-5.9027,0.0072458,15503,0,11.632,0.026689,191.31,147.31,4.2721,0.76273,40010599,0,178.46,0.56522,0.56528,0.23815,0.13144,0.19563,0.028966,0.12436,-3.95E-04,0,0,0,0,-8.84E-04,0.033821,10.3,83.323,71.562,0.012305,NaN,23.266,929,345.4,0.05,0.30276,743.24
4.2237,772.05,248.63,-20.19,259.87,20.781,212.03,0.027892,212.03,0.007537,75.6,4.9216,28.61,-80.598,9.786,0.44789,-2.92E-06,-4.2345,0.0025365,15503,0,11.632,0.026689,190.4,147.31,4.1834,0.75977,39818001,0,176.75,0.5647,0.56504,0.23843,0.13122,0.19504,0.06952,0.29133,-2.39E-04,0,0,0,0,-4.59E-04,0.033687,10.3,83.323,71.821,0.011781,NaN,23.155,927.7,345.33,0.05,0.30568,736.56
4.2737,784.46,247.62,-19.95,258.83,20.649,215.8,0.028774,215.8,0.0076396,75.342,5.3262,28.61,-80.598,9.7859,0.6034,-2.67E-06,-1.4807,0.0032271,15503,0,11.632,0.026689,189.85,147.31,4.1305,0.75689,3.96E+07,0,175.09,0.5642,0.56482,0.23871,0.13102,0.19447,0.094563,0.39107,4.82E-04,0,0,0,0,-5.65E-05,0.033553,10.3,83.323,71.967,0.011188,NaN,23.045,926.4,345.26,0.05,0.30857,729.96
4.3237,796.81,246.63,-19.804,257.8,20.54,219.56,0.029665,219.56,0.0077411,75.073,5.4463,28.61,-80.598,9.7859,0.65742,-2.96E-06,1.6898,0.0011812,15503,0,11.632,0.026689,189.65,147.31,4.1112,0.75426,39455989,0,173.53,0.56375,0.56449,0.23896,0.13083,0.19396,0.10336,0.42478,8.67E-05,0,0,0,0,7.41E-05,0.03342,10.3,83.323,71.962,0.010864,NaN,22.936,925.1,345.2,0.05,0.31671,723.42
4.3737,809.12,245.64,-19.773,256.78,20.446,223.31,0.030563,223.31,0.0078416,74.804,5.2012,28.61,-80.598,9.7859,0.58293,-3.19E-06,4.9074,0.001113,15503,0,11.632,0.026689,189.88,147.31,4.1334,0.75179,3.93E+07,0,171.98,0.56333,0.56391,0.2392,0.13066,0.19347,0.091193,0.37636,3.09E-04,0,0,0,0,6.30E-04,0.033288,10.3,83.323,71.796,0.011106,NaN,22.827,923.81,345.13,0.05,0.31929,716.95
4.4237,821.38,244.65,-19.935,255.76,20.397,227.05,0.031468,227.05,0.0079412,74.562,4.3177,28.61,-80.598,9.7858,0.28255,-3.54E-06,7.2061,0.0015783,15503,0,11.632,0.026689,190.88,147.31,4.2305,0.74893,39105324,0,170.15,0.56285,0.56298,0.23947,0.13045,0.19292,0.043347,0.18233,4.24E-04,0,0,0,0,0.0013686,0.033156,10.3,83.323,71.487,0.011725,NaN,22.718,922.53,345.07,0.05,0.32218,710.54
4.4737,833.58,243.65,-20.197,254.75,20.444,230.77,0.032383,230.77,0.0080401,74.375,3.17,28.61,-80.598,9.7858,0.13564,-3.43E-06,-7.5505,0.0071122,15503,0,11.632,0.026689,191.37,147.31,4.2781,0.74582,38907099,0,168.32,0.56232,0.56235,0.23977,0.13024,0.19231,0.020605,0.089443,3.88E-04,0,0,0,0,-0.0015157,0.033026,10.3,83.323,71.109,0.012764,NaN,22.61,921.25,345,0.05,0.32505,704.2
4.5237,845.74,242.63,-20.45,253.74,20.56,234.48,0.033308,234.48,0.0081389,74.243,2.1238,28.61,-80.598,9.7858,0.51565,-3.10E-06,-5.9378,0.0028682,15503,0,11.632,0.026689,190.04,147.31,4.1487,0.7427,38708502,0,166.65,0.56179,0.56225,0.24007,0.13002,0.19171,0.080254,0.33407,1.62E-04,0,0,0,0,-9.46E-04,0.032897,10.3,83.323,70.765,0.013769,NaN,22.502,919.97,344.94,0.05,0.32887,697.91
4.5737,857.85,241.6,-20.576,252.73,20.629,238.19,0.034248,238.19,0.008238,74.157,1.475,28.61,-80.598,9.7857,0.74582,-3.36E-06,-2.7738,0.002761,15503,0,11.632,0.026689,189.25,147.31,4.0725,0.73966,38514801,0,165.05,0.56128,0.56223,0.24036,0.12981,0.19112,0.11775,0.47951,-3.86E-04,0,0,0,0,-2.08E-04,0.032769,10.3,83.323,70.543,0.014551,NaN,22.395,918.7,344.87,0.05,0.33177,691.68
4.6237,869.9,240.58,-20.459,251.73,20.514,241.9,0.035202,241.9,0.0083378,74.086,1.5051,28.61,-80.598,9.7857,0.7333,-3.53E-06,0.86281,0.0051029,15503,0,11.632,0.026689,189.28,147.31,4.0745,0.73691,38336818,0,163.46,0.56083,0.56174,0.24062,0.12962,0.1906,0.11565,0.47125,-3.18E-04,0,0,0,0,2.03E-05,0.032641,10.3,83.323,70.495,0.015208,NaN,22.288,917.44,344.81,0.05,0.33584,685.5
4.6737,881.9,239.56,-20.153,250.73,20.256,245.6,0.036172,245.6,0.0084385,73.998,2.042,28.61,-80.597,9.7856,0.53157,-3.88E-06,3.8959,0.0052676,15503,0,11.632,0.026689,189.92,147.31,4.1375,0.73428,38165161,0,161.82,0.5604,0.56089,0.24088,0.12943,0.19009,0.08275,0.3419,-3.16E-04,0,0,0,0,4.17E-04,0.032514,10.3,83.323,70.618,0.015662,NaN,22.182,916.18,344.74,0.05,0.33857,679.4
4.7237,893.86,238.56,-19.818,249.74,19.993,249.3,0.037158,249.3,0.00854,73.879,2.6429,28.61,-80.597,9.7856,0.28944,-4.49E-06,5.749,0.0090605,15503,0,11.632,0.026689,190.73,147.31,4.2155,0.73134,37977763,0,160.07,0.55992,0.56007,0.24116,0.12923,0.18953,0.044348,0.18611,-4.88E-05,0,0,0,0,9.16E-04,0.032388,10.3,83.323,70.864,0.015645,NaN,22.076,914.93,344.68,0.05,0.34115,673.37
4.7737,905.76,237.58,-19.422,248.76,19.73,252.99,0.038159,252.99,0.0086421,73.731,3.4768,28.61,-80.597,9.7856,0.056591,-4.50E-06,-6.4823,0.040494,15503,0,11.632,0.026689,191.53,147.31,4.293,0.72861,37801620,0,158.49,0.55948,0.55949,0.24142,0.12904,0.18901,0.0085377,0.038179,1.90E-04,0,0,0,0,-0.0011732,0.032262,10.3,83.323,71.177,0.015189,NaN,21.97,913.68,344.61,0.05,0.34392,667.41
4.8237,917.62,236.62,-19.014,247.78,19.525,256.67,0.039173,256.67,0.0087445,73.53,4.4359,28.61,-80.597,9.7855,0.4452,-3.99E-06,-5.1897,0.0049946,15503,0,11.632,0.026689,190.16,147.31,4.1601,0.72619,37641962,0,157.21,0.5591,0.55944,0.24166,0.12888,0.18856,0.06887,0.28716,2.34E-04,0,0,0,0,-7.57E-04,0.032136,10.3,83.323,71.476,0.014454,NaN,21.865,912.44,344.55,0.05,0.34659,661.51
4.8737,929.42,235.68,-18.713,246.81,19.396,260.34,0.040197,260.34,0.0088465,73.292,5.1033,28.61,-80.597,9.7855,0.71137,-4.99E-06,-2.5849,0.0030332,15503,0,11.632,0.026689,189.25,147.31,4.0722,0.72372,3.75E+07,0,155.97,0.55871,0.55957,0.24191,0.12871,0.18809,0.1119,0.45577,8.68E-05,0,0,0,0,-1.89E-04,0.032011,10.3,83.323,71.675,0.013756,NaN,21.76,911.2,344.49,0.05,0.35024,655.68
4.9237,941.18,234.75,-18.533,245.84,19.302,264,0.041229,264,0.0089479,73.026,5.3925,28.61,-80.597,9.7855,0.83145,-4.64E-06,1.0233,0.0042933,15503,0,11.632,0.026689,188.84,147.31,4.0327,0.72134,37323119,0,154.71,0.55834,0.5595,0.24214,0.12855,0.18764,0.13176,0.53149,4.38E-04,0,0,0,0,2.99E-05,0.031886,10.3,83.323,71.716,0.013167,NaN,21.656,909.97,344.42,0.05,0.35315,649.9
4.9737,952.9,233.82,-18.535,244.88,19.214,267.64,0.042268,267.64,0.0090484,72.763,5.0646,28.61,-80.597,9.7854,0.72368,-5.28E-06,4.5552,0.0063417,15503,0,11.632,0.026689,189.18,147.31,4.0649,0.71877,37156836,0,153.22,0.55794,0.55882,0.2424,0.12838,0.18716,0.11388,0.4619,3.61E-05,0,0,0,0,5.96E-04,0.031761,10.3,83.323,71.574,0.012729,NaN,21.552,908.74,344.36,0.05,0.35574,644.18
5.0237,964.57,232.89,-18.687,243.92,19.165,271.28,0.043312,271.28,0.0091478,72.527,4.2541,28.61,-80.597,9.7854,0.42363,-6.17E-06,7.2005,0.012264,15503,0,11.632,0.026689,190.16,147.31,4.1602,0.71604,36982501,0,151.58,0.55751,0.55782,0.24266,0.12819,0.18665,0.065383,0.27053,-4.06E-04,0,0,0,0,0.0015016,0.031637,10.3,83.323,71.275,0.012575,NaN,21.449,907.51,344.3,0.05,0.3588,638.51
5.0737,976.19,231.95,-18.871,242.97,19.177,274.9,0.044362,274.9,0.0092461,72.339,3.4117,28.61,-80.597,9.7854,0.085075,-6.44E-06,8.1935,0.063832,15503,0,11.632,0.026689,191.32,147.31,4.2726,0.71351,36818649,0,150.12,0.55712,0.55713,0.24291,0.12802,0.18618,0.012841,0.053192,1.37E-04,0,0,0,0,0.0019588,0.031515,10.3,83.323,70.884,0.012803,NaN,21.346,906.3,344.23,0.05,0.36154,632.9
5.1237,987.76,231,-19.046,242.02,19.232,278.51,0.045417,278.51,0.0093434,72.184,2.6681,28.61,-80.597,9.7853,0.23041,-6.50E-06,-7.9517,0.022719,15503,0,11.632,0.026689,190.79,147.31,4.2214,0.71113,36663130,0,148.84,0.55676,0.55685,0.24315,0.12787,0.18574,0.035103,0.14986,-5.02E-05,0,0,0,0,-0.0018579,0.031393,10.3,83.323,70.474,0.013628,NaN,21.243,905.08,344.17,0.05,0.36608,627.34
5.1737,999.29,230.05,-19.247,241.07,19.338,282.12,0.046481,282.12,0.00944,72.072,1.8742,28.61,-80.597,9.7853,0.5569,-6.55E-06,-6.2032,0.0096377,15503,0,11.632,0.026689,189.66,147.31,4.1114,0.70846,36492538,0,147.53,0.55635,0.55688,0.24341,0.12769,0.18525,0.08663,0.35721,-4.71E-04,0,0,0,0,-0.0011397,0.031272,10.3,83.323,70.115,0.014774,NaN,21.141,903.87,344.11,0.05,0.36944,621.82
5.2237,1010.8,229.08,-19.404,240.13,19.441,285.72,0.047556,285.72,0.0095365,71.993,1.2049,28.61,-80.597,9.7853,0.82298,-7.29E-06,-3.2985,0.0081058,15503,0,11.632,0.026689,188.76,147.31,4.0246,0.7055,36308161,0,146.15,0.5559,0.55703,0.2437,0.12749,0.18471,0.13016,0.52431,2.12E-04,0,0,0,0,-3.25E-04,0.031152,10.3,83.323,69.873,0.016031,NaN,21.039,902.67,344.05,0.05,0.37236,616.35
5.2737,1022.2,228.11,-19.379,239.19,19.405,289.32,0.048643,289.32,0.0096332,71.944,1.0107,28.61,-80.597,9.7852,0.89674,-7.53E-06,0.51245,0.0066642,15503,0,11.632,0.026689,188.51,147.31,3.9997,0.70262,36127841,0,144.7,0.55546,0.55681,0.24398,0.1273,0.18418,0.14245,0.56973,3.78E-04,0,0,0,0,7.91E-06,0.031032,10.3,83.323,69.802,0.017135,NaN,20.938,901.47,343.99,0.05,0.37456,610.92
5.3237,1033.6,227.15,-19.133,238.25,19.183,292.91,0.049746,292.91,0.0097306,71.883,1.3891,28.61,-80.597,9.7852,0.73855,-6.37E-06,3.9147,0.0073038,15503,0,11.632,0.026689,189,147.31,4.0476,0.69997,3.60E+07,0,143.21,0.55507,0.55598,0.24424,0.12713,0.1837,0.11614,0.46961,3.99E-04,0,0,0,0,4.65E-04,0.030913,10.3,83.323,69.916,0.017882,NaN,20.837,900.28,343.93,0.05,0.37899,605.56
5.3737,1044.9,226.2,-18.801,237.32,18.906,296.5,0.050863,296.5,0.0098287,71.8,1.9824,28.61,-80.597,9.7851,0.47789,-6.66E-06,6.4856,0.0091824,15503,0,11.632,0.026689,189.84,147.31,4.1296,0.69716,35783401,0,141.63,0.55465,0.55504,0.24452,0.12695,0.18318,0.073891,0.30377,-2.65E-04,0,0,0,0,0.0012883,0.030795,10.3,83.323,70.18,0.018146,NaN,20.736,899.09,343.87,0.05,0.38191,600.25
5.4237,1056.2,225.27,-18.383,236.4,18.606,300.09,0.051996,300.09,0.0099275,71.681,2.8692,28.61,-80.597,9.7851,0.074481,-6.39E-06,7.6909,0.052758,15503,0,11.632,0.026689,191.22,147.31,4.2636,0.69459,3.56E+07,0,140.21,0.55428,0.55428,0.24478,0.12678,0.18272,0.011215,0.046384,-1.61E-04,0,0,0,0,0.0018258,0.030677,10.3,83.323,70.542,0.018067,NaN,20.636,897.91,343.8,0.05,0.38435,595.01
5.4737,1067.4,224.36,-17.956,235.48,18.37,303.67,0.053143,303.67,0.010027,71.513,3.8776,28.61,-80.597,9.7851,0.38957,-6.25E-06,-7.0327,0.0088226,15503,0,11.632,0.026689,190.11,147.31,4.1555,0.69229,35471017,0,139.08,0.55394,0.5542,0.24501,0.12663,0.1823,0.059867,0.2499,-2.15E-04,0,0,0,0,-0.0015373,0.030559,10.3,83.323,70.917,0.017777,NaN,20.537,896.73,343.74,0.05,0.38736,589.83
5.5237,1078.6,223.47,-17.62,234.57,18.228,307.24,0.054301,307.24,0.010126,71.296,4.6661,28.61,-80.597,9.785,0.74135,-6.56E-06,-4.6581,0.0034573,15503,0,11.632,0.026689,188.92,147.31,4.0401,0.6899,35317491,0,138.02,0.5536,0.55452,0.24525,0.12648,0.18187,0.1165,0.47113,-2.20E-04,0,0,0,0,-6.79E-04,0.030441,10.3,83.323,71.215,0.017392,NaN,20.437,895.56,343.68,0.05,0.38967,584.7
5.5737,1089.8,222.59,-17.438,233.66,18.135,310.8,0.055469,310.8,0.010226,71.053,4.978,28.61,-80.597,9.785,0.89068,-6.46E-06,-1.3332,0.0046483,15503,0,11.632,0.026689,188.42,147.31,3.9917,0.6873,35153850,0,136.81,0.55323,0.55455,0.24551,0.12631,0.18141,0.14125,0.56425,-3.87E-05,0,0,0,0,-5.61E-05,0.030324,10.3,83.323,71.367,0.016839,NaN,20.339,894.39,343.62,0.05,0.39201,579.62
5.6237,1100.9,221.72,-17.362,232.76,18.054,314.35,0.056646,314.35,0.010325,70.805,4.9505,28.61,-80.597,9.785,0.89614,-6.74E-06,2.1858,0.0045277,15503,0,11.632,0.026689,188.39,147.31,3.9884,0.68485,34997775,0,135.57,0.55288,0.55421,0.24576,0.12615,0.18097,0.14214,0.56684,1.47E-04,0,0,0,0,1.52E-04,0.030207,10.3,83.323,71.346,0.016165,NaN,20.24,893.22,343.56,0.05,0.39466,574.59
5.6737,1112,220.86,-17.417,231.86,17.988,317.88,0.057829,317.88,0.010423,70.565,4.4956,28.61,-80.597,9.7849,0.71943,-5.62E-06,5.4756,0.0056096,15503,0,11.632,0.026689,188.94,147.31,4.0422,0.68236,3.48E+07,0,134.21,0.55253,0.5534,0.24601,0.12599,0.18053,0.11282,0.45474,4.49E-04,0,0,0,0,9.61E-04,0.03009,10.3,83.323,71.151,0.015751,NaN,20.142,892.06,343.5,0.05,0.39825,569.6
5.7237,1123,219.98,-17.608,230.96,17.976,321.4,0.059019,321.4,0.010521,70.362,3.6211,28.61,-80.597,9.7849,0.34826,-5.13E-06,7.5708,0.011489,15503,0,11.632,0.026689,190.17,147.31,4.1611,0.67961,3.47E+07,0,132.71,0.55214,0.55235,0.24628,0.12582,0.18004,0.053318,0.21974,-8.99E-05,0,0,0,0,0.0018519,0.029975,10.3,83.323,70.819,0.015761,NaN,20.044,890.91,343.45,0.05,0.40068,564.67
5.7737,1134,219.1,-17.787,230.07,18.016,324.92,0.060215,324.92,0.010618,70.202,2.8584,28.61,-80.597,9.7849,0.0052079,-4.99E-06,-8.0932,0.83674,15503,0,11.632,0.026689,191.35,147.31,4.2763,0.67718,34515565,0,131.46,0.55181,0.55181,0.24653,0.12567,0.17961,7.79E-04,0.0054799,-4.59E-04,0,0,0,0,-0.0021323,0.02986,10.3,83.323,70.421,0.016046,NaN,19.947,889.76,343.39,0.05,0.40545,559.77
5.8237,1144.9,218.2,-17.913,229.18,18.063,328.43,0.061418,328.43,0.010715,70.073,2.3213,28.61,-80.597,9.7848,0.26635,-4.92E-06,-7.5845,0.015097,15503,0,11.632,0.026689,190.42,147.31,4.1856,0.6751,3.44E+07,0,130.45,0.55153,0.55165,0.24674,0.12554,0.17925,0.040544,0.17161,-4.03E-04,0,0,0,0,-0.0018848,0.029746,10.3,83.323,70.024,0.016484,NaN,19.85,888.61,343.33,0.05,0.40892,554.92
5.8737,1155.8,217.3,-18.044,228.29,18.132,331.93,0.062629,331.93,0.010811,69.969,1.7869,28.61,-80.597,9.7848,0.51937,-4.85E-06,-6.1281,0.0086856,15503,0,11.632,0.026689,189.54,147.31,4.1005,0.67283,34234978,0,129.41,0.55122,0.55167,0.24697,0.12539,0.17885,0.080351,0.33033,-4.94E-04,0,0,0,0,-0.0012392,0.029633,10.3,83.323,69.677,0.017273,NaN,19.754,887.47,343.27,0.05,0.41224,550.11
5.9237,1166.6,216.4,-18.14,227.41,18.19,335.42,0.063851,335.42,0.010907,69.892,1.342,28.61,-80.597,9.7848,0.72426,-5.11E-06,-3.7485,0.0078304,15503,0,11.632,0.026689,188.85,147.31,4.0332,0.67033,34078464,0,128.3,0.55088,0.55175,0.24723,0.12524,0.17842,0.1135,0.45793,4.22E-04,0,0,0,0,-4.67E-04,0.029521,10.3,83.323,69.427,0.018392,NaN,19.657,886.33,343.21,0.05,0.41552,545.33
5.9737,1177.4,215.49,-18.145,226.52,18.179,338.92,0.065084,338.92,0.011003,69.831,1.1235,28.61,-80.597,9.7847,0.82159,-5.53E-06,-0.87959,0.006742,15503,0,11.632,0.026689,188.52,147.31,4.001,0.66772,33916389,0,127.12,0.55053,0.55165,0.24749,0.12507,0.17796,0.12952,0.51842,1.91E-06,0,0,0,0,-2.59E-05,0.029408,10.3,83.323,69.31,0.019514,NaN,19.562,885.2,343.15,0.05,0.41851,540.6
6.0237,1188.2,214.59,-17.971,225.65,18.023,342.41,0.066331,342.41,0.011099,69.773,1.3629,28.61,-80.596,9.7847,0.70886,-5.42E-06,2.0935,0.0087056,15503,0,11.632,0.026689,188.87,147.31,4.0351,0.66537,33767921,0,125.92,0.55021,0.55105,0.24773,0.12493,0.17755,0.11094,0.44706,-4.45E-04,0,0,0,0,1.48E-04,0.029297,10.3,83.323,69.343,0.020474,NaN,19.466,884.07,343.1,0.05,0.42158,535.9
6.0737,1198.9,213.7,-17.644,224.77,17.759,345.89,0.067592,345.89,0.011196,69.688,2.0228,28.61,-80.596,9.7847,0.39208,-5.22E-06,4.0998,0.014247,15503,0,11.632,0.026689,189.91,147.31,4.1365,0.66338,33638334,0,124.82,0.54996,0.55021,0.24794,0.1248,0.17721,0.060115,0.24854,3.16E-04,0,0,0,0,5.71E-04,0.029186,10.3,83.323,69.502,0.021311,NaN,19.371,882.95,343.04,0.05,0.42377,531.26
6.1237,1209.5,212.82,-17.333,223.91,17.534,349.37,0.06887,349.37,0.011294,69.571,2.6474,28.61,-80.596,9.7846,0.070529,-5.44E-06,4.9126,0.071428,15503,0,11.632,0.026689,191.02,147.31,4.2437,0.66116,33497371,0,123.71,0.54967,0.54968,0.24817,0.12467,0.17683,0.010586,0.043896,9.71E-06,0,0,0,0,8.26E-04,0.029075,10.3,83.323,69.732,0.021712,NaN,19.277,881.83,342.98,0.05,0.42658,526.67
6.1737,1220.2,211.96,-17.065,223.04,17.357,352.85,0.070162,352.85,0.011393,69.425,3.1733,28.61,-80.596,9.7846,0.21375,-5.48E-06,-4.6319,0.022302,15503,0,11.632,0.026689,190.5,147.31,4.1933,0.65878,33348099,0,122.61,0.54936,0.54943,0.24842,0.12452,0.17642,0.032382,0.13668,1.45E-04,0,0,0,0,-7.40E-04,0.028964,10.3,83.323,69.975,0.021623,NaN,19.183,880.72,342.92,0.05,0.43154,522.13
6.2237,1230.7,211.12,-16.818,222.18,17.214,356.32,0.071468,356.32,0.011492,69.254,3.6723,28.61,-80.596,9.7846,0.47623,-5.41E-06,-3.4165,0.0094503,15503,0,11.632,0.026689,189.59,147.31,4.1046,0.6565,33204417,0,121.61,0.54906,0.54944,0.24865,0.12438,0.17603,0.073375,0.30135,-3.34E-04,0,0,0,0,-4.06E-04,0.028854,10.3,83.323,70.18,0.021052,NaN,19.089,879.61,342.87,0.05,0.43438,517.64
6.2737,1241.3,210.28,-16.62,221.33,17.107,359.77,0.072786,359.77,0.011592,69.06,4.0526,28.61,-80.596,9.7845,0.67382,-5.19E-06,-1.3392,0.008738,15503,0,11.632,0.026689,188.92,147.31,4.0396,0.65433,33066702,0,120.68,0.54879,0.54954,0.24888,0.12425,0.17566,0.10512,0.42501,-1.05E-04,0,0,0,0,-6.27E-05,0.028744,10.3,83.323,70.302,0.020025,NaN,18.996,878.51,342.81,0.05,0.43683,513.18
6.3237,1251.8,209.45,-16.49,220.48,17.027,363.22,0.074114,363.22,0.011691,68.853,4.2429,28.61,-80.596,9.7845,0.7761,-5.22E-06,1.1843,0.0084827,15503,0,11.632,0.026689,188.57,147.31,4.006,0.65227,32934879,0,119.76,0.54853,0.54953,0.24909,0.12413,0.17531,0.12185,0.48789,-8.09E-05,0,0,0,0,4.94E-05,0.028634,10.3,83.323,70.307,0.018788,NaN,18.903,877.41,342.75,0.05,0.43955,508.77
6.3737,1262.2,208.63,-16.424,219.63,16.964,366.66,0.075449,366.66,0.01179,68.639,4.2466,28.61,-80.596,9.7845,0.78512,-5.14E-06,3.9265,0.010381,15503,0,11.632,0.026689,188.53,147.31,4.0021,0.6504,32813473,0,118.88,0.5483,0.54932,0.24929,0.12401,0.17499,0.12332,0.49311,-1.72E-04,0,0,0,0,5.46E-04,0.028524,10.3,83.323,70.179,0.017636,NaN,18.81,876.34,342.7,0.05,0.44191,504.4
6.4237,1272.6,207.81,-16.498,218.79,16.933,370.09,0.07679,370.09,0.011888,68.434,3.8127,28.61,-80.596,9.7844,0.58381,-4.61E-06,6.4009,0.016086,15503,0,11.632,0.026689,189.18,147.31,4.0648,0.6482,32676621,0,117.78,0.54802,0.54859,0.24952,0.12388,0.17462,0.090515,0.36612,4.63E-04,0,0,0,0,0.001462,0.028415,10.3,83.323,69.918,0.016752,NaN,18.718,875.29,342.64,0.05,0.44539,500.09
6.4737,1283,206.98,-16.655,217.94,16.952,373.5,0.078134,373.5,0.011986,68.261,3.1576,28.61,-80.596,9.7844,0.25781,-4.37E-06,7.7899,0.035917,15503,0,11.632,0.026689,190.27,147.31,4.1708,0.64586,32533079,0,116.63,0.54773,0.54784,0.24976,0.12374,0.17423,0.039129,0.1614,-4.03E-04,0,0,0,0,0.0021818,0.028307,10.3,83.323,69.559,0.016385,NaN,18.626,874.25,342.59,0.05,0.44966,495.82
6.5237,1293.3,206.14,-16.799,217.11,16.998,376.91,0.079481,376.91,0.012082,68.118,2.5941,28.61,-80.596,9.7844,0.045719,-4.27E-06,-8.1395,0.19854,15503,0,11.632,0.026689,191,147.31,4.2419,0.64377,32402661,0,115.67,0.54747,0.54748,0.24998,0.12361,0.17388,0.0068413,0.030942,-3.10E-04,0,0,0,0,-0.0023983,0.028199,10.3,83.323,69.156,0.016691,NaN,18.534,873.21,342.53,0.05,0.45275,491.58
6.5737,1303.6,205.3,-16.974,216.27,17.089,380.32,0.080834,380.32,0.012178,68.002,1.9745,28.61,-80.596,9.7844,0.38001,-4.46E-06,-7.4543,0.023545,15503,0,11.632,0.026689,189.82,147.31,4.1275,0.6415,32262867,0,114.7,0.54719,0.54743,0.25022,0.12348,0.1735,0.058116,0.2421,-3.46E-04,0,0,0,0,-0.0020264,0.028092,10.3,83.323,68.762,0.017677,NaN,18.443,872.18,342.48,0.05,0.45567,487.37
6.6237,1313.9,204.45,-17.148,215.43,17.203,383.71,0.082192,383.71,0.012273,67.919,1.3773,28.61,-80.596,9.7843,0.69258,-4.08E-06,-5.6307,0.013571,15503,0,11.632,0.026689,188.76,147.31,4.0247,0.63901,32112837,0,113.73,0.54689,0.54768,0.25047,0.12333,0.17308,0.10805,0.43605,2.43E-04,0,0,0,0,-0.0011656,0.027986,10.3,83.323,68.43,0.018993,NaN,18.352,871.15,342.42,0.05,0.45835,483.19
6.6737,1324.1,203.59,-17.281,214.6,17.304,387.11,0.08356,387.11,0.012368,67.862,0.87793,28.61,-80.596,9.7843,0.94576,-3.22E-06,-2.9666,0.010197,15503,0,11.632,0.026689,187.93,147.31,3.9441,0.63628,3.20E+07,0,112.7,0.54655,0.54802,0.25075,0.12317,0.17263,0.1499,0.59182,4.21E-05,0,0,0,0,-3.26E-04,0.02788,10.3,83.323,68.212,0.020425,NaN,18.262,870.13,342.37,0.05,0.46267,479.04
6.7237,1334.2,202.72,-17.32,213.77,17.33,390.5,0.084939,390.5,0.012463,67.827,0.58931,28.61,-80.596,9.7843,1.086,-3.18E-06,0.39739,0.011342,15503,0,11.632,0.026689,187.47,147.31,3.8997,0.63336,31779262,0,111.55,0.54619,0.54811,0.25105,0.123,0.17215,0.17359,0.67658,1.59E-04,0,0,0,0,5.91E-06,0.027774,10.3,83.323,68.146,0.021884,NaN,18.172,869.11,342.31,0.05,0.46583,474.92
6.7737,1344.3,201.86,-17.097,212.94,17.123,393.89,0.086331,393.89,0.012558,67.794,0.94504,28.61,-80.596,9.7842,0.90067,-2.89E-06,3.7561,0.012928,15503,0,11.632,0.026689,188.05,147.31,3.9551,0.6311,31641104,0,110.45,0.54592,0.54725,0.25128,0.12286,0.17178,0.14229,0.56202,5.72E-05,0,0,0,0,5.32E-04,0.02767,10.3,83.323,68.253,0.023259,NaN,18.082,868.09,342.26,0.05,0.46851,470.84
6.8237,1354.4,201.01,-16.736,212.11,16.818,397.28,0.087738,397.28,0.012654,67.728,1.6573,28.61,-80.596,9.7842,0.51533,-3.35E-06,5.9656,0.01946,15503,0,11.632,0.026689,189.29,147.31,4.0762,0.62913,31518095,0,109.41,0.5457,0.54614,0.25149,0.12275,0.17145,0.079428,0.32257,1.83E-04,0,0,0,0,0.0013516,0.027565,10.3,83.323,68.501,0.024293,NaN,17.993,867.08,342.2,0.05,0.47263,466.81
6.8737,1364.4,200.18,-16.432,211.3,16.582,400.66,0.089162,400.66,0.01275,67.629,2.2259,28.61,-80.596,9.7842,0.1791,-3.52E-06,7.0297,0.051733,15503,0,11.632,0.026689,190.43,147.31,4.1865,0.62666,3.14E+07,0,108.3,0.54541,0.54546,0.25175,0.12261,0.17105,0.027001,0.11152,3.00E-04,0,0,0,0,0.0018921,0.027461,10.3,83.323,68.83,0.02485,NaN,17.904,866.07,342.15,0.05,0.47556,462.82
