# Time (s),Altitude (m),Vertical velocity (m/s),Vertical acceleration (m/s²),Total velocity (m/s),Total acceleration (m/s²),Position East of launch (m),Position North of launch (m),Lateral distance (m),Lateral direction (°),Lateral velocity (m/s),Lateral acceleration (m/s²),Latitude (°),Longitude (°),Gravitational acceleration (m/s²),Angle of attack (°),Roll rate (°/s),Pitch rate (°/s),Yaw rate (°/s),Mass (g),Propellant mass (g),Longitudinal moment of inertia (kg·m²),Rotational moment of inertia (kg·m²),CP location (cm),CG location (cm),Stability margin calibers (?),Mach number (?),Reynolds number (?),Thrust (N),Drag force (N),Drag coefficient (?),Axial drag coefficient (?),Friction drag coefficient (?),Pressure drag coefficient (?),Base drag coefficient (?),Normal force coefficient (?),Pitch moment coefficient (?),Yaw moment coefficient (?),Side force coefficient (?),Roll moment coefficient (?),Roll forcing coefficient (?),Roll damping coefficient (?),Pitch damping coefficient (?),Coriolis acceleration (m/s²),Reference length (cm),Reference area (cm²),Vertical orientation (zenith) (°),Lateral orientation (azimuth) (°),Wind velocity (m/s),Air temperature (°C),Air pressure (mbar),Speed of sound (m/s),Simulation time step (s),Computation time (s),Dynamic Pressure (mbar)
0,0,0,25.393,0,25.393,0,0,0,0,0,0,28.61,-80.6,9.7884,0,0,0,0,18166,2663.3,13.153,0.028562,NaN,158.95,NaN,0,0,639.11,0,1.8216,1.8216,1.5969,0.10474,0.12,NaN,NaN,NaN,NaN,NaN,NaN,NaN,NaN,0,10.3,83.323,90,0,NaN,23.957,2.8407,345.82,0.01,0.016197,0
0.01,0.0012697,0.25393,93.967,0.25393,93.967,0,0,0,0,0,0,28.61,-80.6,9.7884,0,0,0,0,18166,2663.3,13.153,0.028562,NaN,158.95,NaN,7.34E-04,117.43,1884.8,1.63E-06,1.8216,1.8216,1.5969,0.10474,0.12,NaN,NaN,NaN,NaN,NaN,NaN,NaN,NaN,3.25E-05,10.3,83.323,90,0,NaN,23.957,2.8407,345.82,0.01,0.028825,2.15E-06
0.02,0.0085085,1.1939,103.88,1.1939,103.88,0,0,0,0,0,0,28.61,-80.6,9.7884,0,0,0,0,18160,2657.3,13.15,0.028558,NaN,158.93,NaN,0.0034524,552.12,2064.3,3.60E-05,1.8216,1.8216,1.5969,0.10474,0.12,NaN,NaN,NaN,NaN,NaN,NaN,NaN,NaN,1.53E-04,10.3,83.323,90,0,NaN,23.957,2.8407,345.82,0.01,0.031722,4.75E-05
0.03,0.025643,2.2332,97.967,2.2332,97.967,0,0,0,0,0,0,28.61,-80.6,9.7884,0,0,0,0,18152,2649.1,13.146,0.028552,NaN,158.9,NaN,0.0064576,1032.7,1956,1.26E-04,1.8216,1.8216,1.5969,0.10474,0.12001,NaN,NaN,NaN,NaN,NaN,NaN,NaN,NaN,2.86E-04,10.3,83.323,90,0,NaN,23.957,2.8407,345.82,0.01,0.035379,1.66E-04
0.04,0.052875,3.2133,98.269,3.2133,98.269,0,0,0,0,0,0,28.61,-80.6,9.7884,0,0,0,0,18142,2639.4,13.141,0.028545,NaN,158.87,NaN,0.0092919,1486,1960.4,2.61E-04,1.8216,1.8216,1.5969,0.10474,0.12001,NaN,NaN,NaN,NaN,NaN,NaN,NaN,NaN,4.11E-04,10.3,83.323,90,0,NaN,23.956,2.8407,345.82,0.01,0.038925,3.44E-04
0.05,0.089923,4.1965,98.569,4.1965,98.569,0,0,0,0,0,0,28.61,-80.6,9.7884,0,0,0,0,18133,2629.9,13.137,0.028538,NaN,158.83,NaN,0.012135,1940.7,1964.8,4.45E-04,1.8216,1.8216,1.5969,0.10475,0.12002,NaN,NaN,NaN,NaN,NaN,NaN,NaN,NaN,5.37E-04,10.3,83.323,90,0,NaN,23.956,2.8407,345.82,0.01,0.041988,5.87E-04
0.06,0.13682,5.1826,98.869,5.1826,98.869,0,0,0,0,0,0,28.61,-80.6,9.7884,0,0,0,0,18123,2620.4,13.132,0.028532,NaN,158.79,NaN,0.014987,2396.8,1969.2,6.79E-04,1.8216,1.8216,1.5969,0.10475,0.12003,NaN,NaN,NaN,NaN,NaN,NaN,NaN,NaN,6.64E-04,10.3,83.323,90,0,NaN,23.956,2.8407,345.82,0.01,0.044274,8.95E-04
0.07,0.19359,6.1718,99.17,6.1718,99.17,0,0,0,0,0,0,28.61,-80.6,9.7884,0,0,0,0,18114,2611,13.127,0.028525,NaN,158.76,NaN,0.017847,2854.2,1973.6,9.63E-04,1.8216,1.8216,1.5969,0.10475,0.12004,NaN,NaN,NaN,NaN,NaN,NaN,NaN,NaN,7.90E-04,10.3,83.323,90,0,NaN,23.956,2.8407,345.82,0.01,0.046316,0.0012687
0.08,0.26027,7.164,99.471,7.164,99.471,0,0,0,0,0,0,28.61,-80.6,9.7884,0,0,0,0,18104,2601.5,13.123,0.028518,NaN,158.72,NaN,0.020716,3313,1978,0.0012973,1.8216,1.8216,1.5968,0.10476,0.12006,NaN,NaN,NaN,NaN,NaN,NaN,NaN,NaN,9.17E-04,10.3,83.323,90,0,NaN,23.956,2.8407,345.82,0.01,0.048762,0.0017095
0.09,0.33688,8.1591,99.772,8.1591,99.772,0,0,0,0,0,0,28.61,-80.6,9.7884,0,0,0,0,18095,2592.1,13.118,0.028512,NaN,158.69,NaN,0.023594,3773.2,1982.5,0.0016828,1.8216,1.8216,1.5968,0.10476,0.12007,NaN,NaN,NaN,NaN,NaN,NaN,NaN,NaN,0.0010447,10.3,83.323,90,0,NaN,23.955,2.8407,345.82,0.01,0.050885,0.0022174
0.1,0.42346,9.1573,100.07,9.1573,100.07,0,0,0,0,0,0,28.61,-80.6,9.7884,0,0,0,0,18085,2582.6,13.113,0.028505,NaN,158.65,NaN,0.02648,4234.9,1986.9,0.0021197,1.8217,1.8217,1.5968,0.10477,0.12009,NaN,NaN,NaN,NaN,NaN,NaN,NaN,NaN,0.0011725,10.3,83.323,90,0,NaN,23.955,2.8406,345.82,0.01,0.052924,0.0027931
0.11,0.52004,10.159,100.38,10.159,100.38,0,0,0,0,0,0,28.61,-80.6,9.7884,0,0,0,0,18076,2573.2,13.109,0.028499,NaN,158.62,NaN,0.029376,4697.9,1991.3,0.0026086,1.8217,1.8217,1.5968,0.10478,0.12011,NaN,NaN,NaN,NaN,NaN,NaN,NaN,NaN,0.0013006,10.3,83.323,90,0,NaN,23.954,2.8406,345.82,0.01,0.054937,0.0034372
0.12,0.62665,11.163,100.68,11.163,100.68,0,0,0,0,0,0,28.61,-80.6,9.7884,0,0,0,0,18066,2563.7,13.104,0.028492,NaN,158.58,NaN,0.03228,5162.3,1995.7,0.0031498,1.8217,1.8217,1.5967,0.10479,0.12014,NaN,NaN,NaN,NaN,NaN,NaN,NaN,NaN,0.0014292,10.3,83.323,90,0,NaN,23.954,2.8406,345.82,0.01,0.056993,0.0041504
0.13,0.74331,12.17,100.98,12.17,100.98,0,0,0,0,0,0,28.61,-80.6,9.7884,0,0,0,0,18057,2554.3,13.099,0.028485,NaN,158.55,NaN,0.035192,5628,2000.1,0.0037439,1.8217,1.8217,1.5967,0.10479,0.12016,NaN,NaN,NaN,NaN,NaN,NaN,NaN,NaN,0.0015582,10.3,83.323,90,0,NaN,23.954,2.8406,345.81,0.01,0.05905,0.0049332
0.14,0.87006,13.18,101.28,13.18,101.28,0,0,0,0,0,0,28.61,-80.6,9.7884,0,0,0,0,18047,2544.8,13.094,0.028479,NaN,158.51,NaN,0.038114,6095.2,2004.6,0.0043913,1.8217,1.8217,1.5967,0.1048,0.12019,NaN,NaN,NaN,NaN,NaN,NaN,NaN,NaN,0.0016875,10.3,83.323,90,0,NaN,23.953,2.8406,345.81,0.01,0.061378,0.0057862
0.15,1.0069,14.194,101.56,14.194,101.56,0,0,0,0,0,0,28.61,-80.6,9.7884,0,0,0,0,18038,2535.4,13.09,0.028472,NaN,158.47,NaN,0.041044,6563.8,2008.6,0.0050924,1.8217,1.8217,1.5966,0.10481,0.12022,NaN,NaN,NaN,NaN,NaN,NaN,NaN,NaN,0.0018173,10.3,83.323,90,0,NaN,23.952,2.8405,345.81,0.01,0.063675,0.0067101
0.16,1.154,15.21,101.71,15.21,101.71,0,0,0,0,0,0,28.61,-80.6,9.7884,0,0,0,0,18028,2525.8,13.085,0.028465,NaN,158.44,NaN,0.043983,7033.7,2010.2,0.0058476,1.8217,1.8217,1.5966,0.10483,0.12025,NaN,NaN,NaN,NaN,NaN,NaN,NaN,NaN,0.0019474,10.3,83.323,90,0,NaN,23.952,2.8405,345.81,0.01,0.066141,0.0077051
0.17,1.3111,16.227,101.84,16.227,101.84,0,0,0,0,0,0,28.61,-80.6,9.7884,0,0,0,0,18019,2516.1,13.08,0.028458,NaN,158.4,NaN,0.046925,7504.2,2011.3,0.0066562,1.8217,1.8217,1.5965,0.10484,0.12029,NaN,NaN,NaN,NaN,NaN,NaN,NaN,NaN,0.0020777,10.3,83.323,90,0,NaN,23.951,2.8405,345.81,0.01,0.068366,0.0087706
0.18,1.4785,17.246,101.96,17.246,101.96,0,0,0,0,0,0,28.61,-80.6,9.7884,0,0,0,0,18009,2506.2,13.075,0.028451,NaN,158.36,NaN,0.049872,7975.3,2012.5,0.0075183,1.8217,1.8217,1.5965,0.10485,0.12032,NaN,NaN,NaN,NaN,NaN,NaN,NaN,NaN,0.0022081,10.3,83.323,90,0,NaN,23.95,2.8405,345.81,0.01,0.070521,0.0099064
0.19,1.6561,18.266,102.09,18.266,102.09,0,0,0,0,0,0,28.61,-80.6,9.7884,0,0,0,0,17999,2496.3,13.07,0.028445,NaN,158.33,NaN,0.052822,8447,2013.7,0.008434,1.8217,1.8217,1.5965,0.10486,0.12036,NaN,NaN,NaN,NaN,NaN,NaN,NaN,NaN,0.0023387,10.3,83.323,90,0,NaN,23.95,2.8404,345.81,0.01,0.0727,0.011113
0.2,1.8438,19.288,102.21,19.288,102.21,0,0,0,0,0,0,28.61,-80.6,9.7884,0,0,0,0,17989,2486.5,13.065,0.028438,NaN,158.29,NaN,0.055775,8919.3,2014.8,0.0094035,1.8217,1.8217,1.5964,0.10488,0.1204,NaN,NaN,NaN,NaN,NaN,NaN,NaN,NaN,0.0024695,10.3,83.323,90,0,NaN,23.949,2.8404,345.81,0.01,0.075667,0.01239
0.21,2.0418,20.31,102.34,20.31,102.34,0,0,0,0,0,0,28.61,-80.6,9.7884,0,0,0,0,17979,2476.6,13.06,0.028431,NaN,158.25,NaN,0.058733,9392.2,2016,0.010427,1.8217,1.8217,1.5964,0.10489,0.12045,NaN,NaN,NaN,NaN,NaN,NaN,NaN,NaN,0.0026004,10.3,83.323,90,0,NaN,23.948,2.8404,345.81,0.01,0.077888,0.013739
0.22,2.25,21.334,102.47,21.334,102.47,0,0,0,0,0,0,28.61,-80.6,9.7884,0,0,0,0,17969,2466.8,13.055,0.028424,NaN,158.21,NaN,0.061694,9865.6,2017.2,0.011505,1.8217,1.8217,1.5963,0.10491,0.12049,NaN,NaN,NaN,NaN,NaN,NaN,NaN,NaN,0.0027315,10.3,83.323,90,0,NaN,23.947,2.8403,345.81,0.01,0.080069,0.015159
0.23,2.4685,22.36,102.6,22.36,102.6,0,0,0,0,0,0,28.61,-80.6,9.7883,0,0,0,0,17960,2456.9,13.051,0.028417,NaN,158.18,NaN,0.064658,10340,2018.4,0.012515,1.8041,1.8041,1.5786,0.10493,0.12054,NaN,NaN,NaN,NaN,NaN,NaN,NaN,NaN,0.0028628,10.3,83.323,90,0,NaN,23.946,2.8403,345.81,0.01,0.12612,0.016651
0.24,2.6972,23.386,102.72,23.386,102.72,0,0,0,0,0,0,28.61,-80.6,9.7883,0,0,0,0,17950,2447.1,13.046,0.02841,NaN,158.14,NaN,0.067627,10814,2019.5,0.013498,1.7787,1.7787,1.5532,0.10494,0.12059,NaN,NaN,NaN,NaN,NaN,NaN,NaN,NaN,0.0029942,10.3,83.323,90,0,NaN,23.945,2.8403,345.81,0.01,0.1302,0.018215
0.25,2.9362,24.414,102.85,24.414,102.85,0,0,0,0,0,0,28.61,-80.6,9.7883,0,0,0,0,17940,2437.2,13.041,0.028403,NaN,158.1,NaN,0.070599,11289,2020.7,0.014513,1.755,1.755,1.5294,0.10496,0.12065,NaN,NaN,NaN,NaN,NaN,NaN,NaN,NaN,0.0031258,10.3,83.323,90,0,NaN,23.944,2.8402,345.81,0.01,0.13321,0.01985
0.26,3.1855,25.443,102.98,25.443,102.98,0,0,0,0,0,0,28.61,-80.6,9.7883,0,0,0,0,17930,2427.4,13.036,0.028396,NaN,158.06,NaN,0.073575,11765,2021.9,0.015562,1.7327,1.7327,1.507,0.10498,0.1207,NaN,NaN,NaN,NaN,NaN,NaN,NaN,NaN,0.0032576,10.3,83.323,90,0,NaN,23.943,2.8402,345.81,0.01,0.13538,0.021559
0.27,3.4451,26.473,103.1,26.473,103.1,0,0,0,0,0,0,28.61,-80.6,9.7883,0,0,0,0,17920,2417.5,13.031,0.028389,NaN,158.02,NaN,0.076554,12241,2023.1,0.016644,1.7117,1.7117,1.4859,0.105,0.12076,NaN,NaN,NaN,NaN,NaN,NaN,NaN,NaN,0.0033895,10.3,83.323,90,0,NaN,23.942,2.8401,345.81,0.01,0.13814,0.02334
0.28,3.715,27.505,103.23,27.505,103.23,0,0,0,0,0,0,28.61,-80.6,9.7883,0,0,0,0,17910,2407.6,13.026,0.028382,NaN,157.99,NaN,0.079537,12718,2024.2,0.017758,1.6919,1.6919,1.4661,0.10502,0.12082,NaN,NaN,NaN,NaN,NaN,NaN,NaN,NaN,0.0035215,10.3,83.323,90,0,NaN,23.941,2.8401,345.81,0.01,0.1406,0.025194
0.29,3.9952,28.537,103.36,28.537,103.36,0,0,0,0,0,0,28.61,-80.6,9.7883,0,0,0,0,17900,2397.8,13.021,0.028375,NaN,157.95,NaN,0.082524,13196,2025.4,0.018906,1.6732,1.6732,1.4473,0.10504,0.12089,NaN,NaN,NaN,NaN,NaN,NaN,NaN,NaN,0.0036538,10.3,83.323,90,0,NaN,23.94,2.84,345.81,0.01,0.14328,0.027121
0.3,4.2857,29.572,103.49,29.572,103.49,0,0,0,0,0,0,28.61,-80.6,9.7883,0,0,0,0,17891,2387.9,13.016,0.028368,NaN,157.91,NaN,0.085515,13674,2026.6,0.020085,1.6555,1.6555,1.4295,0.10507,0.12095,NaN,NaN,NaN,NaN,NaN,NaN,NaN,NaN,0.0037862,10.3,83.323,90,0,NaN,23.938,2.84,345.81,0.01,0.14555,0.029122
0.31,4.5866,30.607,103.62,30.607,103.62,0,0,0,0,0,0,28.61,-80.6,9.7883,0,0,0,0,17881,2378.1,13.011,0.028361,NaN,157.87,NaN,0.088509,14152,2027.8,0.021297,1.6387,1.6387,1.4126,0.10509,0.12102,NaN,NaN,NaN,NaN,NaN,NaN,NaN,NaN,0.0039188,10.3,83.323,90,0,NaN,23.937,2.8399,345.8,0.01,0.14767,0.031197
0.32,4.8979,31.644,103.74,31.644,103.74,0,0,0,0,0,0,28.61,-80.6,9.7883,0,0,0,0,17871,2368.2,13.006,0.028354,NaN,157.84,NaN,0.091507,14632,2028.9,0.022542,1.6227,1.6227,1.3965,0.10511,0.12109,NaN,NaN,NaN,NaN,NaN,NaN,NaN,NaN,0.0040515,10.3,83.323,90,0,NaN,23.936,2.8399,345.8,0.01,0.1503,0.033345
0.33,5.2195,32.682,103.87,32.682,103.87,0,0,0,0,0,0,28.61,-80.6,9.7883,0,0,0,0,17861,2358.4,13.001,0.028348,NaN,157.8,NaN,0.094509,15111,2030.1,0.023819,1.6074,1.6074,1.3811,0.10514,0.12116,NaN,NaN,NaN,NaN,NaN,NaN,NaN,NaN,0.0041844,10.3,83.323,90,0,NaN,23.934,2.8398,345.8,0.01,0.1529,0.035568
0.34,5.5515,33.721,104,33.721,104,0,0,0,0,0,0.0043174,28.61,-80.6,9.7883,0,0,0,0,17851,2348.5,12.996,0.028341,189.77,157.76,3.1075,0.097515,15592,2031.6,0.025128,1.5929,1.5929,1.3665,0.10516,0.12124,0,-3.03E-04,4.31E-04,0,0,0,0,0,0.0043174,10.3,83.323,90,0,NaN,23.933,2.8398,345.8,0.015,0.15563,0.037866
0.355,6.069,35.282,104.19,35.282,104.19,-4.93E-07,0,4.93E-07,-180,6.63E-05,0.0045173,28.61,-80.6,9.7883,1.08E-04,0,0,0,17839,2336.2,12.989,0.028332,189.77,157.71,3.1123,0.10203,16313,2033.8,0.027152,1.5723,1.5723,1.3457,0.1052,0.12135,1.57E-05,4.20E-04,1.85E-04,0,0,0,0,0,0.0045173,10.3,83.323,90,0,NaN,23.931,2.8397,345.8,0.0225,0.15803,0.041452
0.3775,6.8893,37.629,104.48,37.629,104.48,-3.15E-06,0,3.15E-06,-180,1.71E-04,0.0048178,28.61,-80.6,9.7883,2.61E-04,0,0,0,17820,2317.7,12.98,0.028319,189.77,157.64,3.1196,0.10882,17398,2037.1,0.030324,1.5438,1.5438,1.317,0.10527,0.12154,3.80E-05,-1.95E-04,-1.55E-04,0,0,0,0,0,0.0048178,10.3,83.323,90,0,NaN,23.927,2.8396,345.8,0.03375,0.16049,0.047149
0.41125,8.2189,41.161,104.92,41.161,104.92,-1.18E-05,0,1.18E-05,-180,3.42E-04,0.00527,28.61,-80.6,9.7883,4.75E-04,0,0,0,17793,2290,12.966,0.028299,189.78,157.53,3.1307,0.11903,19030,2042,0.035384,1.5056,1.5056,1.2784,0.10537,0.12184,6.92E-05,-4.06E-05,-3.67E-04,0,0,0,0,0,0.0052701,10.3,83.323,90,0,NaN,23.921,2.8393,345.8,0.05,0.16288,0.056413
0.46125,10.408,46.421,105.57,46.421,105.57,-3.57E-05,0,3.57E-05,-180,6.22E-04,0.0059433,28.61,-80.6,9.7883,7.68E-04,0,0,0,17751,2248.7,12.945,0.02827,189.79,157.37,3.1473,0.13425,21461,2047.9,0.043549,1.457,1.457,1.2291,0.10554,0.12234,1.12E-04,4.33E-04,-4.39E-04,0,0,0,0,0,0.0059435,10.3,83.323,90,0,NaN,23.912,2.839,345.79,0.05,0.1652,0.071744
0.51125,12.862,51.713,106.23,51.713,106.23,-7.45E-05,0,7.45E-05,-180,9.36E-04,0.0066207,28.61,-80.6,9.7883,0.001037,0,0,0,17702,2199.5,12.919,0.028236,189.8,157.18,3.1672,0.14955,23905,2053.7,0.052511,1.4158,1.4158,1.1872,0.10574,0.12291,1.51E-04,5.61E-04,-2.05E-04,0,0,0,0,0,0.0066211,10.3,83.323,90,0,NaN,23.901,2.8386,345.78,0.05,0.16741,0.089024
0.56125,15.58,57.038,106.88,57.038,106.88,-1.30E-04,0,1.30E-04,-180,0.001284,0.0073023,28.61,-80.6,9.7883,0.0012898,0,1.13E-06,0,17653,2150.2,12.894,0.028201,189.81,156.98,3.1874,0.16496,26364,2059.6,0.062272,1.3803,1.3803,1.1508,0.10596,0.12354,1.88E-04,5.23E-04,-6.87E-06,0,0,0,0,0,0.0073028,10.3,83.323,90,0,NaN,23.89,2.8381,345.78,0.05,0.1777,0.10829
0.61125,18.566,62.395,107.54,62.395,107.54,-2.03E-04,0,2.03E-04,-180,0.0016662,0.0079881,28.61,-80.6,9.7883,0.0015301,0,1.92E-06,0,17604,2100.9,12.868,0.028166,189.83,156.79,3.2078,0.18045,28838,2065.5,0.072835,1.3493,1.3493,1.1189,0.1062,0.12423,2.23E-04,9.77E-04,-1.88E-04,0,0,0,0,0,0.0079888,10.3,83.323,90,0,NaN,23.877,2.8376,345.77,0.05,0.17999,0.12957
0.66125,21.821,67.786,108.2,67.786,108.2,-2.97E-04,0,2.97E-04,-180,0.0020829,0.008678,28.61,-80.6,9.7883,0.0017606,0,2.60E-06,0,17554,2051.6,12.842,0.028132,189.85,156.59,3.2285,0.19605,31326,2071.3,0.084205,1.3219,1.3219,1.0904,0.10646,0.125,2.57E-04,8.29E-04,-3.70E-06,0,0,0,0,0,0.008679,10.3,83.323,90,0,NaN,23.863,2.8371,345.76,0.05,0.18216,0.1529
0.71125,25.345,73.21,108.87,73.21,108.87,-4.12E-04,0,4.12E-04,-180,0.0025341,0.0093722,28.61,-80.6,9.7883,0.0019833,0,4.07E-06,0,17505,2002.3,12.816,0.028097,189.86,156.4,3.2495,0.21174,33828,2077.2,0.096387,1.2974,1.2974,1.0648,0.10675,0.12583,2.89E-04,7.68E-04,-2.66E-04,0,0,0,0,0,0.0093734,10.3,83.323,90,0,NaN,23.848,2.8365,345.75,0.05,0.18431,0.17832
0.76125,29.142,78.667,109.54,78.667,109.54,-5.51E-04,0,5.51E-04,-180,0.0030202,0.010071,28.61,-80.6,9.7883,0.0021997,0,6.05E-06,0,17456,1953.1,12.79,0.028063,189.88,156.2,3.2707,0.22753,36346,2083.1,0.10939,1.2754,1.2754,1.0417,0.10706,0.12673,3.21E-04,0.0014346,1.93E-04,0,0,0,0,0,0.010072,10.3,83.323,90,0,NaN,23.832,2.8358,345.74,0.05,0.18656,0.20587
0.81125,33.213,84.159,110.22,84.159,110.22,-7.15E-04,-7.19E-09,7.15E-04,-180,0.0035413,0.010773,28.61,-80.6,9.7883,0.0024109,0,8.83E-06,2.89E-07,17406,1903.8,12.764,0.028028,189.91,156,3.2922,0.24342,38877,2089,0.12322,1.2556,1.2556,1.0205,0.10739,0.1277,3.52E-04,0.0013859,4.25E-04,0,0,0,0,0,0.010775,10.3,83.323,90,0,NaN,23.814,2.8351,345.73,0.05,0.19008,0.23556
0.86125,37.559,89.684,110.89,89.684,110.89,-9.06E-04,-1.00E-08,9.06E-04,-180,0.0040976,0.01148,28.61,-80.6,9.7882,0.0026178,0,1.15E-05,0,17357,1854.5,12.738,0.027993,189.93,155.8,3.314,0.25941,41424,2094.8,0.13789,1.2375,1.2375,1.001,0.10776,0.12875,3.82E-04,0.0012392,6.12E-05,0,0,0,0,0,0.011483,10.3,83.323,90,0,NaN,23.795,2.8344,345.72,0.05,0.19367,0.26746
0.91125,42.182,95.242,111.57,95.242,111.57,-0.0011253,-1.36E-08,0.0011253,-180,0.0046894,0.012191,28.61,-80.6,9.7882,0.002821,0,1.51E-05,0,17308,1805.2,12.711,0.027959,189.95,155.59,3.336,0.2755,43984,2100.7,0.1534,1.2209,1.2209,0.98293,0.10814,0.12987,4.12E-04,0.0016451,4.69E-04,0,0,0,0,0,0.012194,10.3,83.323,90,0,NaN,23.776,2.8336,345.71,0.05,0.19582,0.30158
0.96125,47.084,100.84,112.26,100.84,112.26,-0.0013753,-1.79E-08,0.0013753,-180,0.0053168,0.012907,28.61,-80.6,9.7882,0.0030211,0,2.03E-05,0,17259,1756,12.685,0.027924,189.98,155.39,3.3584,0.29169,46560,2106.6,0.16977,1.2058,1.2058,0.96616,0.10856,0.13106,4.42E-04,0.0019836,3.00E-04,0,0,0,0,0,0.01291,10.3,83.323,90,0,NaN,23.755,2.8328,345.69,0.05,0.19806,0.33797
1.0113,52.266,106.46,112.95,106.46,112.95,-0.0016576,-2.32E-08,0.0016576,-180,0.0059802,0.013627,28.61,-80.6,9.7882,0.0032184,0,2.58E-05,7.29E-07,17209,1706.7,12.658,0.027889,190.01,155.19,3.381,0.30798,49150,2112.4,0.18702,1.1918,1.1918,0.95048,0.109,0.13233,4.71E-04,0.001926,-3.93E-04,0,0,0,0,0,0.013631,10.3,83.323,90,0,NaN,23.732,2.8319,345.68,0.05,0.20039,0.37665
1.0613,57.731,112.13,113.64,112.13,113.64,-0.0019739,-2.95E-08,0.0019739,-180,0.0066796,0.014351,28.61,-80.6,9.7882,0.0034133,0,3.26E-05,1.77E-06,17160,1657.4,12.631,0.027855,190.04,154.98,3.4039,0.32437,51755,2118.3,0.20514,1.1789,1.1789,0.93576,0.10946,0.13368,5.00E-04,0.0012593,-4.54E-05,0,0,0,0,0,0.014356,10.3,83.323,90,0,NaN,23.709,2.831,345.67,0.05,0.20306,0.41768
1.1113,63.479,117.82,113.88,117.82,113.88,-0.0023261,-3.70E-08,0.0023261,-180,0.0074153,0.015079,28.61,-80.6,9.7882,0.003606,0,4.06E-05,1.41E-06,17111,1608.1,12.604,0.02782,190.07,154.77,3.4271,0.34087,54374,2116.2,0.22416,1.167,1.167,0.9219,0.10996,0.13511,5.28E-04,0.0016164,1.91E-04,0,0,0,0,0,0.015085,10.3,83.323,90,0,NaN,23.684,2.8301,345.65,0.05,0.20668,0.46108
1.1613,69.513,123.53,113.66,123.53,113.66,-0.0027161,-4.58E-08,0.0027161,-180,0.0081876,0.015809,28.61,-80.6,9.7881,0.0037975,0,4.95E-05,1.14E-06,17061,1558.6,12.577,0.027785,190.11,154.57,3.4508,0.3574,56997,2106.3,0.24402,1.1559,1.1559,0.90884,0.11048,0.13661,5.57E-04,0.0020068,-1.77E-04,0,0,0,0,0,0.015816,10.3,83.323,90,0,NaN,23.658,2.8291,345.64,0.05,0.21046,0.50671
1.2113,75.832,129.23,113.44,129.23,113.44,-0.0031455,-5.60E-08,0.0031455,-180,0.0089962,0.016538,28.61,-80.6,9.7881,0.0039886,0,5.93E-05,1.66E-06,17011,1508.8,12.549,0.02775,190.14,154.35,3.4748,0.37391,59613,2096.5,0.26462,1.1457,1.1457,0.89654,0.11103,0.13817,5.85E-04,0.0022927,1.53E-04,0,0,0,0,0,0.016546,10.3,83.323,90,0,NaN,23.631,2.828,345.62,0.05,0.21269,0.55437
1.2613,82.436,134.92,113.21,134.92,113.21,-0.0036163,-6.78E-08,0.0036163,-180,0.0098413,0.017265,28.61,-80.6,9.7881,0.0041794,0,7.11E-05,1.46E-06,16962,1459,12.521,0.027715,190.18,154.14,3.4991,0.39038,62223,2086.6,0.28597,1.1363,1.1363,0.88493,0.1116,0.13981,6.14E-04,0.0020035,-3.80E-04,0,0,0,0,0,0.017274,10.3,83.323,90,0,NaN,23.603,2.8269,345.6,0.05,0.21514,0.60406
1.3113,89.323,140.59,112.99,140.59,112.99,-0.0041302,-8.13E-08,0.0041302,-180,0.010723,0.01799,28.61,-80.6,9.7881,0.0043698,0,8.54E-05,1.83E-06,16912,1409.1,12.493,0.02768,190.22,153.93,3.5236,0.40682,64826,2076.7,0.30806,1.1276,1.1276,0.87392,0.11219,0.14152,6.42E-04,0.0021362,1.43E-06,0,0,0,0,0,0.018001,10.3,83.323,90,0,NaN,23.573,2.8257,345.58,0.05,0.21764,0.65575
1.3613,96.494,146.26,112.77,146.26,112.77,-0.0046892,-9.67E-08,0.0046892,-180,0.01164,0.018714,28.61,-80.6,9.7881,0.0045601,0,9.88E-05,1.06E-06,16862,1359.3,12.465,0.027645,190.26,153.71,3.5485,0.42324,67421,2066.9,0.33089,1.1195,1.1195,0.86345,0.11281,0.14329,6.71E-04,0.002834,4.21E-04,0,0,0,0,0,0.018726,10.3,83.323,90,0,NaN,23.542,2.8245,345.57,0.05,0.22035,0.70943
1.4113,103.95,151.91,112.54,151.91,112.54,-0.0052949,-1.14E-07,0.0052949,-180,0.012594,0.019436,28.61,-80.6,9.788,0.0047501,0,1.16E-04,0,16812,1309.5,12.437,0.02761,190.3,153.5,3.5737,0.43962,70010,2056.9,0.35446,1.1121,1.1121,0.85348,0.11345,0.14512,6.99E-04,0.0020876,3.28E-04,0,0,0,0,0,0.01945,10.3,83.323,90,0,NaN,23.51,2.8233,345.55,0.05,0.22296,0.76508
1.4613,111.68,157.55,112.13,157.55,112.13,-0.0059492,-1.34E-07,0.0059492,-180,0.013584,0.020157,28.61,-80.6,9.788,0.00494,0,1.37E-04,0,16763,1259.9,12.409,0.027575,190.35,153.28,3.599,0.45598,72591,2044,0.37876,1.1051,1.1051,0.84395,0.11412,0.14703,7.28E-04,0.002855,-1.31E-04,0,0,0,0,0,0.020172,10.3,83.323,90,0,NaN,23.477,2.822,345.53,0.05,0.22642,0.82268
1.5113,119.7,163.17,111.61,163.17,111.61,-0.0066539,-1.56E-07,0.0066539,-180,0.01461,0.020875,28.61,-80.6,9.788,0.00513,0,1.61E-04,3.88E-07,16714,1211.2,12.381,0.027541,190.39,153.06,3.6243,0.47227,75161,2029.5,0.40375,1.0986,1.0986,0.83484,0.11481,0.149,7.57E-04,0.0022429,3.43E-04,0,0,0,0,0,0.020892,10.3,83.323,90,0,NaN,23.443,2.8206,345.51,0.05,0.22865,0.88211
1.5613,128,168.77,111.09,168.77,111.09,-0.0074107,-1.80E-07,0.0074107,-180,0.015671,0.02159,28.61,-80.6,9.788,0.0053203,0,1.85E-04,-8.33E-07,16666,1163.4,12.353,0.027507,190.44,152.85,3.6494,0.4885,77717,2015.1,0.4294,1.0927,1.0927,0.82612,0.11552,0.15102,7.85E-04,0.0026458,-3.49E-04,0,0,0,0,0,0.021608,10.3,83.323,90,0,NaN,23.407,2.8192,345.48,0.05,0.2314,0.94329
1.6113,136.58,174.34,110.57,174.34,110.57,-0.0082216,-2.08E-07,0.0082216,-180,0.016768,0.022301,28.61,-80.6,9.7879,0.005511,0,2.14E-04,-9.76E-07,16618,1115.5,12.325,0.027474,190.49,152.64,3.6749,0.50465,80258,2000.6,0.4557,1.0871,1.0871,0.81776,0.11625,0.15311,8.14E-04,0.0029861,-7.62E-05,0,0,0,0,0,0.022321,10.3,83.323,90,0,NaN,23.37,2.8178,345.46,0.05,0.23371,1.0062
1.6613,145.43,179.88,110.05,179.88,110.05,-0.0090882,-2.38E-07,0.0090882,-180,0.017901,0.023008,28.61,-80.6,9.7879,0.0057019,0,2.48E-04,-1.16E-06,16570,1067.6,12.297,0.02744,190.55,152.43,3.7009,0.52073,82786,1986.2,0.48266,1.082,1.082,0.80972,0.11701,0.15525,8.43E-04,0.0034496,-2.49E-04,0,0,0,0,0,0.023031,10.3,83.323,90,0,NaN,23.332,2.8163,345.44,0.05,0.24523,1.0708
1.7113,154.57,185.4,109.52,185.4,109.52,-0.010012,-2.71E-07,0.010012,-180,0.019069,0.023712,28.61,-80.6,9.7879,0.0058932,0,2.82E-04,-3.94E-06,16522,1019.7,12.269,0.027406,190.61,152.21,3.7276,0.53674,85298,1971.7,0.51025,1.0772,1.0772,0.80198,0.11778,0.15745,8.73E-04,0.0033617,-3.14E-04,0,0,0,0,0,0.023737,10.3,83.323,90,0,NaN,23.293,2.8148,345.41,0.05,0.24754,1.137
1.7613,163.97,190.89,108.97,190.89,108.97,-0.010996,-3.08E-07,0.010996,-180,0.020272,0.024413,28.61,-80.6,9.7879,0.0060849,0,3.20E-04,-5.64E-06,16475,971.88,12.241,0.027373,190.67,151.99,3.7549,0.55267,87797,1957,0.53847,1.0728,1.0728,0.79451,0.11858,0.15971,9.02E-04,0.0030991,-3.84E-05,0,0,0,0,0,0.02444,10.3,83.323,90,0,NaN,23.253,2.8132,345.39,0.05,0.25075,1.2048
1.8113,173.65,196.35,108.34,196.35,108.34,-0.01204,-3.48E-07,0.01204,-180,0.02151,0.025109,28.61,-80.6,9.7878,0.0062768,0,3.61E-04,-4.99E-06,16428,925.26,12.213,0.02734,190.74,151.78,3.7823,0.56853,90280,1941.1,0.56732,1.0687,1.0687,0.78731,0.1194,0.16202,9.31E-04,0.00318,-4.27E-04,0,0,0,0,0,0.02514,10.3,83.323,90,0,NaN,23.211,2.8116,345.36,0.05,0.2645,1.2742
1.8613,183.61,201.78,107.68,201.78,107.68,-0.013147,-3.92E-07,0.013147,-180,0.022783,0.025802,28.61,-80.6,9.7878,0.0064693,0,4.07E-04,-2.15E-06,16383,880.79,12.187,0.027309,190.81,151.58,3.8093,0.58429,92745,1925.2,0.59675,1.065,1.065,0.78034,0.12024,0.16438,9.61E-04,0.0039295,1.77E-04,0,0,0,0,0,0.025835,10.3,83.323,90,0,NaN,23.168,2.8099,345.34,0.05,0.26707,1.345
1.9113,193.83,207.18,107.02,207.18,107.02,-0.014319,-4.40E-07,0.014319,-180,0.02409,0.02649,28.61,-80.6,9.7878,0.0066623,0,4.62E-04,-4.77E-06,16340,837.2,12.161,0.027278,190.89,151.38,3.8364,0.59997,95193,1909.2,0.62676,1.0615,1.0615,0.7736,0.12109,0.1668,9.91E-04,0.0033641,4.64E-04,0,0,0,0,0,0.026526,10.3,83.323,90,0,NaN,23.124,2.8082,345.31,0.05,0.26942,1.4173
1.9613,204.32,212.54,106.35,212.54,106.35,-0.015557,-4.92E-07,0.015557,-180,0.025432,0.027174,28.61,-80.6,9.7877,0.0068559,0,5.18E-04,-6.76E-06,16296,793.62,12.134,0.027247,190.98,151.18,3.864,0.61555,97623,1893.3,0.65734,1.0583,1.0583,0.76707,0.12197,0.16926,0.001021,0.0041869,-5.62E-05,0,0,0,0,0,0.027213,10.3,83.323,90,0,NaN,23.079,2.8064,345.29,0.05,0.27828,1.4909
2.0113,215.08,217.87,105.68,217.87,105.68,-0.016863,-5.48E-07,0.016863,-180,0.026808,0.027853,28.61,-80.6,9.7877,0.0070499,0,5.83E-04,-3.08E-06,16253,750.03,12.108,0.027217,191.06,150.97,3.8921,0.63104,100035,1877.3,0.68847,1.0554,1.0554,0.76073,0.12286,0.17177,0.0010511,0.004042,3.05E-04,0,0,0,0,0,0.027895,10.3,83.323,90,0,NaN,23.033,2.8046,345.26,0.05,0.28033,1.5659
2.0613,226.11,223.17,105,223.17,105,-0.018238,-6.10E-07,0.018238,-180,0.028217,0.028528,28.61,-80.6,9.7877,0.0072444,0,6.54E-04,-6.88E-06,16209,706.44,12.082,0.027186,191.15,150.77,3.9207,0.64643,102429,1861.3,0.72016,1.0527,1.0527,0.75458,0.12377,0.17432,0.0010815,0.0044206,-2.08E-04,0,0,0,0,0,0.028573,10.3,83.323,90,0,NaN,22.986,2.8028,345.23,0.05,0.28305,1.6421
2.1113,237.4,228.43,104.32,228.43,104.32,-0.019685,-6.76E-07,0.019685,-180,0.02966,0.029198,28.61,-80.6,9.7876,0.0074395,0,7.29E-04,-1.07E-05,16166,662.86,12.055,0.027155,191.25,150.57,3.9497,0.66174,104805,1845.4,0.75238,1.0502,1.0502,0.7486,0.1247,0.17693,0.0011121,0.0048644,2.56E-04,0,0,0,0,0,0.029247,10.3,83.323,90,0,NaN,22.937,2.8009,345.2,0.05,0.28519,1.7196
2.1613,248.95,233.66,103.64,233.66,103.64,-0.021205,-7.47E-07,0.021205,-180,0.031137,0.029863,28.61,-80.6,9.7876,0.0076351,0,8.10E-04,-1.13E-05,16122,619.27,12.028,0.027125,191.34,150.36,3.9791,0.67694,107162,1829.4,0.78514,1.048,1.048,0.74278,0.12565,0.17957,0.0011428,0.0043599,-1.73E-04,0,0,0,0,0,0.029917,10.3,83.323,90,0,NaN,22.888,2.7989,345.17,0.05,0.28663,1.7983
2.2113,260.76,238.85,102.95,238.85,102.95,-0.022799,-8.24E-07,0.022799,-180,0.032647,0.030525,28.61,-80.6,9.7876,0.0078312,0,8.91E-04,-1.02E-05,16078,575.69,12.001,0.027094,191.44,150.15,4.0089,0.69207,109488,1813.4,0.81831,1.046,1.046,0.73713,0.12662,0.18227,0.0011737,0.0050682,3.59E-04,0,0,0,0,0,0.030582,10.3,83.323,90,0,NaN,22.822,2.7964,345.13,0.05,0.28846,1.8778
2.2613,272.84,244.01,102.26,244.01,102.26,-0.02447,-9.06E-07,0.02447,-180,0.034189,0.031181,28.61,-80.6,9.7875,0.0080278,0,9.81E-04,-1.32E-05,16035,532.1,11.974,0.027063,191.55,149.94,4.0391,0.70715,111770,1797.5,0.85176,1.0443,1.0443,0.73165,0.1276,0.18501,0.0012048,0.0047855,9.63E-05,0,0,0,0,0,0.031242,10.3,83.323,90,0,NaN,22.721,2.7926,345.07,0.05,0.29192,1.9578
2.3113,285.17,249.14,101.56,249.14,101.56,-0.026219,-9.95E-07,0.026219,-180,0.035764,0.031833,28.61,-80.6,9.7875,0.0082249,0,0.0010866,-1.31E-05,15991,488.52,11.947,0.027033,191.65,149.73,4.0696,0.72213,114030,1781.5,0.88567,1.0427,1.0427,0.72631,0.1286,0.18779,0.0012362,0.0047777,2.23E-04,0,0,0,0,0,0.031899,10.3,83.323,90,0,NaN,22.618,2.7887,345.01,0.05,0.29357,2.0388
2.3612,297.75,254.23,100.86,254.23,100.86,-0.028047,-1.09E-06,0.028047,-180,0.037372,0.03248,28.61,-80.6,9.7874,0.0084226,0,0.001196,-1.44E-05,15948,444.93,11.92,0.027002,191.76,149.52,4.1006,0.73702,116268,1765.5,0.92003,1.0413,1.0413,0.7211,0.12962,0.19062,0.0012677,0.0048855,2.25E-04,0,0,0,0,0,0.03255,10.3,83.323,90,0,NaN,22.513,2.7847,344.94,0.05,0.29602,2.1207
2.4112,310.59,259.29,100.16,259.29,100.16,-0.029956,-1.19E-06,0.029956,-180,0.039013,0.033243,28.61,-80.6,9.7874,0.0085584,0,0.0013079,-1.08E-05,15904,401.35,11.892,0.026971,191.87,149.31,4.1319,0.75182,118485,1749.6,0.95484,1.0401,1.0401,0.71601,0.13066,0.19348,0.00129,0.0050036,2.38E-04,0,0,0,0,0,0.033198,10.3,83.323,90,-179.38,NaN,22.406,2.7807,344.88,0.05,0.29906,2.2035
2.4612,323.68,264.31,99.453,264.31,99.454,-0.031949,-1.30E-06,0.031949,-180,0.040693,0.034012,28.61,-80.6,9.7874,0.0086901,0,0.0014373,-1.09E-05,15860,357.76,11.865,0.026941,191.98,149.1,4.1635,0.76653,120680,1733.6,0.99009,1.0391,1.0391,0.71103,0.13171,0.19638,0.0013118,0.0055202,-1.82E-04,0,0,0,0,0,0.03384,10.3,83.323,90,-179.46,NaN,22.296,2.7765,344.81,0.05,0.3028,2.2871
2.5112,337.02,269.29,98.743,269.29,98.743,-0.034026,-1.42E-06,0.034026,-180,0.04241,0.034786,28.61,-80.6,9.7873,0.0088171,0,0.001572,-1.46E-05,15817,314.17,11.837,0.02691,192.1,148.89,4.1954,0.78114,122853,1717.6,1.0258,1.0382,1.0382,0.70615,0.13278,0.19932,0.001333,0.0059873,-2.08E-04,0,0,0,0,0,0.034479,10.3,83.323,90,-179.48,NaN,22.185,2.7723,344.74,0.05,0.31355,2.3715
2.5612,350.61,274.24,98.016,274.24,98.016,-0.036191,-1.56E-06,0.036191,-180,0.044167,0.035568,28.61,-80.6,9.7873,0.0089388,0,0.0017217,-1.05E-05,15773,270.59,11.809,0.02688,192.21,148.67,4.2276,0.79565,125003,1701.5,1.0618,1.0375,1.0375,0.70138,0.13386,0.2023,0.0013535,0.0052831,1.34E-04,0,0,0,0,0,0.035112,10.3,83.323,90,-179.52,NaN,22.071,2.768,344.67,0.05,0.31641,2.4566
2.6112,364.44,279.15,94.012,279.15,94.012,-0.038444,-1.72E-06,0.038444,-180,0.045962,0.036335,28.61,-80.6,9.7872,0.0090552,0,0.0018713,-1.63E-05,15730,227.16,11.781,0.026849,192.33,148.46,4.26,0.81007,127131,1633.8,1.0983,1.037,1.037,0.6967,0.13495,0.20531,0.0013732,0.0062317,2.48E-05,0,0,0,0,0,0.035741,10.3,83.323,90,-179.54,NaN,21.956,2.7636,344.6,0.05,0.31928,2.5423
2.6612,378.52,283.87,86.23,283.87,86.23,-0.040787,-1.89E-06,0.040787,-180,0.047795,0.037045,28.61,-80.6,9.7872,0.009171,0,0.0020358,-2.63E-05,15689,186.2,11.754,0.02682,192.45,148.25,4.2911,0.82392,129162,1507.5,1.1339,1.0366,1.0366,0.69228,0.13603,0.20825,0.0013929,0.0061093,-4.67E-04,0,0,0,0,0,0.036345,10.3,83.323,90,-179.51,NaN,21.838,2.7592,344.53,0.05,0.32752,2.6257
2.7112,392.82,288.19,74.744,288.19,74.744,-0.043224,-2.10E-06,0.043224,-180,0.049663,0.037655,28.61,-80.6,9.7872,0.0092917,0,0.0022049,-2.75E-05,15657,153.99,11.733,0.026798,192.56,148.09,4.3173,0.83663,131008,1324.6,1.1669,1.0363,1.0363,0.68828,0.13703,0.21099,0.0014133,0.0056775,-4.11E-04,0,0,0,0,0,0.036898,10.3,83.323,89.999,-179.48,NaN,21.719,2.7547,344.46,0.05,0.33002,2.7029
2.7612,407.32,291.93,62.917,291.93,62.917,-0.045754,-2.33E-06,0.045754,-180,0.051559,0.038155,28.61,-80.6,9.7871,0.0094226,0,0.0023845,-2.49E-05,15634,131.2,11.719,0.026782,192.65,147.97,4.3377,0.84767,132586,1137.8,1.1958,1.0362,1.0362,0.68486,0.13792,0.21341,0.0014351,0.006652,1.81E-04,0,0,0,0,0,0.037377,10.3,83.323,89.999,-179.47,NaN,21.598,2.7501,344.39,0.05,0.33371,2.7701
2.8112,421.99,295.08,51.043,295.08,51.043,-0.04838,-2.59E-06,0.04838,-180,0.05348,0.038541,28.61,-80.6,9.7871,0.0095638,0,0.0025725,-2.50E-05,15614,111.38,11.706,0.026768,192.73,147.87,4.3554,0.857,133891,951.02,1.2202,1.0362,1.0362,0.68203,0.13867,0.21548,0.0014582,0.0067337,-6.21E-05,0,0,0,0,0,0.03778,10.3,83.323,89.999,-179.47,NaN,21.475,2.7455,344.31,0.05,0.33622,2.8266
2.8612,436.81,297.63,39.14,297.63,39.14,-0.051102,-2.88E-06,0.051102,-180,0.055419,0.038808,28.61,-80.6,9.787,0.0097146,0,0.002757,-2.18E-05,15594,91.567,11.693,0.026754,192.8,147.77,4.3716,0.86461,134922,764.21,1.2399,1.0363,1.0363,0.67977,0.1393,0.21718,0.0014825,0.006601,-4.59E-04,0,0,0,0,0,0.038107,10.3,83.323,89.999,-179.48,NaN,21.351,2.7408,344.24,0.05,0.33968,2.872
2.9112,451.74,299.59,27.206,299.59,27.206,-0.053922,-3.20E-06,0.053922,-180,0.057369,0.038949,28.61,-80.6,9.787,0.009875,0,0.0029527,-1.69E-05,15574,71.749,11.68,0.02674,192.85,147.67,4.3865,0.8705,135680,577.4,1.2548,1.0364,1.0364,0.67808,0.13979,0.21851,0.0015081,0.0065171,-3.73E-04,0,0,0,0,0,0.038358,10.3,83.323,89.999,-179.51,NaN,21.227,2.7361,344.16,0.05,0.34356,2.9062
2.9612,466.76,300.95,15.242,300.95,15.243,-0.056839,-3.55E-06,0.056839,-180,0.059323,0.038958,28.61,-80.6,9.7869,0.010045,0,0.0031523,-1.33E-05,15555,51.931,11.667,0.026726,192.89,147.57,4.3998,0.87465,136165,390.59,1.2648,1.0365,1.0365,0.67695,0.14013,0.21945,0.0015348,0.0064415,1.18E-04,0,0,0,0,0,0.038533,10.3,83.323,89.999,-179.54,NaN,21.101,2.7313,344.09,0.05,0.3462,2.9289
3.0112,481.82,301.72,3.2514,301.72,3.2516,-0.059854,-3.93E-06,0.059854,-180,0.061275,0.038829,28.61,-80.6,9.7869,0.010224,0,0.00336,-1.16E-05,15535,32.113,11.654,0.026712,192.91,147.47,4.4117,0.87706,136377,203.82,1.2698,1.0367,1.0367,0.67638,0.14034,0.22,0.0015627,0.0067887,1.41E-04,0,0,0,0,0,0.03863,10.3,83.323,89.999,-179.57,NaN,20.975,2.7266,344.01,0.05,0.3487,2.9399
3.0612,496.91,301.88,-4.3077,301.88,4.3079,-0.062967,-4.32E-06,0.062967,-180,0.063218,0.038677,28.61,-80.6,9.7868,0.010413,0,0.0035734,-1.85E-05,15515,12.526,11.641,0.026698,192.92,147.37,4.4219,0.87773,136317,86.279,1.2697,1.0369,1.0369,0.67637,0.14039,0.22015,0.0015917,0.007229,-1.60E-05,0,0,0,0,0,0.038651,10.3,83.323,89.998,-179.59,NaN,20.849,2.7218,343.93,0.05,0.35137,2.9392
3.1112,512,301.67,-7.8369,301.67,7.837,-0.066176,-4.73E-06,0.066176,-180,0.065152,0.038556,28.61,-80.6,9.7868,0.010605,0,0.0038018,-1.75E-05,15505,2.1617,11.634,0.026691,192.91,147.32,4.4266,0.8773,136086,31.499,1.2665,1.0371,1.0371,0.67671,0.14036,0.22006,0.0016209,0.0071662,-2.63E-04,0,0,0,0,0,0.038624,10.3,83.323,89.998,-179.61,NaN,20.723,2.717,343.86,0.05,0.3542,2.9311
3.1612,527.08,301.27,-9.8582,301.27,9.8583,-0.069482,-5.15E-06,0.069482,-180,0.067078,0.038442,28.61,-80.6,9.7867,0.010792,0,0.0040194,-1.64E-05,15503,0.78919,11.633,0.02669,192.9,147.31,4.4264,0.87636,135776,0.15407,1.2617,1.0373,1.0373,0.67721,0.14028,0.21984,0.0016493,0.0068261,-4.31E-04,0,0,0,0,0,0.038574,10.3,83.323,89.998,-179.63,NaN,20.597,2.7123,343.78,0.05,0.35721,2.9196
3.2112,542.13,300.78,-9.8677,300.78,9.8678,-0.072883,-5.59E-06,0.072883,-180,0.068999,0.038377,28.61,-80.6,9.7867,0.010972,0,0.004243,-1.86E-05,15503,0.051469,11.632,0.026689,192.89,147.31,4.4256,0.87512,135420,0,1.2562,1.0375,1.0375,0.67781,0.14017,0.21956,0.0016766,0.0070549,-1.95E-04,0,0,0,0,0,0.038511,10.3,83.323,89.998,-179.65,NaN,20.472,2.7075,343.7,0.05,0.3599,2.9062
3.2612,557.15,300.29,-9.8673,300.29,9.8674,-0.076381,-6.04E-06,0.076381,-180,0.070916,0.038312,28.61,-80.6,9.7866,0.011142,0,0.0044684,-1.87E-05,15503,0,11.632,0.026689,192.88,147.31,4.4245,0.87387,135065,0,1.2507,1.0378,1.0378,0.67841,0.14007,0.21928,0.0017023,0.00722,2.21E-04,0,0,0,0,0,0.038447,10.3,83.323,89.998,-179.67,NaN,20.346,2.7028,343.63,0.05,0.36228,2.8928
3.3112,572.16,299.79,-9.8669,299.79,9.867,-0.079975,-6.50E-06,0.079975,-180,0.07283,0.038247,28.61,-80.6,9.7866,0.0113,0,0.0047047,-2.00E-05,15503,0,11.632,0.026689,192.87,147.31,4.4234,0.87263,134710,0,1.2452,1.038,1.038,0.67901,0.13997,0.21899,0.0017264,0.0079029,2.54E-04,0,0,0,0,0,0.038384,10.3,83.323,89.997,-179.68,NaN,20.221,2.698,343.55,0.05,0.36512,2.8795
3.3612,587.13,299.3,-9.8665,299.3,9.8666,-0.083664,-6.98E-06,0.083664,-180,0.074741,0.038182,28.61,-80.6,9.7866,0.011448,0,0.0049389,-2.08E-05,15503,0,11.632,0.026689,192.86,147.31,4.4222,0.87139,134355,0,1.2397,1.0382,1.0382,0.67961,0.13986,0.21871,0.0017487,0.0072396,3.29E-05,0,0,0,0,0,0.038321,10.3,83.323,89.997,-179.69,NaN,20.096,2.6933,343.48,0.05,0.36749,2.8662
3.4112,602.09,298.81,-9.8661,298.81,9.8662,-0.087449,-7.46E-06,0.087449,-180,0.076648,0.038118,28.61,-80.6,9.7865,0.011585,0,0.005166,-2.16E-05,15503,0,11.632,0.026689,192.84,147.31,4.4211,0.87014,134001,0,1.2342,1.0384,1.0384,0.68022,0.13976,0.21843,0.0017693,0.0080685,4.14E-04,0,0,0,0,0,0.038258,10.3,83.323,89.997,-179.7,NaN,19.971,2.6886,343.4,0.05,0.36973,2.853
3.4612,617.01,298.31,-9.8657,298.31,9.8658,-0.091329,-7.97E-06,0.091329,-180,0.078552,0.038054,28.61,-80.6,9.7865,0.01171,0,0.0054082,-1.41E-05,15503,0,11.632,0.026689,192.83,147.31,4.4199,0.8689,133647,0,1.2288,1.0386,1.0386,0.68082,0.13965,0.21815,0.0017882,0.0082765,4.47E-04,0,0,0,0,0,0.038195,10.3,83.323,89.997,-179.72,NaN,19.846,2.6839,343.33,0.05,0.37237,2.8398
3.5112,631.92,297.82,-9.8653,297.82,9.8654,-0.095304,-8.48E-06,0.095304,-179.99,0.080453,0.037989,28.61,-80.6,9.7864,0.011824,0,0.0056547,-1.65E-05,15503,0,11.632,0.026689,192.82,147.31,4.4188,0.86765,133294,0,1.2234,1.0388,1.0388,0.68143,0.13955,0.21787,0.0018054,0.0079891,-4.65E-05,0,0,0,0,0,0.038132,10.3,83.323,89.996,-179.73,NaN,19.722,2.6791,343.25,0.05,0.37605,2.8267
3.5612,646.8,297.33,-9.8649,297.33,9.865,-0.099374,-9.01E-06,0.099374,-179.99,0.082351,0.037925,28.61,-80.6,9.7864,0.011927,0,0.005883,-1.70E-05,15503,0,11.632,0.026689,192.81,147.31,4.4177,0.86641,132941,0,1.218,1.0391,1.0391,0.68204,0.13945,0.21759,0.0018209,0.0084996,1.22E-04,0,0,0,0,0,0.038068,10.3,83.323,89.996,-179.74,NaN,19.597,2.6744,343.17,0.05,0.37861,2.8136
3.6112,661.65,296.84,-9.8645,296.84,9.8646,-0.10354,-9.56E-06,0.10354,-179.99,0.084246,0.037861,28.61,-80.6,9.7863,0.012019,0,0.0061213,-1.52E-05,15503,0,11.632,0.026689,192.8,147.31,4.4166,0.86516,132589,0,1.2126,1.0393,1.0393,0.68265,0.13934,0.2173,0.0018346,0.0080788,3.27E-04,0,0,0,0,0,0.038005,10.3,83.323,89.996,-179.75,NaN,19.473,2.6698,343.1,0.05,0.38125,2.8005
3.6612,676.48,296.34,-9.8641,296.34,9.8642,-0.1078,-1.01E-05,0.1078,-179.99,0.086137,0.037798,28.61,-80.6,9.7863,0.0121,0,0.0063674,-2.10E-05,15503,0,11.632,0.026689,192.79,147.31,4.4155,0.86391,132237,0,1.2072,1.0395,1.0395,0.68326,0.13924,0.21702,0.0018466,0.0080631,-4.30E-04,0,0,0,0,0,0.037942,10.3,83.323,89.995,-179.77,NaN,19.349,2.6651,343.02,0.05,0.3839,2.7875
3.7112,691.28,295.85,-9.8637,295.85,9.8638,-0.11215,-1.07E-05,0.11215,-179.99,0.088026,0.037734,28.61,-80.6,9.7862,0.012169,0,0.0066036,-2.09E-05,15503,0,11.632,0.026689,192.78,147.31,4.4144,0.86266,131885,0,1.2018,1.0397,1.0397,0.68387,0.13914,0.21674,0.0018569,0.0078646,2.32E-04,0,0,0,0,0,0.037879,10.3,83.323,89.995,-179.77,NaN,19.226,2.6604,342.95,0.05,0.38629,2.7745
3.7612,706.06,295.36,-9.8634,295.36,9.8634,-0.1166,-1.13E-05,0.1166,-179.99,0.089911,0.03767,28.61,-80.6,9.7862,0.012227,0,0.0068444,-2.77E-05,15503,0,11.632,0.026689,192.76,147.31,4.4133,0.86141,131534,0,1.1965,1.04,1.04,0.68448,0.13904,0.21646,0.0018655,0.007797,6.59E-05,0,0,0,0,0,0.037816,10.3,83.323,89.995,-179.78,NaN,19.102,2.6557,342.87,0.05,0.38883,2.7616
3.8112,720.82,294.86,-9.863,294.86,9.863,-0.12114,-1.19E-05,0.12114,-179.99,0.091793,0.037607,28.61,-80.6,9.7861,0.012274,0,0.0070898,-2.47E-05,15503,0,11.632,0.026689,192.75,147.31,4.4122,0.86016,131183,0,1.1912,1.0402,1.0402,0.68509,0.13893,0.21618,0.0018724,0.0078613,-4.10E-04,0,0,0,0,0,0.037753,10.3,83.323,89.994,-179.79,NaN,18.979,2.6511,342.8,0.05,0.39241,2.7487
3.8612,735.55,294.37,-9.8626,294.37,9.8627,-0.12578,-1.25E-05,0.12578,-179.99,0.093672,0.037544,28.61,-80.6,9.7861,0.012309,0,0.0073249,-2.05E-05,15503,0,11.632,0.026689,192.74,147.31,4.4111,0.85891,130833,0,1.1859,1.0404,1.0404,0.68571,0.13883,0.2159,0.0018775,0.0078892,3.26E-04,0,0,0,0,0,0.03769,10.3,83.323,89.994,-179.79,NaN,18.856,2.6464,342.73,0.05,0.39393,2.7358
3.9112,750.26,293.88,-9.8622,293.88,9.8623,-0.13051,-1.32E-05,0.13051,-179.99,0.095547,0.03748,28.61,-80.6,9.7861,0.012333,0,0.0075576,-1.48E-05,15503,0,11.632,0.026689,192.73,147.31,4.41,0.85765,130483,0,1.1806,1.0407,1.0407,0.68632,0.13873,0.21562,0.0018809,0.0086839,-4.54E-04,0,0,0,0,0,0.037626,10.3,83.323,89.994,-179.8,NaN,18.733,2.6418,342.65,0.05,0.39535,2.723
3.9612,764.94,293.38,-9.8618,293.38,9.8619,-0.13534,-1.38E-05,0.13534,-179.99,0.09742,0.037417,28.61,-80.6,9.786,0.012346,0,0.0078001,-8.97E-06,15503,0,11.632,0.026689,192.72,147.31,4.4089,0.8564,130139,0,1.1754,1.0409,1.0409,0.68693,0.13862,0.21534,0.0018826,0.0080561,4.54E-04,0,0,0,0,0,0.037563,10.3,83.323,89.993,-179.81,NaN,18.61,2.6372,342.58,0.05,0.39744,2.7104
4.0112,779.6,292.89,-9.8614,292.89,9.8615,-0.14025,-1.45E-05,0.14025,-179.99,0.099289,0.037354,28.61,-80.6,9.786,0.012348,0,0.0080371,-4.54E-06,15503,0,11.632,0.026689,192.71,147.31,4.4078,0.85515,129800,0,1.1702,1.0411,1.0411,0.68754,0.13852,0.21507,0.0018826,0.0078994,-1.06E-05,0,0,0,0,0,0.0375,10.3,83.323,89.993,-179.83,NaN,18.488,2.6328,342.5,0.05,0.39989,2.6979
4.0612,794.23,292.4,-9.8611,292.4,9.8611,-0.14526,-1.52E-05,0.14526,-179.99,0.10116,0.037291,28.61,-80.6,9.7859,0.012339,0,0.0082763,-1.40E-05,15503,0,11.632,0.026689,192.7,147.31,4.4068,0.85389,129461,0,1.165,1.0414,1.0414,0.68814,0.13842,0.21479,0.0018809,0.0086986,-3.42E-04,0,0,0,0,0,0.037437,10.3,83.323,89.993,-179.84,NaN,18.366,2.6284,342.43,0.05,0.40299,2.6854
4.1112,808.84,291.9,-9.8607,291.9,9.8607,-0.15037,-1.59E-05,0.15037,-179.99,0.10302,0.037229,28.61,-80.6,9.7859,0.012318,0,0.0085115,-2.06E-05,15503,0,11.632,0.026689,192.69,147.31,4.4057,0.85264,129123,0,1.1599,1.0416,1.0416,0.68875,0.13832,0.21451,0.0018775,0.0081159,9.21E-05,0,0,0,0,0,0.037374,10.3,83.323,89.992,-179.84,NaN,18.244,2.624,342.35,0.05,0.4092,2.673
4.1612,823.42,291.41,-9.8603,291.41,9.8604,-0.15557,-1.66E-05,0.15557,-179.99,0.10488,0.037166,28.61,-80.6,9.7858,0.012287,0,0.0087381,-2.76E-05,15503,0,11.632,0.026689,192.68,147.31,4.4046,0.85138,128785,0,1.1548,1.0418,1.0418,0.68936,0.13822,0.21423,0.0018724,0.0085499,2.37E-04,0,0,0,0,0,0.037311,10.3,83.323,89.992,-179.85,NaN,18.122,2.6196,342.28,0.05,0.41148,2.6606
4.2112,837.98,290.92,-9.8599,290.92,9.86,-0.16086,-1.74E-05,0.16086,-179.99,0.10673,0.037103,28.61,-80.6,9.7858,0.012244,0,0.0089733,-3.35E-05,15503,0,11.632,0.026689,192.66,147.31,4.4036,0.85012,128447,0,1.1497,1.042,1.042,0.68997,0.13811,0.21395,0.0018657,0.007811,3.67E-04,0,0,0,0,0,0.037248,10.3,83.323,89.991,-179.85,NaN,18,2.6152,342.21,0.05,0.41372,2.6483
4.2612,852.51,290.42,-9.8596,290.42,9.8596,-0.16624,-1.81E-05,0.16624,-179.99,0.10859,0.037041,28.61,-80.6,9.7857,0.012191,0,0.0092021,-3.32E-05,15503,0,11.632,0.026689,192.65,147.31,4.4025,0.84886,128110,0,1.1446,1.0423,1.0423,0.69058,0.13801,0.21367,0.0018573,0.0083092,3.35E-04,0,0,0,0,0,0.037185,10.3,83.323,89.991,-179.85,NaN,17.879,2.6108,342.13,0.05,0.41717,2.636
4.3112,867.02,289.93,-9.8592,289.93,9.8593,-0.17171,-1.89E-05,0.17171,-179.99,0.11044,0.036979,28.61,-80.6,9.7857,0.012128,0,0.0094284,-2.91E-05,15503,0,11.632,0.026689,192.64,147.31,4.4015,0.84761,127773,0,1.1395,1.0425,1.0425,0.69119,0.13791,0.2134,0.0018474,0.0083972,-2.54E-04,0,0,0,0,0,0.037121,10.3,83.323,89.99,-179.85,NaN,17.758,2.6064,342.06,0.05,0.41985,2.6237
4.3612,881.5,289.44,-9.8588,289.44,9.8589,-0.17728,-1.97E-05,0.17728,-179.99,0.11229,0.036916,28.61,-80.6,9.7856,0.012054,0,0.0096566,-2.07E-05,15503,0,11.632,0.026689,192.63,147.31,4.4004,0.84635,127437,0,1.1345,1.0427,1.0427,0.69181,0.13781,0.21312,0.0018358,0.0077645,-3.10E-05,0,0,0,0,0,0.037058,10.3,83.323,89.99,-179.86,NaN,17.637,2.602,341.99,0.05,0.42264,2.6115
4.4112,895.96,288.95,-9.8584,288.95,9.8585,-0.18294,-2.06E-05,0.18294,-179.99,0.11413,0.036854,28.61,-80.6,9.7856,0.011969,0,0.0098739,-1.92E-05,15503,0,11.632,0.026689,192.62,147.31,4.3994,0.84508,127101,0,1.1294,1.043,1.043,0.69242,0.13771,0.21284,0.0018226,0.0080265,1.77E-04,0,0,0,0,0,0.036995,10.3,83.323,89.989,-179.87,NaN,17.516,2.5976,341.91,0.05,0.42495,2.5993
4.4612,910.4,288.45,-9.8581,288.45,9.8581,-0.1887,-2.14E-05,0.1887,-179.99,0.11597,0.036792,28.61,-80.6,9.7856,0.011874,0,0.010093,-2.01E-05,15503,0,11.632,0.026689,192.61,147.31,4.3983,0.84382,126766,0,1.1244,1.0432,1.0432,0.69304,0.13761,0.21256,0.0018079,0.0079035,-1.78E-04,0,0,0,0,0,0.036932,10.3,83.323,89.989,-179.87,NaN,17.395,2.5933,341.84,0.05,0.42741,2.5872
4.5112,924.81,287.96,-9.8577,287.96,9.8578,-0.19454,-2.23E-05,0.19454,-179.99,0.11781,0.03673,28.61,-80.6,9.7855,0.011769,0,0.0103,-2.17E-05,15503,0,11.632,0.026689,192.6,147.31,4.3973,0.84256,126430,0,1.1194,1.0434,1.0434,0.69365,0.1375,0.21229,0.0017917,0.0076334,2.43E-04,0,0,0,0,0,0.036869,10.3,83.323,89.988,-179.88,NaN,17.275,2.5889,341.77,0.05,0.42997,2.5751
4.5612,939.19,287.47,-9.8573,287.47,9.8574,-0.20048,-2.32E-05,0.20048,-179.99,0.11964,0.036668,28.61,-80.6,9.7855,0.011655,0,0.010513,-2.02E-05,15503,0,11.632,0.026689,192.59,147.31,4.3963,0.8413,126096,0,1.1144,1.0437,1.0437,0.69427,0.1374,0.21201,0.001774,0.0075135,3.09E-04,0,0,0,0,0,0.036806,10.3,83.323,89.988,-179.88,NaN,17.155,2.5846,341.69,0.05,0.43223,2.563
4.6112,953.55,286.97,-9.857,286.97,9.857,-0.2065,-2.41E-05,0.20651,-179.99,0.12148,0.036607,28.61,-80.6,9.7854,0.011531,0,0.010715,-1.89E-05,15503,0,11.632,0.026689,192.58,147.31,4.3953,0.84003,125761,0,1.1095,1.0439,1.0439,0.69489,0.1373,0.21174,0.0017549,0.0077155,2.96E-04,0,0,0,0,0,0.036743,10.3,83.323,89.987,-179.89,NaN,17.035,2.5802,341.62,0.05,0.43456,2.551
4.6612,967.89,286.48,-9.8566,286.48,9.8567,-0.21262,-2.50E-05,0.21262,-179.99,0.12331,0.036545,28.61,-80.6,9.7854,0.011398,0,0.010925,-1.18E-05,15503,0,11.632,0.026689,192.57,147.31,4.3943,0.83877,125428,0,1.1045,1.0442,1.0442,0.69551,0.1372,0.21146,0.0017343,0.0077679,4.07E-04,0,0,0,0,0,0.03668,10.3,83.323,89.987,-179.89,NaN,16.915,2.5759,341.55,0.05,0.43681,2.539
4.7112,982.2,285.99,-9.8563,285.99,9.8563,-0.21884,-2.60E-05,0.21884,-179.99,0.12513,0.036483,28.61,-80.6,9.7853,0.011254,0,0.011129,-6.94E-06,15503,0,11.632,0.026689,192.56,147.31,4.3932,0.83751,125094,0,1.0996,1.0444,1.0444,0.69613,0.1371,0.21118,0.0017122,0.0073517,-3.84E-04,0,0,0,0,0,0.036617,10.3,83.323,89.986,-179.9,NaN,16.796,2.5716,341.48,0.05,0.44067,2.5271
4.7612,996.49,285.5,-9.8559,285.5,9.856,-0.22514,-2.69E-05,0.22514,-179.99,0.12695,0.036422,28.61,-80.6,9.7853,0.011102,0,0.011329,-9.64E-06,15503,0,11.632,0.026689,192.55,147.31,4.3922,0.83624,124761,0,1.0947,1.0447,1.0447,0.69676,0.137,0.21091,0.0016888,0.0073019,-2.36E-04,0,0,0,0,0,0.036553,10.3,83.323,89.986,-179.9,NaN,16.676,2.5672,341.4,0.05,0.44205,2.5152
4.8112,1010.8,285,-9.8555,285,9.8556,-0.23153,-2.79E-05,0.23153,-179.99,0.12877,0.03636,28.61,-80.6,9.7853,0.010941,0,0.01152,-9.46E-06,15503,0,11.632,0.026689,192.54,147.31,4.3912,0.83497,124428,0,1.0898,1.0449,1.0449,0.69738,0.1369,0.21063,0.001664,0.0069611,8.31E-05,0,0,0,0,0,0.03649,10.3,83.323,89.985,-179.91,NaN,16.557,2.5629,341.33,0.05,0.44389,2.5033
4.8612,1025,284.51,-9.8552,284.51,9.8552,-0.23801,-2.90E-05,0.23801,-179.99,0.13059,0.036299,28.61,-80.6,9.7852,0.010771,0,0.011706,-1.44E-05,15503,0,11.632,0.026689,192.53,147.31,4.3902,0.8337,124096,0,1.0849,1.0452,1.0452,0.698,0.1368,0.21036,0.0016379,0.0072783,-4.32E-04,0,0,0,0,0,0.036427,10.3,83.323,89.984,-179.92,NaN,16.438,2.5586,341.26,0.05,0.44539,2.4915
4.9112,1039.2,284.02,-9.8548,284.02,9.8549,-0.24459,-3.00E-05,0.24459,-179.99,0.1324,0.036237,28.61,-80.6,9.7852,0.010592,0,0.01189,-6.29E-06,15503,0,11.632,0.026689,192.52,147.31,4.3892,0.83244,123764,0,1.08,1.0454,1.0454,0.69863,0.1367,0.21008,0.0016105,0.0072988,-1.23E-04,0,0,0,0,0,0.036364,10.3,83.323,89.984,-179.92,NaN,16.32,2.5543,341.19,0.05,0.4467,2.4797
4.9612,1053.4,283.52,-9.8545,283.52,9.8545,-0.25126,-3.11E-05,0.25126,-179.99,0.13421,0.036176,28.61,-80.6,9.7851,0.010405,0,0.012073,4.35E-06,15503,0,11.632,0.026689,192.51,147.31,4.3882,0.83117,123433,0,1.0752,1.0457,1.0457,0.69926,0.1366,0.20981,0.0015818,0.0069385,-3.10E-04,0,0,0,0,0,0.036301,10.3,83.323,89.983,-179.93,NaN,16.201,2.55,341.12,0.05,0.44799,2.468
5.0112,1067.6,283.03,-9.8541,283.03,9.8542,-0.25801,-3.22E-05,0.25801,-179.99,0.13602,0.036115,28.61,-80.6,9.7851,0.01021,0,0.012248,1.42E-05,15503,0,11.632,0.026689,192.5,147.31,4.3873,0.8299,123102,0,1.0703,1.0459,1.0459,0.69989,0.1365,0.20953,0.0015519,0.0071886,-3.11E-04,0,0,0,0,0,0.036238,10.3,83.323,89.983,-179.93,NaN,16.083,2.5458,341.05,0.05,0.4509,2.4563
5.0612,1081.7,282.54,-9.8537,282.54,9.8538,-0.26486,-3.33E-05,0.26486,-179.99,0.13782,0.036053,28.61,-80.6,9.785,0.010007,0,0.012429,2.10E-05,15503,0,11.632,0.026689,192.49,147.31,4.3863,0.82863,122771,0,1.0655,1.0462,1.0462,0.70052,0.1364,0.20926,0.0015208,0.0071432,-4.01E-04,0,0,0,0,0,0.036175,10.3,83.323,89.982,-179.94,NaN,15.965,2.5415,340.97,0.05,0.45297,2.4447
5.1112,1095.8,282.05,-9.8534,282.05,9.8535,-0.27179,-3.44E-05,0.27179,-179.99,0.13963,0.035992,28.61,-80.6,9.785,0.0097962,0,0.012593,1.77E-05,15503,0,11.632,0.026689,192.48,147.31,4.3853,0.82735,122441,0,1.0607,1.0464,1.0464,0.70115,0.1363,0.20899,0.0014885,0.0064962,-4.38E-05,0,0,0,0,0,0.036112,10.3,83.323,89.981,-179.95,NaN,15.847,2.5372,340.9,0.05,0.45569,2.433
5.1612,1109.9,281.55,-9.853,281.55,9.8531,-0.27882,-3.56E-05,0.27882,-179.99,0.14142,0.035931,28.61,-80.6,9.7849,0.009578,0,0.012758,1.97E-05,15503,0,11.632,0.026689,192.47,147.31,4.3843,0.82608,122111,0,1.0559,1.0467,1.0467,0.70178,0.1362,0.20871,0.0014551,0.0064016,-4.62E-04,0,0,0,0,0,0.036049,10.3,83.323,89.981,-179.96,NaN,15.729,2.533,340.83,0.05,0.45838,2.4215
5.2112,1124,281.06,-9.8527,281.06,9.8528,-0.28594,-3.68E-05,0.28594,-179.99,0.14322,0.03587,28.61,-80.6,9.7849,0.0093523,0,0.012922,2.49E-05,15503,0,11.632,0.026689,192.46,147.31,4.3833,0.82481,121782,0,1.0511,1.047,1.047,0.70242,0.1361,0.20844,0.0014206,0.0058401,-3.84E-04,0,0,0,0,0,0.035986,10.3,83.323,89.98,-179.96,NaN,15.612,2.5287,340.76,0.05,0.46332,2.4099
5.2612,1138,280.57,-9.8523,280.57,9.8524,-0.29314,-3.80E-05,0.29314,-179.99,0.14501,0.035809,28.61,-80.6,9.7849,0.0091196,0,0.013073,2.86E-05,15503,0,11.632,0.026689,192.45,147.31,4.3824,0.82354,121453,0,1.0464,1.0472,1.0472,0.70305,0.136,0.20817,0.0013851,0.0058893,4.80E-04,0,0,0,0,0,0.035923,10.3,83.323,89.98,-179.97,NaN,15.494,2.5245,340.69,0.05,0.46563,2.3984
5.3112,1152,280.08,-9.852,280.08,9.8521,-0.30044,-3.92E-05,0.30044,-179.99,0.1468,0.035748,28.61,-80.6,9.7848,0.0088804,0,0.013218,3.06E-05,15503,0,11.632,0.026689,192.44,147.31,4.3814,0.82226,121124,0,1.0417,1.0475,1.0475,0.70369,0.1359,0.20789,0.0013485,0.0055399,-1.20E-04,0,0,0,0,0,0.03586,10.3,83.323,89.979,-179.97,NaN,15.377,2.5202,340.62,0.05,0.46796,2.387
5.3612,1166,279.58,-9.8516,279.58,9.8517,-0.30782,-4.05E-05,0.30782,-179.99,0.14859,0.035687,28.61,-80.6,9.7848,0.0086349,0,0.013357,4.13E-05,15503,0,11.632,0.026689,192.43,147.31,4.3804,0.82099,120796,0,1.0369,1.0477,1.0477,0.70432,0.1358,0.20762,0.001311,0.0059532,3.46E-04,0,0,0,0,0,0.035796,10.3,83.323,89.978,-179.98,NaN,15.26,2.516,340.55,0.05,0.47015,2.3756
5.4112,1180,279.09,-9.8513,279.09,9.8514,-0.3153,-4.18E-05,0.3153,-179.99,0.15037,0.035626,28.61,-80.6,9.7847,0.0083832,0,0.013498,4.70E-05,15503,0,11.632,0.026689,192.42,147.31,4.3795,0.81971,120468,0,1.0322,1.048,1.048,0.70496,0.1357,0.20735,0.0012726,0.0053041,-4.73E-04,0,0,0,0,0,0.035733,10.3,83.323,89.978,-179.99,NaN,15.144,2.5118,340.48,0.05,0.47264,2.3642
5.4612,1193.9,278.6,-9.851,278.6,9.851,-0.32286,-4.31E-05,0.32286,-179.99,0.15215,0.035566,28.61,-80.6,9.7847,0.0081255,0,0.013636,5.52E-05,15503,0,11.632,0.026689,192.41,147.31,4.3785,0.81843,120141,0,1.0275,1.0483,1.0483,0.7056,0.1356,0.20708,0.0012333,0.0056049,-1.28E-06,0,0,0,0,0,0.03567,10.3,83.323,89.977,-179.99,NaN,15.027,2.5076,340.41,0.05,0.4749,2.3528
5.5112,1207.8,278.11,-9.8506,278.11,9.8507,-0.33051,-4.45E-05,0.33051,-179.99,0.15393,0.035505,28.61,-80.6,9.7846,0.0078619,0,0.013768,6.48E-05,15503,0,11.632,0.026689,192.4,147.31,4.3776,0.81715,119814,0,1.0229,1.0486,1.0486,0.70624,0.1355,0.20681,0.0011931,0.0051539,2.12E-04,0,0,0,0,0,0.035607,10.3,83.323,89.976,180,NaN,14.911,2.5034,340.33,0.05,0.4771,2.3415
5.5612,1221.7,277.61,-9.8503,277.61,9.8503,-0.33825,-4.58E-05,0.33825,-179.99,0.1557,0.035444,28.61,-80.6,9.7846,0.0075927,0,0.013891,7.11E-05,15503,0,11.632,0.026689,192.39,147.31,4.3766,0.81588,119488,0,1.0182,1.0488,1.0488,0.70689,0.1354,0.20653,0.0011521,0.0055028,4.96E-04,0,0,0,0,0,0.035544,10.3,83.323,89.975,179.99,NaN,14.795,2.4992,340.26,0.05,0.4793,2.3303
5.6112,1235.6,277.12,-9.8499,277.12,9.85,-0.34608,-4.72E-05,0.34608,-179.99,0.15747,0.035383,28.61,-80.6,9.7846,0.0073183,0,0.014011,7.55E-05,15503,0,11.632,0.026689,192.38,147.31,4.3757,0.8146,119162,0,1.0136,1.0491,1.0491,0.70753,0.1353,0.20626,0.0011102,0.0050887,3.04E-04,0,0,0,0,0,0.035481,10.3,83.323,89.975,179.99,NaN,14.679,2.495,340.19,0.05,0.48174,2.3191
5.6612,1249.4,276.63,-9.8496,276.63,9.8496,-0.354,-4.87E-05,0.354,-179.99,0.15924,0.035322,28.61,-80.6,9.7845,0.0070389,0,0.014127,7.57E-05,15503,0,11.632,0.026689,192.37,147.31,4.3747,0.81332,118836,0,1.009,1.0494,1.0494,0.70818,0.1352,0.20599,0.0010677,0.0049236,1.25E-04,0,0,0,0,0,0.035418,10.3,83.323,89.974,179.98,NaN,14.563,2.4908,340.12,0.05,0.48431,2.3079
5.7112,1263.3,276.14,-9.8492,276.14,9.8493,-0.362,-5.01E-05,0.362,-179.99,0.161,0.035262,28.61,-80.6,9.7845,0.0067547,0,0.014238,8.01E-05,15503,0,11.632,0.026689,192.36,147.31,4.3738,0.81204,118515,0,1.0044,1.0496,1.0496,0.70882,0.1351,0.20572,0.0010244,0.0039876,-2.67E-04,0,0,0,0,0,0.035355,10.3,83.323,89.973,179.98,NaN,14.448,2.4867,340.05,0.05,0.4867,2.2968
5.7612,1277.1,275.64,-9.8489,275.64,9.849,-0.3701,-5.16E-05,0.3701,-179.99,0.16276,0.035201,28.61,-80.6,9.7844,0.006466,0,0.014345,8.78E-05,15503,0,11.632,0.026689,192.35,147.31,4.3729,0.81075,118199,0,0.99985,1.0499,1.0499,0.70945,0.13501,0.20545,9.80E-04,0.0042197,-2.99E-04,0,0,0,0,0,0.035292,10.3,83.323,89.973,179.97,NaN,14.333,2.4827,339.98,0.05,0.49058,2.2859
5.8112,1290.8,275.15,-9.8486,275.15,9.8486,-0.37828,-5.31E-05,0.37828,-179.99,0.16452,0.03514,28.61,-80.6,9.7844,0.0061729,0,0.014447,1.03E-04,15503,0,11.632,0.026689,192.34,147.31,4.3719,0.80947,117883,0,0.99533,1.0502,1.0502,0.71009,0.13491,0.20518,9.36E-04,0.0042494,3.62E-04,0,0,0,0,0,0.035229,10.3,83.323,89.972,179.97,NaN,14.218,2.4787,339.91,0.05,0.49288,2.275
5.8612,1304.6,274.66,-9.8482,274.66,9.8483,-0.38655,-5.46E-05,0.38655,-179.99,0.16628,0.03508,28.61,-80.6,9.7844,0.0058757,0,0.014546,1.13E-04,15503,0,11.632,0.026689,192.33,147.31,4.371,0.80819,117568,0,0.99083,1.0504,1.0504,0.71072,0.13481,0.20491,8.91E-04,0.0042666,-3.69E-04,0,0,0,0,0,0.035166,10.3,83.323,89.971,179.97,NaN,14.103,2.4748,339.85,0.05,0.49548,2.2641
5.9112,1318.3,274.17,-9.8479,274.17,9.848,-0.39491,-5.62E-05,0.39491,-179.99,0.16803,0.035019,28.61,-80.6,9.7843,0.0055746,0,0.014634,1.18E-04,15503,0,11.632,0.026689,192.32,147.31,4.3701,0.8069,117253,0,0.98635,1.0507,1.0507,0.71136,0.13471,0.20464,8.45E-04,0.0036711,3.78E-04,0,0,0,0,5.02E-09,0.035103,10.3,83.323,89.97,179.96,NaN,13.988,2.4708,339.78,0.05,0.49789,2.2533
5.9612,1332,273.67,-9.8476,273.67,9.8476,-0.40335,-5.78E-05,0.40335,-179.99,0.16978,0.034958,28.61,-80.6,9.7843,0.0052703,0,0.014716,1.23E-04,15503,0,11.632,0.026689,192.31,147.31,4.3691,0.80562,116938,0,0.98188,1.051,1.051,0.712,0.13461,0.20437,7.99E-04,0.0033985,2.58E-04,0,0,0,0,5.09E-09,0.03504,10.3,83.323,89.97,179.96,NaN,13.874,2.4668,339.71,0.05,0.50023,2.2425
6.0112,1345.7,273.18,-9.8473,273.18,9.8473,-0.41189,-5.94E-05,0.41189,-179.99,0.17153,0.034898,28.61,-80.6,9.7842,0.0049629,0,0.014793,1.38E-04,15503,0,11.632,0.026689,192.3,147.31,4.3682,0.80433,116624,0,0.97742,1.0513,1.0513,0.71264,0.13451,0.2041,7.52E-04,0.0030659,2.02E-04,0,0,0,0,5.16E-09,0.034977,10.3,83.323,89.969,179.95,NaN,13.76,2.4629,339.64,0.05,0.50254,2.2317
6.0612,1359.3,272.69,-9.8469,272.69,9.847,-0.42051,-6.11E-05,0.42051,-179.99,0.17327,0.034837,28.61,-80.6,9.7842,0.0046527,0,0.014863,1.56E-04,15503,0,11.632,0.026689,192.29,147.31,4.3673,0.80305,116310,0,0.97299,1.0515,1.0515,0.71328,0.13442,0.20384,7.05E-04,0.003332,-3.69E-05,0,0,0,0,5.23E-09,0.034914,10.3,83.323,89.968,179.95,NaN,13.646,2.4589,339.57,0.05,0.50631,2.221
6.1112,1372.9,272.2,-9.8466,272.2,9.8467,-0.42921,-6.28E-05,0.42921,-179.99,0.17501,0.034776,28.61,-80.6,9.7841,0.0043399,0,0.014933,1.71E-04,15503,0,11.632,0.026689,192.28,147.31,4.3664,0.80176,115997,0,0.96856,1.0518,1.0518,0.71393,0.13432,0.20357,6.57E-04,0.003117,4.19E-04,0,0,0,0,5.30E-09,0.034851,10.3,83.323,89.968,179.95,NaN,13.532,2.455,339.5,0.05,0.50815,2.2103
6.1612,1386.5,271.7,-9.8463,271.7,9.8463,-0.43801,-6.45E-05,0.43801,-179.99,0.17675,0.034716,28.61,-80.6,9.7841,0.0040248,0,0.014994,1.82E-04,15503,0,11.632,0.026689,192.27,147.31,4.3655,0.80047,115684,0,0.96415,1.0521,1.0521,0.71457,0.13422,0.2033,6.10E-04,0.0025762,-4.55E-04,0,0,0,0,5.36E-09,0.034788,10.3,83.323,89.967,179.95,NaN,13.418,2.4511,339.43,0.05,0.50945,2.1997
6.2112,1400.1,271.21,-9.8459,271.21,9.846,-0.44689,-6.62E-05,0.44689,-179.99,0.17848,0.034655,28.61,-80.6,9.7841,0.0037077,0,0.015046,2.06E-04,15503,0,11.632,0.026689,192.26,147.31,4.3645,0.79918,115372,0,0.95976,1.0524,1.0524,0.71522,0.13412,0.20303,5.61E-04,0.0019712,2.27E-04,0,0,0,0,5.42E-09,0.034725,10.3,83.323,89.966,179.94,NaN,13.305,2.4471,339.36,0.05,0.51097,2.1891
6.2612,1413.6,270.72,-9.8456,270.72,9.8457,-0.45585,-6.80E-05,0.45585,-179.99,0.18021,0.034594,28.61,-80.6,9.784,0.0033892,0,0.015094,2.34E-04,15503,0,11.632,0.026689,192.25,147.31,4.3636,0.79789,115059,0,0.95538,1.0527,1.0527,0.71586,0.13403,0.20276,5.13E-04,0.0018346,3.64E-04,0,0,0,0,5.47E-09,0.034662,10.3,83.323,89.965,179.94,NaN,13.192,2.4432,339.29,0.05,0.51254,2.1785
6.3112,1427.2,270.23,-9.8453,270.23,9.8454,-0.46491,-6.98E-05,0.46491,-179.99,0.18194,0.034533,28.61,-80.6,9.784,0.0030693,0,0.015136,2.64E-04,15503,0,11.632,0.026689,192.24,147.31,4.3627,0.7966,114748,0,0.95102,1.0529,1.0529,0.71651,0.13393,0.2025,4.65E-04,0.0020714,-9.61E-05,0,0,0,0,5.52E-09,0.034599,10.3,83.323,89.964,179.94,NaN,13.079,2.4393,339.22,0.05,0.51425,2.168
6.3612,1440.7,269.74,-9.845,269.74,9.845,-0.47405,-7.16E-05,0.47405,-179.99,0.18367,0.034473,28.61,-80.6,9.7839,0.0027482,0,0.015178,2.99E-04,15503,0,11.632,0.026689,192.23,147.31,4.3618,0.79531,114436,0,0.94667,1.0532,1.0532,0.71716,0.13383,0.20223,4.16E-04,0.0018926,-2.37E-04,0,0,0,0,5.57E-09,0.034536,10.3,83.323,89.964,179.94,NaN,12.966,2.4354,339.16,0.05,0.51586,2.1575
6.4112,1454.1,269.24,-9.8447,269.24,9.8447,-0.48327,-7.35E-05,0.48327,-179.99,0.18539,0.034412,28.61,-80.6,9.7839,0.002426,0,0.015216,3.45E-04,15503,0,11.632,0.026689,192.23,147.31,4.3609,0.79402,114125,0,0.94234,1.0535,1.0535,0.71781,0.13373,0.20196,3.67E-04,0.0017251,-2.02E-04,0,0,0,0,5.62E-09,0.034473,10.3,83.323,89.963,179.94,NaN,12.854,2.4315,339.09,0.05,0.51849,2.147
6.4612,1467.6,268.75,-9.8443,268.75,9.8444,-0.49259,-7.54E-05,0.49259,-179.99,0.18711,0.034351,28.61,-80.6,9.7839,0.002103,0,0.015248,4.12E-04,15503,0,11.632,0.026689,192.22,147.31,4.36,0.79273,113815,0,0.93802,1.0538,1.0538,0.71846,0.13364,0.20169,3.18E-04,0.001493,2.47E-04,0,0,0,0,5.67E-09,0.03441,10.3,83.323,89.962,179.93,NaN,12.741,2.4276,339.02,0.05,0.51984,2.1366
6.5112,1481,268.26,-9.844,268.26,9.8441,-0.50199,-7.73E-05,0.50199,-179.99,0.18882,0.034291,28.61,-80.6,9.7838,0.0017795,0,0.015272,4.94E-04,15503,0,11.632,0.026689,192.21,147.31,4.3591,0.79144,113504,0,0.93372,1.0541,1.0541,0.71912,0.13354,0.20143,2.69E-04,9.14E-04,3.34E-04,0,0,0,0,5.71E-09,0.034346,10.3,83.323,89.961,179.93,NaN,12.629,2.4238,338.95,0.05,0.52238,2.1262
6.5612,1494.4,267.77,-9.8437,267.77,9.8438,-0.51147,-7.93E-05,0.51147,-179.99,0.19054,0.03423,28.61,-80.6,9.7838,0.0014558,0,0.015294,6.16E-04,15503,0,11.632,0.026689,192.2,147.31,4.3582,0.79014,113195,0,0.92943,1.0544,1.0544,0.71977,0.13344,0.20116,2.20E-04,7.03E-04,-5.91E-05,0,0,0,0,5.74E-09,0.034283,10.3,83.323,89.961,179.93,NaN,12.517,2.4199,338.88,0.05,0.52468,2.1159
6.6112,1507.8,267.27,-9.8434,267.27,9.8434,-0.52104,-8.13E-05,0.52104,-179.99,0.19225,0.034169,28.61,-80.6,9.7837,0.0011321,0,0.015304,8.06E-04,15503,0,11.632,0.026689,192.19,147.31,4.3573,0.78885,112885,0,0.92516,1.0547,1.0547,0.72043,0.13335,0.2009,1.71E-04,8.39E-04,-4.58E-04,0,0,0,0,5.77E-09,0.03422,10.3,83.323,89.96,179.93,NaN,12.405,2.416,338.82,0.05,0.52709,2.1056
6.6612,1521.2,266.78,-9.8431,266.78,9.8431,-0.53069,-8.33E-05,0.53069,-179.99,0.19395,0.034108,28.61,-80.6,9.7837,8.09E-04,0,0.015299,0.0011503,15503,0,11.632,0.026689,192.18,147.31,4.3564,0.78755,112576,0,0.9209,1.055,1.055,0.72108,0.13325,0.20063,1.22E-04,2.67E-04,-1.85E-04,0,0,0,0,5.79E-09,0.034157,10.3,83.323,89.959,179.93,NaN,12.294,2.4122,338.75,0.05,0.52966,2.0953
6.7112,1534.5,266.29,-9.8427,266.29,9.8428,-0.54043,-8.54E-05,0.54043,-179.99,0.19566,0.034047,28.61,-80.6,9.7836,4.87E-04,0,0.015224,0.0019594,15503,0,11.632,0.026689,192.17,147.31,4.3555,0.78626,112268,0,0.91665,1.0553,1.0553,0.72174,0.13315,0.20037,7.36E-05,7.08E-04,-3.96E-04,0,0,0,0,5.75E-09,0.034094,10.3,83.323,89.958,179.93,NaN,12.183,2.4083,338.68,0.05,0.53276,2.085
6.7612,1547.8,265.8,-9.8424,265.8,9.8425,-0.55026,-8.74E-05,0.55026,-179.99,0.19736,0.033987,28.61,-80.6,9.7836,1.72E-04,0,0,0,15503,0,11.632,0.026689,192.16,147.31,4.3546,0.78496,111959,0,0.91242,1.0556,1.0556,0.7224,0.13306,0.2001,2.59E-05,4.51E-04,1.76E-04,0,0,0,0,0,0.034031,10.3,83.323,89.958,179.93,NaN,12.071,2.4045,338.61,0.05,0.53516,2.0748
