# Time (s),Altitude (m),Vertical velocity (m/s),Vertical acceleration (m/s²),Total velocity (m/s),Total acceleration (m/s²),Position East of launch (m),Position North of launch (m),Lateral distance (m),Lateral direction (°),Lateral velocity (m/s),Lateral acceleration (m/s²),Latitude (°),Longitude (°),Gravitational acceleration (m/s²),Angle of attack (°),Roll rate (°/s),Pitch rate (°/s),Yaw rate (°/s),Mass (g),Propellant mass (g),Longitudinal moment of inertia (kg·m²),Rotational moment of inertia (kg·m²),CP location (cm),CG location (cm),Stability margin calibers (?),Mach number (?),Reynolds number (?),Thrust (N),Drag force (N),Drag coefficient (?),Axial drag coefficient (?),Friction drag coefficient (?),Pressure drag coefficient (?),Base drag coefficient (?),Normal force coefficient (?),Pitch moment coefficient (?),Yaw moment coefficient (?),Side force coefficient (?),Roll moment coefficient (?),Roll forcing coefficient (?),Roll damping coefficient (?),Pitch damping coefficient (?),Coriolis acceleration (m/s²),Reference length (cm),Reference area (cm²),Vertical orientation (zenith) (°),Lateral orientation (azimuth) (°),Wind velocity (m/s),Air temperature (°C),Air pressure (mbar),Speed of sound (m/s),Simulation time step (s),Computation time (s),Dynamic Pressure (mbar)
0,0,0,-0.056915,0,0.056915,0,0,0,0,0,0,28.61,-80.6,9.7922,90,0,0,0,20544,3776.9,17.596,0.027774,NaN,176.68,NaN,0.0048281,320359,200,0,0.9967,0,0.69233,0.18436,0.12,NaN,NaN,NaN,NaN,NaN,NaN,NaN,NaN,0,10.4,84.949,90,0,NaN,15,1013.2,340.39,0.01,0.016172,0
0.01,0,0,19.414,0,19.414,0,0,0,0,0,0,28.61,-80.6,9.7922,90,0,0,0,20544,3776.9,17.596,0.027774,NaN,176.68,NaN,0.0049636,329349,600,0,0.99243,0,0.68806,0.18436,0.12,NaN,NaN,NaN,NaN,NaN,NaN,NaN,NaN,0,10.4,84.949,90,0,NaN,15,1013.2,340.39,0.01,0.024541,0
0.02,9.71E-04,0.19416,34.63,0.19416,34.63,0,0,0,0,0,0,28.61,-80.6,9.7922,83.617,0,0,0,20542,3774.7,17.594,0.027773,NaN,176.67,NaN,0.0051309,340450,912.5,5.09E-05,0.98737,0.0032071,0.68301,0.18436,0.12,NaN,NaN,NaN,NaN,NaN,NaN,NaN,NaN,2.49E-05,10.4,84.949,90,0,NaN,15,1013.2,340.39,0.01,0.028991,4.62E-04
0.03,0.0046442,0.54053,45.594,0.54053,45.594,0,0,0,0,0,0,28.61,-80.6,9.7922,73.124,0,0,0,20538,3770.7,17.592,0.02777,NaN,176.66,NaN,0.0054701,362961,1137.5,9.37E-04,0.97776,0.051925,0.6734,0.18436,0.12,NaN,NaN,NaN,NaN,NaN,NaN,NaN,NaN,6.92E-05,10.4,84.949,90,0,NaN,15,1013.2,340.39,0.01,0.032628,0.0035792
0.04,0.01233,0.99659,57.785,0.99659,57.785,0,0,0,0,0,0,28.61,-80.6,9.7922,61.4,0,0,0,20532,3765,17.589,0.027766,NaN,176.64,NaN,0.0061163,405838,1387.5,0.0047881,0.96148,0.21231,0.65711,0.18437,0.12,NaN,NaN,NaN,NaN,NaN,NaN,NaN,NaN,1.28E-04,10.4,84.949,90,0,NaN,15,1013.2,340.39,0.01,0.03952,0.012167
0.05,0.025186,1.5746,71.206,1.5746,71.206,0,0,0,0,0,0,28.61,-80.6,9.7922,49.962,0,0,0,20525,3758,17.584,0.027761,NaN,176.61,NaN,0.007191,477147,1662.5,0.014782,0.93891,0.47418,0.63454,0.18437,0.12001,NaN,NaN,NaN,NaN,NaN,NaN,NaN,NaN,2.02E-04,10.4,84.949,90,0,NaN,15,1013.2,340.39,0.01,0.042637,0.030374
0.06,0.044493,2.287,85.252,2.287,85.252,0,0,0,0,0,0,28.61,-80.6,9.7922,39.509,0,0,0,20517,3749.5,17.579,0.027755,NaN,176.58,NaN,0.0087084,577826,1950,0.034588,0.91369,0.75657,0.60931,0.18437,0.12001,NaN,NaN,NaN,NaN,NaN,NaN,NaN,NaN,2.93E-04,10.4,84.949,90,0,NaN,15,1013.2,340.39,0.01,0.045597,0.064071
0.07,0.071627,3.1399,99.926,3.1399,99.926,0,0,0,0,0,0,28.61,-80.6,9.7922,31.148,0,0,0,20506,3739.5,17.573,0.027748,NaN,176.55,NaN,0.010778,715164,2250,0.066941,0.88732,0.95585,0.58294,0.18437,0.12002,NaN,NaN,NaN,NaN,NaN,NaN,NaN,NaN,4.02E-04,10.4,84.949,90,0,NaN,15,1013.2,340.39,0.01,0.048585,0.12077
0.08,0.10802,4.1396,106.12,4.1396,106.12,0,0,0,0,0,0,28.61,-80.6,9.7922,24.763,0,0,0,20495,3727.9,17.566,0.02774,NaN,176.51,NaN,0.013393,888657,2375.7,0.1141,0.86219,1.0552,0.5578,0.18437,0.12002,NaN,NaN,NaN,NaN,NaN,NaN,NaN,NaN,5.30E-04,10.4,84.949,90,0,NaN,14.999,1013.2,340.39,0.01,0.051421,0.20992
0.09,0.15473,5.2014,103.81,5.2014,103.81,0,0,0,0,0,0,28.61,-80.6,9.7922,20.274,0,0,0,20483,3715.9,17.559,0.027731,NaN,176.46,NaN,0.01629,1080873,2327.1,0.17289,0.84091,1.0808,0.5365,0.18438,0.12003,NaN,NaN,NaN,NaN,NaN,NaN,NaN,NaN,6.66E-04,10.4,84.949,90,0,NaN,14.999,1013.2,340.39,0.01,0.056588,0.33141
0.1,0.21194,6.2401,101.51,6.2401,101.51,0,0,0,0,0,0,28.61,-80.6,9.7922,17.213,0,0,0,20470,3703.5,17.552,0.027723,NaN,176.42,NaN,0.019192,1273413,2278.6,0.23785,0.82402,1.0712,0.51959,0.18439,0.12005,NaN,NaN,NaN,NaN,NaN,NaN,NaN,NaN,7.99E-04,10.4,84.949,90,0,NaN,14.999,1013.2,340.39,0.01,0.059654,0.47699
0.11,0.27941,7.2557,99.196,7.2557,99.196,0,0,0,0,0,0,28.61,-80.6,9.7922,14.996,0,0,0,20458,3691.2,17.545,0.027714,NaN,176.37,NaN,0.022067,1464210,2230,0.30648,0.81027,1.044,0.50581,0.18439,0.12006,NaN,NaN,NaN,NaN,NaN,NaN,NaN,NaN,9.29E-04,10.4,84.949,90,0,NaN,14.998,1013.2,340.39,0.01,0.062228,0.64489
0.12,0.35693,8.2482,96.883,8.2482,96.883,0,0,0,0,0,0,28.61,-80.6,9.7922,13.328,0,0,0,20446,3678.8,17.537,0.027705,NaN,176.33,NaN,0.024902,1652305,2181.4,0.37747,0.7988,1.0097,0.49432,0.1844,0.12008,NaN,NaN,NaN,NaN,NaN,NaN,NaN,NaN,0.0010561,10.4,84.949,90,0,NaN,14.998,1013.2,340.39,0.01,0.064478,0.83338
0.13,0.44426,9.2175,94.567,9.2175,94.567,0,0,0,0,0,0,28.61,-80.6,9.7922,12.031,0,0,0,20433,3666.4,17.53,0.027697,NaN,176.28,NaN,0.027688,1837097,2132.9,0.45148,0.78907,0.97694,0.48456,0.18441,0.1201,NaN,NaN,NaN,NaN,NaN,NaN,NaN,NaN,0.0011802,10.4,84.949,90,0,NaN,14.997,1013.2,340.39,0.01,0.066939,1.0408
0.14,0.54117,10.164,92.247,10.164,92.247,0,0,0,0,0,0,28.61,-80.6,9.7922,10.996,0,0,0,20421,3654.1,17.522,0.027688,NaN,176.24,NaN,0.030418,2018220,2084.7,0.52868,0.78068,0.94789,0.47614,0.18442,0.12012,NaN,NaN,NaN,NaN,NaN,NaN,NaN,NaN,0.0013013,10.4,84.949,90,0,NaN,14.996,1013.2,340.39,0.0098389,0.070407,1.2654
0.14984,0.64563,11.072,90.835,11.072,90.835,0,0,0,0,0,0,28.61,-80.6,9.7922,10.165,0,0,0,20409,3641.8,17.515,0.027679,NaN,176.19,NaN,0.033046,2192608,2054.8,0.60771,0.77347,0.92315,0.46889,0.18443,0.12014,NaN,NaN,NaN,NaN,NaN,NaN,NaN,NaN,0.0014176,10.4,84.949,90,0,NaN,14.996,1013.2,340.39,0.0090318,0.073263,1.5016
0.15887,0.74934,11.893,90.379,11.893,90.379,0,0,0,0,0,0,28.61,-80.6,9.7922,9.4883,0,0,0,20398,3630.7,17.508,0.027672,NaN,176.15,NaN,0.035424,2350356,2044.3,0.68282,0.76755,0.90268,0.46295,0.18444,0.12016,NaN,NaN,NaN,NaN,NaN,NaN,NaN,NaN,0.0015227,10.4,84.949,90,0,NaN,14.995,1013.2,340.39,0.0084084,0.07711,1.7326
0.16728,0.85254,12.653,89.947,12.653,89.947,0,0,0,0,0,0,28.61,-80.6,9.7922,8.9372,0,0,0,20388,3620.9,17.502,0.027665,NaN,176.12,NaN,0.03763,2496711,2034.5,0.75602,0.76251,0.8857,0.45787,0.18445,0.12018,NaN,NaN,NaN,NaN,NaN,NaN,NaN,NaN,0.0016201,10.4,84.949,90,0,NaN,14.994,1013.2,340.39,0.0079031,0.081249,1.9612
0.17518,0.95535,13.365,89.538,13.365,89.538,0,0,0,0,0,0,28.61,-80.6,9.7922,8.4772,0,0,0,20379,3611.7,17.497,0.027658,NaN,176.08,NaN,0.039697,2633789,2025.3,0.82771,0.75811,0.87137,0.45344,0.18446,0.1202,NaN,NaN,NaN,NaN,NaN,NaN,NaN,NaN,0.0017111,10.4,84.949,90,0,NaN,14.994,1013.1,340.39,0.0074825,0.084041,2.1878
0.18266,1.0579,14.035,89.148,14.035,89.148,0,0,0,0,0,0.09903,28.61,-80.6,9.7922,8.0856,0,0,0,20370,3603,17.492,0.027652,180.44,176.05,0.42159,0.041646,2763113,2014.1,0.89816,0.75423,0.85909,0.44953,0.18447,0.12023,1.8945,0.79832,-2.67E-04,0,0,0,0,0,0.001797,10.4,84.949,90,0,NaN,14.993,1013.1,340.38,0.011224,0.087862,2.4128
0.19389,1.221,15.035,88.529,15.035,88.529,-6.33E-06,0,6.33E-06,-180,0.0011368,0.10351,28.61,-80.6,9.7922,7.5608,0,0.0035549,-7.55E-07,20359,3592.5,17.485,0.027645,181.14,176.01,0.49254,0.044558,2956228,2003.6,1.0084,0.74884,0.84263,0.44409,0.18449,0.12026,1.7283,0.85129,2.29E-04,0,0,0,0,1.53E-07,0.001925,10.4,84.949,90,0,NaN,14.992,1013.1,340.38,0.016836,0.10251,2.7688
0.21072,1.4867,16.527,89.088,16.527,89.088,-4.05E-05,0,4.05E-05,-180,0.0029329,0.10945,28.61,-80.6,9.7922,6.8669,0,0.010221,-3.46E-06,20344,3576.7,17.476,0.027634,182.12,175.96,0.59279,0.048905,3244552,2015.6,1.1838,0.74159,0.82117,0.43676,0.18452,0.12031,1.5175,0.89977,4.88E-04,0,0,0,0,1.05E-06,0.002116,10.4,84.949,90,0.01781,NaN,14.99,1013.1,340.38,0.025253,0.10588,3.3455
0.23598,1.9325,18.782,90.156,18.782,90.156,-1.50E-04,0,1.50E-04,-180,0.0058002,0.11743,28.61,-80.6,9.7922,6.0037,0,0.023262,-2.42E-06,20320,3552.8,17.461,0.027617,183.45,175.87,0.72912,0.055483,3680860,2036.6,1.4748,0.73207,0.7949,0.42711,0.18456,0.1204,1.2698,0.92602,-5.60E-05,0,0,0,0,4.24E-06,0.0024047,10.4,84.949,89.999,0.014181,NaN,14.987,1013,340.38,0.03788,0.10834,4.3205
0.27386,2.7088,22.209,91.761,22.209,91.761,-4.57E-04,0,4.57E-04,-180,0.010415,0.12413,28.61,-80.6,9.7922,4.905,0,0.049673,-1.03E-06,20284,3516.9,17.44,0.027592,185.34,175.74,0.92325,0.065487,4344235,2065.9,1.9737,0.72009,0.76366,0.41489,0.18464,0.12056,0.97807,0.90255,2.34E-04,0,0,0,0,1.39E-05,0.0028435,10.4,84.949,89.998,0.0057691,NaN,14.982,1012.9,340.38,0.05,0.11175,6.0405
0.32386,3.9343,26.814,93.407,26.814,93.407,-0.0011338,0,0.0011338,-180,0.016725,0.13022,28.61,-80.6,9.7922,3.9068,0,0.096432,1.50E-05,20234,3467,17.409,0.027556,187.27,175.55,1.1272,0.078963,5237688,2090.9,2.7643,0.70727,0.73574,0.4017,0.18476,0.12081,0.73594,0.82945,-3.22E-04,0,0,0,0,3.59E-05,0.0034332,10.4,84.949,89.995,-1.66E-04,NaN,14.974,1012.8,340.37,0.05,0.11428,8.8048
0.37386,5.392,31.496,92.164,31.496,92.164,-0.0021362,-6.86E-09,0.0021362,-180,0.023368,0.13048,28.61,-80.6,9.7922,3.1857,0,0.15704,2.05E-05,20177,3410.4,17.375,0.027517,188.83,175.34,1.2969,0.092679,6146639,2060.9,3.7061,0.6969,0.71618,0.39087,0.18491,0.12112,0.57467,0.74497,-4.42E-04,0,0,0,0,6.92E-05,0.0040325,10.4,84.949,89.988,-0.004498,NaN,14.965,1012.6,340.37,0.05,0.11684,12.146
0.42386,7.0822,36.114,90.408,36.114,90.408,-0.0034626,-2.06E-08,0.0034626,-180,0.029581,0.11848,28.61,-80.6,9.7922,2.5783,0,0.22848,1.55E-05,20121,3354.3,17.34,0.027477,190.25,175.13,1.4541,0.10622,7043409,2020.9,4.7661,0.68853,0.70134,0.38197,0.18509,0.12147,0.44774,0.65116,-4.72E-04,0,0,0,0,1.12E-04,0.0046239,10.4,84.949,89.979,-0.0053119,NaN,14.954,1012.4,340.36,0.05,0.12004,15.967
0.47386,9.0011,40.645,88.635,40.645,88.635,-0.0050828,-4.86E-08,0.0050828,-180,0.035175,0.11369,28.61,-80.6,9.7921,2.3,0,0.31014,4.58E-05,20065,3298.3,17.306,0.027438,190.95,174.92,1.5412,0.11952,7924287,1980.9,5.9517,0.68162,0.69184,0.37449,0.18528,0.12186,0.39235,0.60447,-2.71E-04,0,0,0,0,1.62E-04,0.005204,10.4,84.949,89.965,-0.0057226,NaN,14.941,1012.2,340.35,0.05,0.12291,20.22
0.52386,11.144,45.087,86.997,45.087,86.997,-0.0069853,-9.81E-08,0.0069853,-180,0.040865,0.10812,28.61,-80.6,9.7921,2.1429,0,0.40931,5.34E-05,20009,3242.4,17.271,0.027398,191.36,174.71,1.6009,0.13257,8787971,1943.9,7.2653,0.67773,0.68661,0.36996,0.18549,0.12228,0.36186,0.5795,4.48E-04,0,0,0,0,2.30E-04,0.0057727,10.4,84.949,89.947,-0.0066813,NaN,14.928,1011.9,340.35,0.05,0.12579,24.876
0.57386,13.508,49.446,86.341,49.446,86.341,-0.0091539,-1.80E-07,0.0091539,-180,0.045694,0.087271,28.61,-80.6,9.7921,1.9585,0,0.52196,4.58E-05,19954,3187.1,17.236,0.02736,191.85,174.5,1.6681,0.14538,9634923,1927,8.7237,0.67829,0.68577,0.36983,0.18572,0.12275,0.32675,0.54474,3.99E-04,0,0,0,0,3.11E-04,0.0063308,10.4,84.949,89.924,-0.0060413,NaN,14.912,1011.7,340.34,0.05,0.12816,29.913
0.62386,16.088,53.772,85.852,53.772,85.852,-0.011538,-3.06E-07,0.011538,-180,0.049385,0.056734,28.61,-80.6,9.7921,1.8058,0,0.65011,3.61E-05,19900,3133.1,17.202,0.027322,192.27,174.29,1.7281,0.15809,10475053,1913.6,10.306,0.6789,0.6853,0.36968,0.18596,0.12325,0.29825,0.5146,-3.61E-05,0,0,0,0,4.08E-04,0.0068847,10.4,84.949,89.895,-0.0054334,NaN,14.895,1011.4,340.33,0.05,0.13073,35.367
0.67386,18.884,58.073,85.408,58.073,85.408,-0.014059,-4.84E-07,0.014059,-180,0.050999,0.0026762,28.61,-80.6,9.7921,1.5967,0,0.79011,6.98E-05,19847,3080,17.169,0.027284,192.85,174.09,1.8037,0.17072,11309472,1901.4,12.003,0.67955,0.68461,0.36953,0.18623,0.12379,0.26005,0.46881,-3.29E-05,0,0,0,0,5.16E-04,0.0074354,10.4,84.949,89.859,-0.0049017,NaN,14.877,1011,340.31,0.05,0.13474,41.241
0.72386,21.895,62.352,85.325,62.352,85.326,-0.016581,-7.27E-07,0.016581,-180,0.049229,0.077503,28.61,-80.6,9.7921,1.3484,0,0.93439,5.96E-05,19794,3027.1,17.135,0.027247,193.56,173.89,1.8919,0.18329,12138730,1896.6,13.816,0.68025,0.6839,0.36937,0.18652,0.12437,0.21592,0.40784,-1.78E-04,0,0,0,0,6.27E-04,0.0079832,10.4,84.949,89.816,-0.004635,NaN,14.858,1010.7,340.3,0.05,0.13785,47.528
0.77386,25.119,66.626,85.3,66.626,85.3,-0.018905,-1.04E-06,0.018905,-180,0.043036,0.1608,28.61,-80.6,9.7921,1.1887,0,1.0776,8.12E-05,19742,2975.1,17.102,0.027211,194.04,173.68,1.9572,0.19585,12967056,1893.1,15.768,0.681,0.68386,0.36919,0.18682,0.12499,0.18828,0.36798,1.30E-04,0,0,0,0,7.30E-04,0.0085305,10.4,84.949,89.765,-0.0045553,NaN,14.837,1010.3,340.29,0.05,0.14034,54.251
0.82386,28.557,70.899,85.266,70.899,85.266,-0.020824,-1.45E-06,0.020824,-180,0.03278,0.27115,28.61,-80.6,9.7921,0.98827,0,1.2297,4.50E-05,19690,2923.4,17.069,0.027174,194.65,173.48,2.0353,0.20841,13794245,1889.6,17.845,0.6818,0.68379,0.369,0.18715,0.12565,0.15436,0.31372,5.98E-05,0,0,0,0,8.40E-04,0.0090775,10.4,84.949,89.708,-0.0041391,NaN,14.814,1009.9,340.28,0.05,0.14336,61.413
0.87386,32.209,75.17,85.225,75.17,85.226,-0.022058,-1.95E-06,0.022058,-179.99,0.015333,0.41961,28.61,-80.6,9.7921,0.71226,0,1.3591,3.32E-05,19639,2871.7,17.036,0.027138,195.52,173.28,2.1381,0.22096,1.46E+07,1886.1,20.047,0.68264,0.68369,0.3688,0.1875,0.12635,0.10909,0.23206,1.00E-04,0,0,0,0,9.12E-04,0.0096243,10.4,84.949,89.643,-0.003419,NaN,14.791,1009.5,340.26,0.05,0.14595,69.011
0.92386,36.074,79.438,85.176,79.438,85.178,-0.022238,-2.56E-06,0.022238,-179.99,0.0092391,0.55085,28.61,-80.6,9.7921,0.58394,0,1.4707,-6.67E-05,19587,2820.1,17.003,0.027102,195.94,173.08,2.1984,0.23351,15445500,1882.6,22.398,0.68354,0.68425,0.36859,0.18786,0.12709,0.088627,0.19417,2.57E-06,0,0,0,0,9.57E-04,0.010171,10.4,84.949,89.572,-0.0025447,NaN,14.766,1009,340.25,0.05,0.14852,77.044
0.97386,40.153,83.705,85.12,83.705,85.123,-0.021036,-3.25E-06,0.021036,-179.99,0.039884,0.67551,28.61,-80.6,9.7921,0.52978,0,1.5841,1.04E-04,19535,2768.4,16.969,0.027065,196.13,172.87,2.2365,0.24606,1.63E+07,1879.1,24.889,0.68449,0.68508,0.36837,0.18825,0.12787,0.08011,0.17776,8.23E-06,0,0,0,0,1.00E-03,0.010717,10.4,84.949,89.496,-0.0019855,NaN,14.739,1008.5,340.23,0.05,0.15589,85.508
1.0239,44.444,87.968,85.056,87.968,85.06,-0.018139,-4.01E-06,0.018139,-179.99,0.077169,0.81552,28.61,-80.6,9.792,0.46372,0,1.6975,-1.35E-05,19484,2716.8,16.935,0.027029,196.36,172.67,2.2786,0.25861,17093227,1875.6,27.513,0.68549,0.68594,0.36813,0.18866,0.12869,0.069801,0.15825,-3.13E-04,0,0,0,0,0.0010393,0.011263,10.4,84.949,89.414,-0.0019002,NaN,14.711,1008,340.21,0.05,0.15961,94.402
1.0739,48.949,92.227,84.985,92.227,84.991,-0.013197,-4.85E-06,0.013197,-179.98,0.12189,0.97601,28.61,-80.6,9.792,0.37411,0,1.8058,-2.91E-05,19432,2665.1,16.902,0.026993,196.68,172.46,2.3286,0.27115,17914819,1872.1,30.268,0.68653,0.68683,0.36789,0.18909,0.12956,0.055957,0.12885,-2.87E-05,0,0,0,0,0.00107,0.011808,10.4,84.949,89.326,-0.0015509,NaN,14.682,1007.5,340.2,0.05,0.16246,103.72
1.1239,53.667,96.483,84.906,96.484,84.914,-0.0058064,-5.74E-06,0.0058064,-179.94,0.17524,1.1551,28.61,-80.6,9.792,0.26936,0,1.8965,2.15E-04,19380,2613.4,16.868,0.026956,197.05,172.25,2.3841,0.28367,18734752,1868.6,33.157,0.68763,0.68778,0.36763,0.18954,0.13046,0.039989,0.094552,2.11E-04,0,0,0,0,0.0010784,0.012353,10.4,84.949,89.234,-0.00153,NaN,14.651,1007,340.18,0.05,0.16561,113.47
1.1739,58.597,100.74,84.819,100.74,84.83,0.0044797,-6.70E-06,0.0044797,-0.085748,0.23788,1.3537,28.61,-80.6,9.792,0.14712,0,1.964,5.43E-04,19329,2561.8,16.833,0.02692,197.48,172.04,2.4461,0.29619,19552884,1865.1,36.181,0.68877,0.68882,0.36736,0.19001,0.1314,0.021648,0.051819,3.45E-04,0,0,0,0,0.0010611,0.012898,10.4,84.949,89.137,-0.0019613,NaN,14.619,1006.4,340.16,0.05,0.16885,123.63
1.2239,63.74,104.98,84.724,104.98,84.738,0.018159,-7.76E-06,0.018159,-0.024493,0.31087,1.5415,28.61,-80.6,9.792,0.074932,0,1.9936,0.0011834,19277,2510.1,16.799,0.026884,197.75,171.83,2.4923,0.3087,2.04E+07,1861.6,39.344,0.68996,0.68998,0.36708,0.1905,0.13239,0.01097,0.02608,-4.94E-04,0,0,0,0,0.0010065,0.013442,10.4,84.949,89.038,-0.0025747,NaN,14.586,1005.8,340.14,0.05,0.17246,134.21
1.2739,69.096,109.23,84.621,109.23,84.638,0.035698,-8.99E-06,0.035698,-0.014427,0.39211,1.7059,28.61,-80.6,9.792,0.0665,0,2.0212,0.0016613,19225,2458.4,16.764,0.026847,197.8,171.62,2.5176,0.3212,21184660,1858.1,42.646,0.69121,0.69122,0.36679,0.19101,0.13341,0.0097332,0.023382,-3.51E-04,0,0,0,0,9.56E-04,0.013985,10.4,84.949,88.937,-0.0032733,NaN,14.551,1005.1,340.12,0.05,0.17528,145.2
1.3239,74.663,113.46,84.51,113.46,84.531,0.057512,-1.05E-05,0.057512,-0.010415,0.48201,1.8923,28.61,-80.6,9.7919,0.018851,0,2.0415,0.0056752,19174,2406.8,16.73,0.026811,197.99,171.41,2.5562,0.33369,21997554,1854.6,46.082,0.6925,0.6925,0.36648,0.19154,0.13448,0.0027502,0.0059752,3.74E-05,0,0,0,0,9.04E-04,0.014527,10.4,84.949,88.836,-0.0033416,NaN,14.515,1004.5,340.09,0.05,0.17828,156.61
1.3739,80.442,117.69,84.391,117.7,84.417,0.084066,-1.22E-05,0.084066,-0.0083026,0.58186,2.0921,28.61,-80.6,9.7919,0.046549,0,-2.0325,0.0023264,19122,2355.1,16.695,0.026775,197.92,171.19,2.5697,0.34616,22808167,1851.1,49.654,0.69384,0.69384,0.36617,0.19209,0.13558,0.0068086,0.018255,-3.37E-04,0,0,0,0,-8.32E-04,0.015069,10.4,84.949,88.734,-0.0030146,NaN,14.477,1003.8,340.07,0.05,0.18064,168.42
1.4239,86.432,121.92,84.263,121.92,84.295,0.11586,-1.41E-05,0.11586,-0.0069891,0.69164,2.295,28.61,-80.6,9.7919,0.11186,0,-1.9929,9.10E-04,19070,2303.4,16.66,0.026738,197.72,170.98,2.571,0.35862,23616501,1847.6,53.362,0.69522,0.69525,0.36584,0.19266,0.13672,0.016449,0.042886,-6.57E-05,0,0,0,0,-7.46E-04,0.01561,10.4,84.949,88.633,-0.0022818,NaN,14.438,1003.1,340.05,0.05,0.18388,180.62
1.4739,92.633,126.14,84.128,126.14,84.165,0.1534,-1.62E-05,0.1534,-0.0060632,0.81176,2.4948,28.61,-80.6,9.7919,0.17151,0,-1.9122,6.39E-04,19019,2251.8,16.625,0.026702,197.54,170.76,2.5745,0.37106,24422471,1844.1,57.208,0.69666,0.69672,0.36551,0.19325,0.1379,0.025347,0.065652,2.12E-04,0,0,0,0,-6.41E-04,0.01615,10.4,84.949,88.535,-0.0012585,NaN,14.398,1002.4,340.02,0.05,0.19399,193.23
1.5239,99.046,130.35,83.984,130.35,84.027,0.19719,-1.83E-05,0.19719,-0.0053307,0.94149,2.6916,28.61,-80.6,9.7919,0.23057,0,-1.7977,2.00E-04,18967,2200.1,16.589,0.026666,197.36,170.55,2.5786,0.38348,25225894,1840.6,61.191,0.69814,0.69825,0.36516,0.19386,0.13912,0.034245,0.088792,3.71E-05,0,0,0,0,-5.31E-04,0.01669,10.4,84.949,88.442,-6.61E-04,NaN,14.356,1001.6,340,0.05,0.19836,206.23
1.5739,105.67,134.55,83.831,134.56,83.881,0.24772,-2.04E-05,0.24772,-0.0047119,1.0814,2.8903,28.61,-80.6,9.7919,0.29994,0,-1.6299,2.88E-04,18915,2148.4,16.553,0.026629,197.16,170.33,2.5798,0.39589,26026504,1837.1,65.312,0.69967,0.69986,0.3648,0.19449,0.14037,0.044801,0.11566,1.10E-04,0,0,0,0,-4.09E-04,0.017228,10.4,84.949,88.356,-2.78E-04,NaN,14.313,1000.9,339.97,0.05,0.20978,219.61
1.6239,112.5,138.75,83.671,138.76,83.727,0.30549,-2.22E-05,0.30549,-0.0041709,1.2307,3.0696,28.61,-80.6,9.7918,0.35631,0,-1.4074,5.64E-04,18864,2096.8,16.518,0.026593,197,170.11,2.5855,0.40827,26824387,1833.6,69.57,0.70124,0.70152,0.36443,0.19514,0.14167,0.053472,0.13823,3.78E-04,0,0,0,0,-2.87E-04,0.017766,10.4,84.949,88.28,5.14E-04,NaN,14.269,1000.1,339.95,0.05,0.2133,233.37
1.6739,119.54,142.94,83.482,142.95,83.544,0.37093,-2.38E-05,0.37093,-0.0036717,1.3885,3.229,28.61,-80.6,9.7918,0.40683,0,-1.1324,5.39E-04,18812,2045.1,16.482,0.026557,196.86,169.89,2.5934,0.42063,27619323,1829.7,73.964,0.70286,0.70322,0.36405,0.19581,0.143,0.061314,0.15952,-2.08E-04,0,0,0,0,-1.75E-04,0.018302,10.4,84.949,88.217,0.0016311,NaN,14.223,999.23,339.92,0.05,0.2162,247.51
1.7239,126.79,147.12,83.148,147.13,83.216,0.44446,-2.47E-05,0.44446,-0.0031859,1.5539,3.3721,28.61,-80.6,9.7918,0.46508,0,-0.79885,4.31E-04,18761,1994,16.446,0.026521,196.7,169.67,2.599,0.43296,28410774,1823.3,78.495,0.70453,0.705,0.36366,0.1965,0.14437,0.070432,0.18329,-4.19E-04,0,0,0,0,-8.23E-05,0.018837,10.4,84.949,88.168,0.0025834,NaN,14.176,998.38,339.89,0.05,0.22399,262.02
1.7739,134.25,151.28,82.776,151.29,82.848,0.52643,-2.48E-05,0.52643,-0.0027044,1.7258,3.4693,28.61,-80.6,9.7918,0.50139,0,-0.39466,7.98E-04,18711,1944.2,16.411,0.026486,196.61,169.45,2.6112,0.44524,29197572,1816.4,83.15,0.70624,0.70678,0.36326,0.19721,0.14577,0.076175,0.19925,1.17E-04,0,0,0,0,-1.90E-05,0.019371,10.4,84.949,88.138,0.0036724,NaN,14.127,997.5,339.86,0.05,0.2269,276.86
1.8239,141.92,155.42,82.395,155.43,82.469,0.61708,-2.39E-05,0.61708,-0.0022218,1.9005,3.4827,28.61,-80.6,9.7917,0.4863,0,0.043738,5.00E-04,18662,1895.1,16.376,0.026451,196.69,169.24,2.6395,0.45748,3.00E+07,1809.5,87.918,0.70799,0.7085,0.36285,0.19793,0.14721,0.073841,0.19453,-3.02E-04,0,0,0,0,2.21E-07,0.019901,10.4,84.949,88.129,0.0047271,NaN,14.078,996.6,339.83,0.05,0.2296,292.03
1.8739,149.8,159.54,82.008,159.56,82.08,0.71645,-2.17E-05,0.71645,-0.0017339,2.0741,3.4498,28.61,-80.6,9.7917,0.46244,0,0.48238,0.0012847,18613,1845.9,16.341,0.026417,196.8,169.02,2.6707,0.46966,30756522,1802.7,92.804,0.70978,0.71025,0.36244,0.19867,0.14868,0.070136,0.18772,-1.51E-04,0,0,0,0,2.55E-05,0.020429,10.4,84.949,88.142,0.0059882,NaN,14.026,995.68,339.8,0.05,0.23234,307.5
1.9239,157.88,163.65,81.613,163.66,81.683,0.82446,-1.78E-05,0.82446,-0.0012385,2.2457,3.3923,28.61,-80.6,9.7917,0.44993,0,0.93751,0.0016713,18564,1796.7,16.306,0.026382,196.87,168.81,2.6986,0.48179,31527664,1795.8,97.811,0.71162,0.71206,0.36201,0.19943,0.15018,0.068214,0.18416,-4.53E-05,0,0,0,0,9.16E-05,0.020955,10.4,84.949,88.178,0.0080782,NaN,13.974,994.73,339.77,0.05,0.23563,323.28
1.9739,166.16,167.73,81.213,167.75,81.278,0.94095,-1.19E-05,0.94095,-7.26E-04,2.413,3.2523,28.61,-80.6,9.7917,0.40024,0,1.3992,0.0017568,18515,1747.5,16.271,0.026347,197.07,168.59,2.7384,0.49386,32293643,1788.9,102.93,0.71349,0.71384,0.36157,0.20021,0.15171,0.060496,0.16557,3.12E-04,0,0,0,0,1.94E-04,0.021478,10.4,84.949,88.236,0.010176,NaN,13.92,993.76,339.73,0.05,0.24124,339.36
2.0239,174.65,171.8,80.808,171.82,80.864,1.0656,-3.63E-06,1.0656,-1.95E-04,2.5703,3.0028,28.61,-80.6,9.7916,0.29452,0,1.7971,0.0016038,18465,1698.4,16.235,0.026313,197.46,168.37,2.7966,0.50588,33054677,1782,108.16,0.7154,0.71559,0.36113,0.201,0.15327,0.044197,0.12379,-6.09E-05,0,0,0,0,3.05E-04,0.021999,10.4,84.949,88.316,0.011352,NaN,13.865,992.77,339.7,0.05,0.24381,355.72
2.0739,183.34,175.84,80.395,175.86,80.44,1.1977,7.26E-06,1.1977,3.47E-04,2.7132,2.6964,28.61,-80.6,9.7916,0.17321,0,2.0746,0.0029408,18416,1649.2,16.2,0.026278,197.9,168.15,2.8606,0.51784,3.38E+07,1775.2,113.5,0.71734,0.71741,0.36067,0.20181,0.15486,0.025775,0.07378,-2.81E-04,0,0,0,0,3.88E-04,0.022517,10.4,84.949,88.414,0.011844,NaN,13.808,991.75,339.67,0.05,0.2463,372.36
2.1239,192.23,179.86,79.973,179.88,80.009,1.3366,2.08E-05,1.3366,8.90E-04,2.8404,2.3824,28.61,-80.6,9.7916,0.066909,0,2.2226,0.0072427,18367,1600,16.164,0.026244,198.31,167.93,2.9205,0.52974,3.46E+07,1768.3,118.97,0.71933,0.71934,0.36021,0.20264,0.15648,0.0098836,0.028274,-2.96E-04,0,0,0,0,4.26E-04,0.023032,10.4,84.949,88.522,0.012358,NaN,13.75,990.7,339.63,0.05,0.24898,389.26
2.1739,201.32,183.86,79.542,183.89,79.568,1.4815,3.68E-05,1.4815,0.0014219,2.9519,2.058,28.61,-80.6,9.7916,0.034997,0,-2.2448,0.013355,18318,1550.9,16.128,0.026209,198.45,167.71,2.9561,0.54158,35303458,1761.4,124.56,0.72135,0.72135,0.35974,0.20348,0.15813,0.0051607,0.016153,-3.19E-04,0,0,0,0,-4.16E-04,0.023545,10.4,84.949,88.634,0.012685,NaN,13.691,989.64,339.6,0.05,0.25133,406.42
2.2239,210.62,187.84,79.101,187.87,79.119,1.6315,5.51E-05,1.6315,0.0019346,3.0463,1.6789,28.61,-80.6,9.7915,0.16767,0,-2.1118,0.0029122,18269,1501.7,16.092,0.026175,198.03,167.49,2.937,0.55337,36041807,1754.5,130.28,0.7234,0.72347,0.35926,0.20433,0.15981,0.024989,0.073891,3.01E-04,0,0,0,0,-3.53E-04,0.024055,10.4,84.949,88.744,0.010756,NaN,13.631,988.55,339.56,0.05,0.25988,423.83
2.2739,220.11,191.8,78.65,191.83,78.661,1.7858,7.53E-05,1.7858,0.0024163,3.1206,1.3075,28.61,-80.6,9.7915,0.29477,0,-1.7492,0.0016431,18219,1452.5,16.056,0.02614,197.64,167.26,2.9208,0.56509,36774320,1747.7,136.13,0.7255,0.72569,0.35878,0.20521,0.16151,0.04438,0.1299,3.90E-04,0,0,0,0,-2.32E-04,0.024561,10.4,84.949,88.841,0.0083197,NaN,13.569,987.43,339.52,0.05,0.26237,441.48
2.3239,229.8,195.73,78.188,195.76,78.195,1.9433,9.69E-05,1.9433,0.0028563,3.179,1.0306,28.61,-80.6,9.7915,0.37412,0,-1.2186,6.95E-04,18170,1403.3,16.019,0.026105,197.42,167.04,2.9208,0.57675,3.75E+07,1740.8,142.08,0.72762,0.72793,0.35828,0.20609,0.16324,0.056697,0.16593,2.38E-04,0,0,0,0,-1.08E-04,0.025065,10.4,84.949,88.916,0.0067321,NaN,13.506,986.3,339.48,0.05,0.26512,459.34
2.3739,239.68,199.65,77.717,199.67,77.721,2.1035,1.20E-04,2.1035,0.003255,3.2255,0.83411,28.61,-80.6,9.7914,0.42693,0,-0.55372,9.52E-04,18121,1354.2,15.982,0.026071,197.28,166.81,2.9296,0.58835,3.82E+07,1733.9,148.13,0.72978,0.73018,0.35778,0.20699,0.165,0.064998,0.19013,-2.32E-05,0,0,0,0,-2.15E-05,0.025566,10.4,84.949,88.961,0.0045065,NaN,13.442,985.14,339.44,0.05,0.26758,477.43
2.4239,249.76,203.53,77.236,203.56,77.239,2.2658,1.43E-04,2.2658,0.0036105,3.2646,0.73623,28.61,-80.6,9.7914,0.45126,0,0.21044,2.85E-05,18072,1305,15.945,0.026036,197.24,166.59,2.9478,0.59988,38933868,1727,154.28,0.73197,0.73242,0.35727,0.20791,0.16678,0.068874,0.20325,3.62E-04,0,0,0,0,2.98E-06,0.026064,10.4,84.949,88.97,0.0032248,NaN,13.377,983.96,339.41,0.05,0.27408,495.72
2.4739,260.03,207.4,76.728,207.42,76.732,2.4299,1.67E-04,2.4299,0.0039271,3.3022,0.81759,28.61,-80.6,9.7914,0.4108,0,1.0184,-6.28E-05,18023,1255.8,15.908,0.026002,197.42,166.36,2.9866,0.61133,39640648,1719.8,160.5,0.73418,0.73456,0.35676,0.20884,0.16858,0.06256,0.18717,-4.54E-04,0,0,0,0,6.73E-05,0.026558,10.4,84.949,88.939,0.0034701,NaN,13.31,982.75,339.36,0.05,0.27583,514.2
2.5239,270.5,211.23,76.09,211.26,76.097,2.5961,1.91E-04,2.5961,0.0042097,3.3496,1.0937,28.61,-80.6,9.7913,0.301,3.62E-07,1.7049,3.19E-04,17975,1207.6,15.872,0.025968,197.83,166.13,3.0477,0.62271,4.03E+07,1710.6,166.78,0.73643,0.73663,0.35624,0.20978,0.17041,0.045503,0.13856,-3.27E-04,0,0,0,0,1.82E-04,0.02705,10.4,84.949,88.87,0.0035647,NaN,13.242,981.52,339.32,0.05,0.27736,532.87
2.5739,281.16,215.04,75.41,215.07,75.424,2.7651,2.15E-04,2.7651,0.0044638,3.4137,1.4472,28.61,-80.6,9.7913,0.17938,3.86E-07,2.1787,9.52E-04,17928,1161.3,15.837,0.025935,198.28,165.91,3.1125,0.634,41031781,1700.9,173.17,0.7387,0.73877,0.35571,0.21073,0.17225,0.026895,0.083798,3.84E-04,0,0,0,0,2.86E-04,0.027537,10.4,84.949,88.772,0.0028132,NaN,13.172,980.28,339.28,0.05,0.27888,551.66
2.6239,292,218.81,74.716,218.84,74.738,2.9378,2.41E-04,2.9378,0.0046927,3.4956,1.8111,28.61,-80.6,9.7913,0.071355,3.91E-07,2.4376,0.0032212,17883,1116,15.802,0.025903,198.7,165.7,3.1732,0.64519,41715579,1691.2,179.65,0.741,0.74101,0.35518,0.2117,0.17412,0.010621,0.033569,-4.46E-04,0,0,0,0,3.46E-04,0.02802,10.4,84.949,88.656,0.0021073,NaN,13.102,979,339.24,0.05,0.28038,570.58
2.6739,303.04,222.54,74.011,222.57,74.044,3.115,2.66E-04,3.115,0.0048947,3.596,2.2018,28.61,-80.6,9.7912,0.039472,4.16E-07,-2.4767,0.0054658,17838,1070.7,15.767,0.025872,198.86,165.48,3.209,0.6563,42390913,1681.6,186.21,0.74331,0.74332,0.35465,0.21267,0.17599,0.0058657,0.019603,-1.52E-04,0,0,0,0,-3.46E-04,0.028498,10.4,84.949,88.532,0.0021114,NaN,13.03,977.71,339.2,0.05,0.2824,589.6
2.7239,314.26,226.24,73.296,226.27,73.343,3.2977,2.92E-04,3.2977,0.0050743,3.7169,2.62,28.61,-80.6,9.7912,0.15872,4.64E-07,-2.2481,0.0012418,17792,1025.4,15.732,0.02584,198.49,165.27,3.1945,0.66729,43057340,1671.9,192.86,0.74565,0.74571,0.35411,0.21365,0.17789,0.023816,0.07675,-6.47E-05,0,0,0,0,-2.76E-04,0.028972,10.4,84.949,88.413,0.0035427,NaN,12.957,976.39,339.15,0.05,0.28424,608.71
2.7739,325.66,229.91,72.574,229.94,72.634,3.487,3.19E-04,3.487,0.0052392,3.8579,2.9644,28.61,-80.6,9.7912,0.2491,4.82E-07,-1.7411,8.70E-04,17747,980.11,15.697,0.025808,198.23,165.05,3.1902,0.67819,43715194,1662.3,199.59,0.748,0.74815,0.35356,0.21465,0.17979,0.03766,0.11993,4.26E-04,0,0,0,0,-1.60E-04,0.029441,10.4,84.949,88.312,0.0044525,NaN,12.883,975.06,339.11,0.05,0.28708,627.89
2.8239,337.25,233.53,71.847,233.57,71.918,3.6837,3.47E-04,3.6837,0.0053935,4.0125,3.2021,28.61,-80.6,9.7911,0.30722,6.26E-07,-1.0496,5.23E-04,17702,934.81,15.662,0.025776,198.08,164.83,3.1969,0.68899,44364271,1652.6,206.38,0.75038,0.75059,0.35302,0.21565,0.18171,0.046681,0.14897,-1.17E-04,0,0,0,0,-5.64E-05,0.029906,10.4,84.949,88.241,0.0050423,NaN,12.808,973.7,339.06,0.05,0.28966,647.14
2.8739,349.01,237.13,71.117,237.16,71.195,3.8885,3.76E-04,3.8885,0.0055419,4.1771,3.3328,28.61,-80.6,9.7911,0.34105,4.94E-07,-0.19862,0.0010486,17657,889.52,15.626,0.025744,198.01,164.61,3.2117,0.69968,45004189,1642.9,213.22,0.75276,0.75303,0.35247,0.21665,0.18364,0.051993,0.16742,4.74E-04,0,0,0,0,-1.96E-06,0.030366,10.4,84.949,88.21,0.0067134,NaN,12.731,972.32,339.01,0.05,0.29122,666.44
2.9239,360.96,240.68,70.388,240.72,70.464,4.1015,4.07E-04,4.1015,0.0056882,4.3438,3.2656,28.61,-80.6,9.7911,0.32062,3.61E-07,0.71522,6.38E-04,17611,844.23,15.59,0.025712,198.13,164.39,3.2442,0.71027,45635405,1633.3,220.1,0.75517,0.75541,0.35191,0.21767,0.18558,0.048844,0.15889,1.08E-04,0,0,0,0,2.46E-05,0.030822,10.4,84.949,88.223,0.0076473,NaN,12.654,970.92,338.97,0.05,0.29274,685.77
2.9739,373.08,244.2,69.66,244.24,69.725,4.3227,4.40E-04,4.3227,0.0058366,4.5017,3.0134,28.61,-80.6,9.791,0.25417,3.48E-07,1.5266,-0.0010598,17566,798.94,15.555,0.02568,198.4,164.17,3.2919,0.72076,46257788,1623.6,227.01,0.75758,0.75773,0.35136,0.21869,0.18753,0.038564,0.12699,1.29E-04,0,0,0,0,1.09E-04,0.031273,10.4,84.949,88.279,0.0070054,NaN,12.575,969.49,338.92,0.05,0.29488,705.14
3.0239,385.38,247.68,68.93,247.72,68.979,4.5514,4.75E-04,4.5514,0.0059833,4.6435,2.5832,28.61,-80.6,9.791,0.14269,4.09E-07,2.1336,-0.0023267,17521,753.64,15.518,0.025649,198.83,163.94,3.3548,0.73115,46871464,1614,233.97,0.76001,0.76006,0.3508,0.21972,0.18949,0.021491,0.071711,-9.30E-05,0,0,0,0,2.07E-04,0.031719,10.4,84.949,88.372,0.0045031,NaN,12.495,968.05,338.87,0.05,0.29725,724.53
3.0739,397.85,251.13,68.194,251.17,68.225,4.7866,5.11E-04,4.7866,0.0061203,4.7596,2.0697,28.61,-80.6,9.791,0.014992,4.32E-07,2.3524,-0.019246,17475,708.35,15.482,0.025617,199.33,163.72,3.424,0.74143,47476121,1604.3,240.99,0.76246,0.76246,0.35024,0.22076,0.19146,0.0022385,0.0073109,-9.98E-05,0,0,0,0,2.45E-04,0.03216,10.4,84.949,88.486,0.0020428,NaN,12.414,966.59,338.82,0.05,0.29927,743.91
3.1239,410.49,254.54,67.45,254.58,67.467,5.027,5.48E-04,5.027,0.0062413,4.8511,1.516,28.61,-80.6,9.7909,0.12012,4.19E-07,-2.2143,-0.0027619,17430,663.06,15.446,0.025585,199.01,163.49,3.4153,0.75161,48071881,1594.7,248.08,0.76491,0.76494,0.34967,0.2218,0.19344,0.018092,0.061853,2.79E-05,0,0,0,0,-2.11E-04,0.032597,10.4,84.949,88.602,3.38E-04,NaN,12.332,965.11,338.77,0.05,0.304,763.29
3.1739,423.3,257.91,66.694,257.95,66.703,5.2712,5.84E-04,5.2712,0.006345,4.9132,1.0471,28.61,-80.6,9.7909,0.22623,5.80E-07,-1.5933,-0.0014334,17385,617.76,15.409,0.025553,198.7,163.27,3.407,0.76168,48658336,1585,255.22,0.76737,0.76749,0.34911,0.22284,0.19542,0.03437,0.11696,4.31E-04,0,0,0,0,-1.06E-04,0.033029,10.4,84.949,88.698,2.01E-04,NaN,12.249,963.6,338.72,0.05,0.30767,782.65
3.2239,436.28,261.24,65.929,261.29,65.934,5.518,6.20E-04,5.518,0.0064341,4.9601,0.82587,28.61,-80.6,9.7908,0.26108,6.83E-07,-0.76409,-0.0011319,17339,572.47,15.373,0.025521,198.63,163.04,3.4225,0.77163,49234804,1575.3,262.37,0.76984,0.77,0.34854,0.22389,0.1974,0.039801,0.1365,-4.27E-05,0,0,0,0,-2.39E-05,0.033455,10.4,84.949,88.758,0.0020812,NaN,12.164,962.08,338.67,0.05,0.31013,801.98
3.2739,449.42,264.53,65.155,264.58,65.16,5.767,6.56E-04,5.767,0.0065143,4.9997,0.79765,28.61,-80.6,9.7908,0.25146,6.31E-07,0.16276,-0.0027541,17294,527.18,15.336,0.025489,198.72,162.81,3.4527,0.78147,49801972,1565.7,269.53,0.77231,0.77246,0.34798,0.22494,0.19939,0.038339,0.13197,-5.73E-05,0,0,0,0,1.06E-06,0.033877,10.4,84.949,88.773,0.0060488,NaN,12.079,960.54,338.62,0.05,0.31261,821.26
3.3239,462.73,267.79,64.373,267.84,64.38,6.0181,6.93E-04,6.0181,0.0065967,5.0435,0.92174,28.61,-80.6,9.7908,0.21275,6.13E-07,0.99053,-0.0021315,17249,481.89,15.299,0.025458,198.9,162.58,3.4926,0.79121,5.04E+07,1556,276.71,0.77479,0.7749,0.34741,0.226,0.20138,0.032373,0.11299,1.38E-04,0,0,0,0,3.82E-05,0.034294,10.4,84.949,88.744,0.01138,NaN,11.992,958.98,338.57,0.05,0.31526,840.48
3.3739,476.2,271,61.639,271.05,61.648,6.2715,7.32E-04,6.2715,0.0066914,5.0944,1.0585,28.61,-80.6,9.7907,0.1731,4.82E-07,1.7136,-0.0035925,17204,436.59,15.261,0.025426,199.09,162.35,3.5331,0.80085,5.09E+07,1512.9,283.92,0.77728,0.77735,0.34684,0.22706,0.20338,0.026287,0.092806,-1.54E-04,0,0,0,0,1.12E-04,0.034706,10.4,84.949,88.676,0.015489,NaN,11.905,957.4,338.51,0.05,0.31956,859.64
3.4239,489.83,274.08,55.794,274.13,55.81,6.5277,7.75E-04,6.5277,0.0068063,5.1552,1.3174,28.61,-80.6,9.7907,0.085032,4.21E-07,2.2615,-0.0081989,17165,397.62,15.229,0.025398,199.45,162.15,3.5867,0.81008,51430935,1416.9,290.9,0.77969,0.77971,0.34629,0.22809,0.20531,0.01284,0.045891,-3.88E-04,0,0,0,0,1.90E-04,0.0351,10.4,84.949,88.575,0.017607,NaN,11.816,955.8,338.46,0.05,0.32248,878.08
3.4739,503.6,276.87,49.89,276.92,49.919,6.7873,8.23E-04,6.7873,0.0069446,5.2349,1.7058,28.61,-80.6,9.7906,0.0402,4.18E-07,-2.3406,-0.015374,17133,365.85,15.203,0.025376,199.66,161.99,3.6222,0.81844,51895868,1320.2,297.27,0.7819,0.7819,0.34579,0.22903,0.20708,0.006055,0.022125,3.98E-05,0,0,0,0,-1.99E-04,0.035457,10.4,84.949,88.458,0.016689,NaN,11.727,954.21,338.41,0.05,0.32511,894.81
3.5239,517.51,279.36,43.997,279.41,44.043,7.0514,8.74E-04,7.0514,0.0071021,5.3324,2.0053,28.61,-80.6,9.7906,0.14282,4.22E-07,-1.9506,-0.0030865,17102,334.96,15.177,0.025354,199.34,161.83,3.6074,0.82594,52307272,1223.5,303.04,0.7839,0.78395,0.34533,0.22989,0.20868,0.02169,0.07794,-4.16E-04,0,0,0,0,-1.36E-04,0.035776,10.4,84.949,88.349,0.013252,NaN,11.636,952.65,338.35,0.05,0.32771,909.79
3.5739,531.53,281.55,38.126,281.61,38.185,7.3207,9.29E-04,7.3207,0.0072698,5.441,2.1265,28.61,-80.6,9.7905,0.20364,0,-1.1995,-0.0021246,17071,304.07,15.151,0.025332,199.17,161.66,3.6065,0.83257,52662452,1126.9,308.14,0.78569,0.78579,0.34492,0.23066,0.21011,0.031085,0.11258,3.72E-04,0,0,0,0,-5.06E-05,0.036057,10.4,84.949,88.269,0.011481,NaN,11.545,951.09,338.3,0.05,0.33033,922.93
3.6239,545.66,283.46,32.282,283.51,32.345,7.5954,9.86E-04,7.5954,0.0074391,5.5501,2.0291,28.61,-80.6,9.7905,0.21514,0,-0.28317,-0.0031944,17040,273.18,15.125,0.025311,199.17,161.5,3.6215,0.83835,52961734,1030.2,312.54,0.78726,0.78737,0.34456,0.23133,0.21137,0.032887,0.119,4.19E-04,0,0,0,0,-2.78E-06,0.036301,10.4,84.949,88.232,0.0070189,NaN,11.453,949.51,338.24,0.05,0.33349,934.21
3.6739,559.87,285.07,26.465,285.13,26.523,7.8754,0.0010446,7.8754,0.0075994,5.6496,1.7571,28.61,-80.6,9.7905,0.18881,0,0.60759,-0.0036972,17009,242.3,15.099,0.025289,199.29,161.34,3.6486,0.84326,53205230,933.54,316.21,0.7886,0.78869,0.34426,0.2319,0.21244,0.028821,0.10487,-2.11E-04,0,0,0,0,1.27E-05,0.036508,10.4,84.949,88.24,0.0016625,NaN,11.361,947.92,338.18,0.05,0.33798,943.6
3.7239,574.16,286.39,20.673,286.45,20.72,8.16,0.0011025,8.16,0.0077413,5.7325,1.3907,28.61,-80.6,9.7904,0.14283,0,1.3366,-0.0049152,16978,211.41,15.073,0.025267,199.47,161.18,3.6818,0.84731,53393069,836.88,319.15,0.78972,0.78977,0.344,0.23238,0.21333,0.021737,0.079743,-4.40E-04,0,0,0,0,6.08E-05,0.036678,10.4,84.949,88.289,-0.0028684,NaN,11.268,946.32,338.13,0.05,0.34092,951.09
3.7739,588.5,287.42,14.904,287.48,14.938,8.4483,0.0011586,8.4483,0.0078574,5.7961,1.0023,28.61,-80.6,9.7904,0.092458,0,1.858,-0.0093944,16948,180.52,15.047,0.025246,199.67,161.02,3.7161,0.8505,53525555,740.21,321.35,0.7906,0.79062,0.3438,0.23276,0.21403,0.014023,0.05227,-3.47E-04,0,0,0,0,1.17E-04,0.03681,10.4,84.949,88.37,-0.0055868,NaN,11.175,944.72,338.07,0.05,0.34369,956.66
3.8239,602.89,288.17,10.355,288.23,10.368,8.7393,0.001212,8.7393,0.0079461,5.8394,0.53054,28.61,-80.6,9.7903,0.0082406,0,2.1321,-0.1128,16917,149.63,15.021,0.025224,199.98,160.85,3.7617,0.85284,53604158,663.76,322.83,0.79125,0.79125,0.34365,0.23304,0.21455,0.0012424,0.0043834,-1.27E-04,0,0,0,0,1.53E-04,0.036906,10.4,84.949,88.472,-0.0083286,NaN,11.081,943.11,338.01,0.05,0.34621,960.31
3.8739,617.31,288.69,7.7051,288.75,7.7057,9.0317,0.0012624,9.0317,0.0080084,5.8552,0.097136,28.61,-80.6,9.7903,0.082041,0,-1.9241,-0.011079,16892,124.94,15,0.025207,199.73,160.72,3.7503,0.85451,5.36E+07,619.24,323.74,0.79171,0.79173,0.34355,0.23324,0.21492,0.012439,0.046313,-2.65E-04,0,0,0,0,-1.24E-04,0.036972,10.4,84.949,88.575,-0.010111,NaN,10.987,941.5,337.96,0.05,0.34877,962.43
3.9239,631.76,289.07,5.0822,289.13,5.0891,9.3245,0.0013096,9.3245,0.0080471,5.8538,0.26574,28.61,-80.6,9.7902,0.15587,0,-1.4087,-0.0043211,16874,107.31,14.985,0.025194,199.48,160.63,3.7355,0.85579,53651150,575.13,324.31,0.79207,0.79213,0.34347,0.23339,0.21521,0.023764,0.089025,-8.53E-05,0,0,0,0,-6.63E-05,0.037021,10.4,84.949,88.66,-0.0088493,NaN,10.894,939.89,337.9,0.05,0.35135,963.67
3.9739,646.22,289.33,2.4111,289.39,2.4846,9.6167,0.0013541,9.6167,0.0080674,5.8331,0.59979,28.61,-80.6,9.7902,0.22495,0,-0.50964,-0.0043507,16858,90.553,14.97,0.025182,199.25,160.54,3.7218,0.8567,53638370,530,324.57,0.79232,0.79244,0.34341,0.2335,0.21541,0.034472,0.12875,3.91E-04,0,0,0,0,-8.66E-06,0.037054,10.4,84.949,88.709,-0.0048891,NaN,10.8,938.27,337.84,0.05,0.3549,964.02
4.0239,660.69,289.45,-0.64448,289.51,0.96121,9.9076,0.0013971,9.9076,0.0080792,5.8006,0.71314,28.61,-80.6,9.7901,0.23669,0,0.60039,-0.0036762,16843,76.04,14.958,0.025172,199.21,160.46,3.7257,0.8572,53600534,478.21,324.45,0.79246,0.7926,0.34338,0.23356,0.21552,0.036304,0.1352,-3.66E-04,0,0,0,0,1.20E-05,0.037069,10.4,84.949,88.707,0.0036636,NaN,10.706,936.66,337.79,0.05,0.35755,963.48
4.0739,675.16,289.42,-3.7586,289.48,3.8059,10.197,0.0014402,10.197,0.0080926,5.769,0.59786,28.61,-80.6,9.7901,0.18934,0,1.6095,-0.0039861,16833,66.237,14.949,0.025165,199.37,160.41,3.7463,0.85726,53534227,425.21,323.92,0.79248,0.79256,0.34337,0.23357,0.21554,0.028942,0.10866,4.03E-04,0,0,0,0,8.63E-05,0.037065,10.4,84.949,88.651,0.011051,NaN,10.611,935.04,337.73,0.05,0.36047,961.92
4.1239,689.62,289.23,-6.8568,289.29,6.8644,10.485,0.0014853,10.485,0.0081166,5.7472,0.32285,28.61,-80.6,9.7901,0.097855,0,2.2985,-0.0053346,16826,58.896,14.943,0.02516,199.69,160.37,3.7803,0.85686,53439160,372.21,322.98,0.79236,0.79239,0.3434,0.23352,0.21545,0.014857,0.05626,-8.32E-06,0,0,0,0,1.76E-04,0.037041,10.4,84.949,88.551,0.01519,NaN,10.517,933.42,337.67,0.05,0.36316,959.34
4.1739,704.08,288.89,-9.9374,288.95,9.9374,10.772,0.0015331,10.772,0.0081547,5.7415,0.015937,28.61,-80.6,9.79,0.0068931,0,-2.4948,-0.058973,16819,51.555,14.937,0.025155,200,160.33,3.8143,0.856,53315865,319.21,321.67,0.79212,0.79212,0.34345,0.23341,0.21525,0.0010395,0.0041343,6.78E-06,0,0,0,0,-2.08E-04,0.036997,10.4,84.949,88.429,0.012817,NaN,10.423,931.81,337.62,0.05,0.36595,955.74
4.2239,718.51,288.4,-13,288.45,13.003,11.059,0.0015832,11.059,0.0082027,5.7495,0.28048,28.61,-80.6,9.79,0.11278,0,-2.2381,-0.0030535,16811,44.214,14.93,0.02515,199.62,160.29,3.7816,0.85468,53164351,266.21,319.99,0.79176,0.79179,0.34354,0.23326,0.21496,0.017138,0.065225,6.82E-06,0,0,0,0,-1.68E-04,0.036934,10.4,84.949,88.309,0.0080735,NaN,10.33,930.2,337.56,0.05,0.36867,951.14
4.2739,732.91,287.75,-16.042,287.81,16.05,11.347,0.0016347,11.347,0.0082543,5.7726,0.48527,28.61,-80.6,9.7899,0.19609,4.40E-07,-1.4855,-0.0012413,16804,36.873,14.924,0.025145,199.32,160.25,3.7566,0.85291,52984889,213.21,317.94,0.79126,0.79136,0.34365,0.23305,0.21457,0.029975,0.11313,-4.14E-04,0,0,0,0,-7.44E-05,0.036851,10.4,84.949,88.214,0.0040059,NaN,10.236,928.59,337.5,0.05,0.37141,945.55
4.3239,747.28,286.95,-19.059,287.01,19.067,11.636,0.0016866,11.636,0.0083047,5.8002,0.53909,28.61,-80.6,9.7899,0.23958,0,-0.49645,1.80E-04,16797,29.532,14.918,0.025139,199.16,160.21,3.7448,0.85069,52777805,160.21,315.51,0.79065,0.79079,0.34379,0.23278,0.21408,0.036731,0.13758,-2.67E-04,0,0,0,0,-8.35E-06,0.036749,10.4,84.949,88.164,0.0022057,NaN,10.143,926.98,337.45,0.05,0.37832,939
4.3739,761.6,286,-22.051,286.06,22.055,11.927,0.0017383,11.927,0.0083504,5.8286,0.43427,28.61,-80.6,9.7898,0.23877,-3.05E-07,0.63486,0.0016158,16789,22.191,14.911,0.025134,199.15,160.17,3.7473,0.84802,52543306,107.21,312.69,0.78991,0.79005,0.34396,0.23246,0.21349,0.036595,0.1371,-4.50E-04,0,0,0,0,1.37E-05,0.036628,10.4,84.949,88.168,0.0033891,NaN,10.05,925.38,337.39,0.05,0.38091,931.5
4.4239,775.88,284.9,-25.012,284.96,25.012,12.219,0.00179,12.219,0.0083937,5.8445,0.026028,28.61,-80.6,9.7898,0.15014,0,1.5638,0.0022366,16782,14.85,14.905,0.025129,199.43,160.13,3.7785,0.84491,52282923,54.211,309.5,0.78906,0.78911,0.34415,0.2321,0.2128,0.022856,0.086419,-3.41E-04,0,0,0,0,8.40E-05,0.036487,10.4,84.949,88.224,0.0070464,NaN,9.9568,923.79,337.33,0.05,0.38354,923.08
4.4739,790.09,283.66,-27.597,283.72,27.6,12.511,0.0018428,12.511,0.0084395,5.8352,0.39334,28.61,-80.6,9.7897,0.04778,0,1.9536,0.011502,16774,7.5088,14.899,0.025124,199.77,160.09,3.8145,0.84137,51995628,7.2444,305.98,0.78808,0.78809,0.34438,0.23168,0.21203,0.0072167,0.027826,-1.18E-04,0,0,0,0,1.32E-04,0.036328,10.4,84.949,88.314,0.013321,NaN,9.8644,922.2,337.28,0.05,0.38761,913.75
4.5239,804.24,282.28,-27.801,282.34,27.808,12.802,0.0018979,12.802,0.0084939,5.8102,0.65585,28.61,-80.6,9.7897,0.035086,0,-2.0083,0.017613,16769,1.9191,14.894,0.02512,199.79,160.06,3.8194,0.83742,51684654,0,302.18,0.78701,0.78701,0.34462,0.23122,0.21117,0.0052924,0.02023,2.83E-05,0,0,0,0,-1.41E-04,0.036152,10.4,84.949,88.415,0.021571,NaN,9.7724,920.62,337.22,0.05,0.39127,903.67
4.5739,818.32,280.9,-27.57,280.96,27.588,13.092,0.0019566,13.092,0.0085632,5.7698,0.9794,28.61,-80.6,9.7897,0.13952,0,-1.6372,0.0042653,16767,0,14.892,0.025119,199.4,160.05,3.7831,0.83346,51373370,0,298.42,0.78593,0.78598,0.34487,0.23076,0.2103,0.021199,0.080318,-1.37E-04,0,0,0,0,-9.48E-05,0.035975,10.4,84.949,88.508,0.027543,NaN,9.6809,919.04,337.17,0.05,0.39402,893.58
4.6239,832.33,279.53,-27.345,279.58,27.371,13.379,0.0020197,13.379,0.0086497,5.714,1.1936,28.61,-80.6,9.7896,0.21045,0,-0.84098,0.0014555,16767,0,14.892,0.025119,199.13,160.05,3.7574,0.82952,51064864,0,294.73,0.78487,0.78497,0.34511,0.2303,0.20945,0.032132,0.12065,-4.02E-04,0,0,0,0,-2.53E-05,0.035799,10.4,84.949,88.571,0.030499,NaN,9.5899,917.48,337.11,0.05,0.39669,883.64
4.6739,846.27,278.16,-27.127,278.22,27.154,13.663,0.0020874,13.663,0.0087534,5.6533,1.2292,28.61,-80.6,9.7896,0.22651,0,0.099639,0.0029306,16767,0,14.892,0.025119,199.05,160.05,3.7499,0.82561,50758882,0,291.08,0.78381,0.78394,0.34535,0.22985,0.20861,0.034611,0.12946,4.78E-04,0,0,0,0,3.58E-07,0.035624,10.4,84.949,88.589,0.027306,NaN,9.4992,915.92,337.06,0.05,0.39948,873.84
4.7239,860.15,276.81,-26.913,276.87,26.938,13.944,0.0021588,13.944,0.0088703,5.5931,1.1642,28.61,-80.6,9.7895,0.20904,-5.20E-07,1.0302,0.0031689,16767,0,14.892,0.025119,199.09,160.05,3.7534,0.82174,50455982,0,287.48,0.78278,0.78288,0.34558,0.22941,0.20778,0.03189,0.11951,3.09E-04,0,0,0,0,3.86E-05,0.035451,10.4,84.949,88.561,0.0197,NaN,9.4091,914.37,337,0.05,0.40276,864.18
4.7739,873.95,275.47,-26.705,275.53,26.722,14.222,0.0022325,14.222,0.0089937,5.5391,0.9541,28.61,-80.6,9.7895,0.14374,0,1.7947,0.0045546,16767,0,14.892,0.025119,199.29,160.05,3.7729,0.8179,50155637,0,283.92,0.78176,0.78181,0.34582,0.22897,0.20696,0.021815,0.082626,-1.14E-05,0,0,0,0,1.18E-04,0.035279,10.4,84.949,88.489,0.011062,NaN,9.3193,912.83,336.95,0.05,0.40614,854.66
4.8239,887.69,274.14,-26.505,274.2,26.512,14.498,0.0023067,14.498,0.0091159,5.4995,0.60575,28.61,-80.6,9.7894,0.031084,-3.11E-07,2.1742,0.02189,16767,0,14.892,0.025119,199.66,160.05,3.8085,0.81407,49857441,0,280.42,0.78074,0.78074,0.34605,0.22854,0.20615,0.0046769,0.018031,3.93E-04,0,0,0,0,1.75E-04,0.035109,10.4,84.949,88.388,0.002252,NaN,9.23,911.29,336.89,0.05,0.40949,845.27
4.8739,901.37,272.82,-26.311,272.88,26.313,14.773,0.0023799,14.773,0.0092306,5.4786,0.24436,28.61,-80.6,9.7894,0.089506,-3.43E-07,-2.0453,0.0068097,16767,0,14.892,0.025119,199.44,160.05,3.7868,0.81028,49561733,0,276.99,0.77974,0.77976,0.34628,0.22811,0.20535,0.01352,0.050986,1.89E-04,0,0,0,0,-1.57E-04,0.03494,10.4,84.949,88.28,-0.0048077,NaN,9.1411,909.77,336.84,0.05,0.41209,836
4.9239,914.98,271.51,-26.12,271.57,26.12,15.046,0.0024507,15.046,0.0093323,5.4736,0.0062195,28.61,-80.6,9.7894,0.17474,-4.65E-07,-1.4895,0.0023749,16767,0,14.892,0.025119,199.12,160.05,3.7563,0.80651,49268936,0,273.64,0.77875,0.77883,0.3465,0.22769,0.20456,0.026552,0.099803,4.01E-04,0,0,0,0,-8.40E-05,0.034772,10.4,84.949,88.191,-0.009793,NaN,9.0527,908.25,336.78,0.05,0.41494,826.87
4.9739,928.52,270.21,-25.929,270.27,25.93,15.32,0.0025179,15.32,0.0094168,5.4777,0.18771,28.61,-80.6,9.7893,0.23631,-7.72E-07,-0.68794,0.0012868,16767,0,14.892,0.025119,198.89,160.05,3.734,0.80277,48978341,0,270.34,0.77778,0.77791,0.34673,0.22727,0.20378,0.036058,0.13476,-1.67E-04,0,0,0,0,-1.81E-05,0.034605,10.4,84.949,88.135,-0.01257,NaN,8.9646,906.73,336.73,0.05,0.41728,817.86
5.0239,942,268.92,-25.736,268.97,25.737,15.594,0.002581,15.594,0.0094829,5.4901,0.23762,28.61,-80.6,9.7893,0.2534,-4.33E-07,0.32186,0.0020072,16767,0,14.892,0.025119,198.81,160.05,3.7265,0.79906,4.87E+07,0,267.07,0.77681,0.77697,0.34695,0.22686,0.203,0.038701,0.14441,-3.47E-04,0,0,0,0,4.00E-06,0.03444,10.4,84.949,88.126,-0.011101,NaN,8.877,905.23,336.68,0.05,0.42003,808.97
5.0739,955.41,267.64,-25.538,267.69,25.538,15.869,0.0026406,15.869,0.0095339,5.4986,0.10006,28.61,-80.6,9.7892,0.20692,0,1.2205,0.002146,16767,0,14.892,0.025119,198.95,160.05,3.7397,0.79538,48404799,0,263.83,0.77586,0.77597,0.34716,0.22646,0.20224,0.031484,0.11779,-2.60E-04,0,0,0,0,5.80E-05,0.034276,10.4,84.949,88.165,-0.0051851,NaN,8.7898,903.73,336.63,0.05,0.42301,800.2
5.1239,968.76,266.36,-25.341,266.42,25.341,16.144,0.0026981,16.144,0.0095757,5.4989,0.087487,28.61,-80.6,9.7892,0.13938,-3.03E-07,1.8858,0.0038211,16767,0,14.892,0.025119,199.16,160.05,3.7601,0.79172,48121496,0,260.64,0.77492,0.77497,0.34738,0.22606,0.20149,0.021096,0.079098,-3.78E-04,0,0,0,0,1.40E-04,0.034113,10.4,84.949,88.244,0.0030682,NaN,8.7031,902.24,336.57,0.05,0.43135,791.55
5.1739,982.05,265.1,-25.144,265.16,25.147,16.419,0.0027554,16.419,0.0096155,5.4885,0.38242,28.61,-80.6,9.7892,0.031579,0,2.2444,0.014021,16767,0,14.892,0.025119,199.51,160.05,3.7943,0.78809,47840990,0,257.51,0.77399,0.774,0.34759,0.22566,0.20074,0.0047402,0.018173,7.64E-05,0,0,0,0,2.00E-04,0.033952,10.4,84.949,88.349,0.013096,NaN,8.6167,900.75,336.52,0.05,0.43307,783.02
5.2239,995.27,263.85,-24.953,263.91,24.963,16.693,0.0028144,16.693,0.0096602,5.4603,0.72084,28.61,-80.6,9.7891,0.094366,0,-2.1104,0.0037356,16767,0,14.892,0.025119,199.28,160.05,3.7713,0.78449,47563215,0,254.45,0.77308,0.7731,0.3478,0.22527,0.20001,0.014226,0.053641,-2.59E-04,0,0,0,0,-1.78E-04,0.033791,10.4,84.949,88.46,0.021846,NaN,8.5307,899.27,336.47,0.05,0.43477,774.6
5.2739,1008.4,262.61,-24.768,262.66,24.787,16.965,0.0028763,16.965,0.0097142,5.4178,0.95927,28.61,-80.6,9.7891,0.18571,0,-1.5772,0.0035377,16767,0,14.892,0.025119,198.94,160.05,3.7391,0.78092,4.73E+07,0,251.46,0.77217,0.77225,0.34801,0.22488,0.19928,0.028177,0.10531,3.08E-04,0,0,0,0,-1.01E-04,0.033632,10.4,84.949,88.553,0.026428,NaN,8.4452,897.85,336.42,0.05,0.43654,766.33
5.3239,1021.5,261.37,-24.59,261.43,24.616,17.234,0.0029415,17.234,0.0097791,5.3656,1.1478,28.61,-80.6,9.789,0.25797,0,-0.77535,0.0024258,16767,0,14.892,0.025119,198.68,160.05,3.7136,0.77737,4.70E+07,0,248.53,0.77128,0.77144,0.34821,0.2245,0.19856,0.039336,0.14597,1.31E-04,0,0,0,0,-2.46E-05,0.033474,10.4,84.949,88.613,0.026414,NaN,8.36,896.46,336.37,0.05,0.44112,758.2
5.3739,1034.6,260.15,-24.415,260.2,24.446,17.501,0.0030097,17.501,0.0098533,5.3049,1.2325,28.61,-80.6,9.789,0.29199,0,0.25405,0.0011702,16767,0,14.892,0.025119,198.54,160.05,3.7007,0.77385,46753151,0,245.64,0.7704,0.7706,0.34842,0.22413,0.19785,0.044622,0.16554,3.36E-04,0,0,0,0,2.66E-06,0.033317,10.4,84.949,88.627,0.02359,NaN,8.2753,895.07,336.31,0.05,0.44418,750.17
5.4239,1047.5,258.93,-24.245,258.98,24.27,17.765,0.0030803,17.765,0.0099349,5.2454,1.0973,28.61,-80.6,9.789,0.24708,5.02E-07,1.2513,0.0014672,16767,0,14.892,0.025119,198.67,160.05,3.7136,0.77035,46487549,0,242.75,0.76952,0.76966,0.34862,0.22376,0.19715,0.037624,0.13984,-2.41E-04,0,0,0,0,6.52E-05,0.033161,10.4,84.949,88.588,0.019491,NaN,8.1909,893.69,336.26,0.05,0.44741,742.24
5.4739,1060.5,257.72,-24.081,257.78,24.094,18.026,0.0031526,18.026,0.010021,5.1975,0.79459,28.61,-80.6,9.7889,0.13836,6.50E-07,1.9528,0.0036779,16767,0,14.892,0.025119,199.03,160.05,3.7476,0.76686,46223575,0,239.88,0.76865,0.7687,0.34882,0.22339,0.19645,0.020894,0.078594,3.01E-04,0,0,0,0,1.60E-04,0.033006,10.4,84.949,88.507,0.012685,NaN,8.107,892.31,336.21,0.05,0.44987,734.41
5.5239,1073.3,256.52,-23.922,256.58,23.927,18.285,0.0032257,18.285,0.010108,5.1663,0.49742,28.61,-80.6,9.7889,0.025389,6.46E-07,2.213,0.017461,16767,0,14.892,0.025119,199.4,160.05,3.7837,0.7634,45962107,0,237.08,0.7678,0.7678,0.34901,0.22302,0.19576,0.003801,0.013921,-4.76E-04,0,0,0,0,2.08E-04,0.032852,10.4,84.949,88.401,0.0058992,NaN,8.0234,890.95,336.16,0.05,0.45459,726.69
5.5739,1086.1,255.33,-23.765,255.38,23.766,18.543,0.0032983,18.543,0.010192,5.147,0.27917,28.61,-80.6,9.7888,0.062349,6.52E-07,-2.1445,0.0083659,16767,0,14.892,0.025119,199.26,160.05,3.7696,0.75998,45703323,0,234.34,0.76695,0.76696,0.34921,0.22266,0.19508,0.0093571,0.035939,-4.27E-04,0,0,0,0,-1.97E-04,0.0327,10.4,84.949,88.291,-9.70E-04,NaN,7.9402,889.59,336.11,0.05,0.46278,719.07
5.6239,1098.9,254.15,-23.611,254.2,23.611,18.8,0.0033696,18.8,0.01027,5.1379,0.080854,28.61,-80.6,9.7888,0.14257,7.03E-07,-1.7933,0.00386,16767,0,14.892,0.025119,198.96,160.05,3.7411,0.75657,45446444,0,231.65,0.76612,0.76617,0.3494,0.22231,0.19441,0.021517,0.080174,-2.37E-04,0,0,0,0,-1.39E-04,0.032548,10.4,84.949,88.191,-0.0053535,NaN,7.8575,888.23,336.06,0.05,0.46441,711.54
5.6739,1111.5,252.97,-23.459,253.02,23.46,19.056,0.0034386,19.056,0.010339,5.1383,0.10815,28.61,-80.6,9.7888,0.21792,8.20E-07,-1.1891,0.0018116,16767,0,14.892,0.025119,198.69,160.05,3.7146,0.75318,45191067,0,229,0.76529,0.7654,0.34959,0.22196,0.19375,0.033064,0.12322,4.02E-04,0,0,0,0,-6.16E-05,0.032398,10.4,84.949,88.115,-0.0075818,NaN,7.7751,886.88,336.01,0.05,0.46578,704.1
5.7239,1124.1,251.8,-23.308,251.85,23.309,19.314,0.003505,19.314,0.010398,5.1474,0.23292,28.61,-80.6,9.7887,0.26741,8.22E-07,-0.35805,-0.0010564,16767,0,14.892,0.025119,198.5,160.05,3.6968,0.74981,44937370,0,226.38,0.76447,0.76464,0.34977,0.22161,0.19309,0.040709,0.15008,-3.13E-04,0,0,0,0,-5.64E-06,0.032248,10.4,84.949,88.076,-0.0097609,NaN,7.693,885.54,335.96,0.05,0.46826,696.76
5.7739,1136.7,250.64,-23.152,250.69,23.153,19.571,0.0035683,19.571,0.010446,5.1593,0.20381,28.61,-80.6,9.7887,0.25712,1.00E-06,0.5366,-4.69E-04,16767,0,14.892,0.025119,198.52,160.05,3.6985,0.74646,44685970,0,223.79,0.76367,0.76382,0.34996,0.22127,0.19244,0.039102,0.14435,-2.41E-04,0,0,0,0,1.28E-05,0.032099,10.4,84.949,88.081,-0.010146,NaN,7.6114,884.2,335.91,0.05,0.47159,689.51
5.8239,1149.2,249.49,-22.993,249.54,22.993,19.829,0.0036287,19.829,0.010485,5.1661,0.073176,28.61,-80.6,9.7886,0.20487,1.02E-06,1.292,-0.0019648,16767,0,14.892,0.025119,198.68,160.05,3.714,0.74314,44436541,0,221.22,0.76287,0.76296,0.35014,0.22093,0.19179,0.031029,0.11552,2.41E-04,0,0,0,0,7.48E-05,0.031952,10.4,84.949,88.127,-0.0086275,NaN,7.5301,882.87,335.86,0.05,0.47412,682.35
5.8739,1161.7,248.34,-22.836,248.39,22.836,20.088,0.0036865,20.088,0.010515,5.1658,0.085495,28.61,-80.6,9.7886,0.13754,9.88E-07,1.849,-0.0028177,16767,0,14.892,0.025119,198.89,160.05,3.7347,0.73983,44188669,0,218.68,0.76207,0.76212,0.35033,0.22059,0.19115,0.020722,0.077437,-1.54E-04,0,0,0,0,1.55E-04,0.031805,10.4,84.949,88.207,-0.0053146,NaN,7.4492,881.55,335.81,0.05,0.47743,675.28
5.9239,1174,247.2,-22.68,247.26,22.682,20.346,0.0037426,20.346,0.010539,5.1568,0.28971,28.61,-80.6,9.7886,0.048407,9.17E-07,2.1578,-0.0082876,16767,0,14.892,0.025119,199.19,160.05,3.7629,0.73654,43942738,0,216.18,0.76129,0.7613,0.35051,0.22026,0.19052,0.007243,0.027183,-1.10E-04,0,0,0,0,2.13E-04,0.031659,10.4,84.949,88.308,-4.16E-06,NaN,7.3687,880.23,335.76,0.05,0.4798,668.3
5.9739,1186.4,246.07,-22.527,246.13,22.534,20.603,0.0037979,20.603,0.010562,5.1365,0.5326,28.61,-80.6,9.7885,0.059392,9.09E-07,-2.1461,-0.0065235,16767,0,14.892,0.025119,199.13,160.05,3.7577,0.73328,43698969,0,213.73,0.76052,0.76053,0.35068,0.21993,0.1899,0.0088914,0.033923,-2.18E-04,0,0,0,0,-2.12E-04,0.031515,10.4,84.949,88.417,0.0067591,NaN,7.2885,878.92,335.72,0.05,0.48194,661.41
6.0239,1198.7,244.95,-22.379,245,22.392,20.859,0.0038536,20.859,0.010585,5.1039,0.76213,28.61,-80.6,9.7885,0.16176,9.88E-07,-1.7926,-0.0026768,16767,0,14.892,0.025119,198.76,160.05,3.722,0.73004,43457163,0,211.34,0.75975,0.75982,0.35086,0.21961,0.18928,0.024394,0.090635,-1.66E-04,0,0,0,0,-1.49E-04,0.031371,10.4,84.949,88.517,0.014589,NaN,7.2087,877.61,335.67,0.05,0.48434,654.6
6.0739,1210.9,243.83,-22.234,243.89,22.253,21.113,0.0039106,21.113,0.010612,5.0614,0.91782,28.61,-80.6,9.7885,0.23327,1.00E-06,-1.1689,-0.0011447,16767,0,14.892,0.025119,198.5,160.05,3.697,0.72682,43217058,0,208.97,0.759,0.75912,0.35103,0.21929,0.18867,0.035356,0.13031,-3.46E-05,0,0,0,0,-6.41E-05,0.031228,10.4,84.949,88.592,0.021909,NaN,7.1293,876.31,335.62,0.05,0.4885,647.87
6.1239,1223,242.73,-22.094,242.78,22.117,21.365,0.0039699,21.365,0.010646,5.0134,1.0073,28.61,-80.6,9.7884,0.27611,8.92E-07,-0.38918,-6.00E-04,16767,0,14.892,0.025119,198.34,160.05,3.6816,0.72362,42978889,0,206.64,0.75825,0.75843,0.3512,0.21897,0.18807,0.041971,0.15439,1.40E-04,0,0,0,0,-7.17E-06,0.031086,10.4,84.949,88.631,0.026008,NaN,7.0502,875.02,335.57,0.05,0.49108,641.22
6.1739,1235.1,241.62,-21.955,241.68,21.98,21.615,0.0040318,21.615,0.010687,4.962,1.0387,28.61,-80.6,9.7884,0.29273,7.29E-07,0.48056,-0.0012359,16767,0,14.892,0.025119,198.27,160.05,3.6747,0.72045,42742809,0,204.34,0.75751,0.75771,0.35137,0.21866,0.18748,0.044539,0.16394,-3.88E-04,0,0,0,0,1.10E-05,0.030945,10.4,84.949,88.629,0.028235,NaN,6.9715,873.73,335.52,0.05,0.49414,634.66
6.2239,1247.2,240.53,-21.82,240.58,21.841,21.862,0.0040964,21.862,0.010736,4.9114,0.94258,28.61,-80.6,9.7883,0.25429,8.68E-07,1.3277,-0.001832,16767,0,14.892,0.025119,198.39,160.05,3.6858,0.71729,42508210,0,202.04,0.75678,0.75693,0.35154,0.21835,0.18689,0.038573,0.14174,3.13E-04,0,0,0,0,8.50E-05,0.030804,10.4,84.949,88.583,0.027112,NaN,6.8932,872.45,335.48,0.05,0.49635,628.17
6.2739,1259.2,239.44,-21.689,239.49,21.701,22.106,0.0041637,22.106,0.010792,4.8693,0.74026,28.61,-80.6,9.7883,0.16758,9.28E-07,1.9563,-0.0037581,16767,0,14.892,0.025119,198.67,160.05,3.7128,0.71414,42275065,0,199.77,0.75605,0.75612,0.35171,0.21804,0.1863,0.025252,0.094048,-3.00E-05,0,0,0,0,1.86E-04,0.030665,10.4,84.949,88.5,0.02534,NaN,6.8152,871.17,335.43,0.05,0.49851,621.76
6.3239,1271.1,238.36,-21.562,238.41,21.567,22.349,0.0042335,22.349,0.010853,4.8383,0.47658,28.61,-80.6,9.7883,0.049649,8.66E-07,2.2913,-0.013094,16767,0,14.892,0.025119,199.06,160.05,3.7507,0.71101,42043429,0,197.53,0.75534,0.75534,0.35187,0.21774,0.18572,0.0074142,0.027574,-2.22E-04,0,0,0,0,2.58E-04,0.030527,10.4,84.949,88.393,0.022824,NaN,6.7376,869.9,335.38,0.05,0.50069,615.43
6.3739,1283,237.29,-21.439,237.34,21.44,22.59,0.0043055,22.59,0.01092,4.8216,0.21651,28.61,-80.6,9.7882,0.071076,8.61E-07,-2.2423,-0.008259,16767,0,14.892,0.025119,198.97,160.05,3.7421,0.7079,41813490,0,195.34,0.75463,0.75464,0.35204,0.21744,0.18515,0.010628,0.040395,-2.91E-04,0,0,0,0,-2.49E-04,0.030389,10.4,84.949,88.278,0.019304,NaN,6.6603,868.64,335.34,0.05,0.50437,609.18
6.4239,1294.9,236.22,-21.317,236.27,21.317,22.831,0.0043795,22.831,0.01099,4.8159,0.006778,28.61,-80.6,9.7882,0.1699,8.08E-07,-1.898,-0.0036213,16767,0,14.892,0.025119,198.62,160.05,3.7079,0.70481,41585378,0,193.19,0.75392,0.75399,0.3522,0.21714,0.18458,0.025587,0.095298,-2.01E-04,0,0,0,0,-1.80E-04,0.030252,10.4,84.949,88.173,0.015634,NaN,6.5833,867.38,335.29,0.05,0.50692,602.99
6.4739,1306.7,235.15,-21.197,235.2,21.197,23.072,0.0044547,23.072,0.011063,4.82,0.13974,28.61,-80.6,9.7882,0.24001,7.29E-07,-1.295,-0.0026094,16767,0,14.892,0.025119,198.36,160.05,3.6835,0.70174,41358918,0,191.07,0.75323,0.75336,0.35236,0.21685,0.18402,0.036325,0.13385,-1.48E-05,0,0,0,0,-8.46E-05,0.030116,10.4,84.949,88.093,0.011263,NaN,6.5067,866.13,335.24,0.05,0.50966,596.88
6.5239,1318.4,234.1,-21.075,234.15,21.076,23.313,0.0045307,23.313,0.011135,4.8287,0.22674,28.61,-80.6,9.7881,0.28226,8.04E-07,-0.57057,-0.0026243,16767,0,14.892,0.025119,198.21,160.05,3.6684,0.69869,41133900,0,188.98,0.75254,0.75272,0.35252,0.21656,0.18346,0.042842,0.15726,3.23E-04,0,0,0,0,-1.66E-05,0.029981,10.4,84.949,88.045,0.0070439,NaN,6.4305,864.88,335.2,0.05,0.5123,590.84
6.5739,1330.1,233.05,-20.952,233.1,20.954,23.555,0.0046066,23.555,0.011205,4.8415,0.25924,28.61,-80.6,9.7881,0.29809,7.43E-07,0.25419,-0.0029521,16767,0,14.892,0.025119,198.14,160.05,3.662,0.69565,4.09E+07,0,186.9,0.75186,0.75206,0.35268,0.21627,0.18291,0.045286,0.16537,-3.15E-04,0,0,0,0,3.32E-06,0.029846,10.4,84.949,88.037,0.0029201,NaN,6.3546,863.64,335.15,0.05,0.51464,584.87
6.6239,1341.7,232,-20.825,232.05,20.826,23.797,0.0046819,23.797,0.011272,4.8527,0.15866,28.61,-80.6,9.7881,0.2521,8.49E-07,1.0311,-0.0042358,16767,0,14.892,0.025119,198.28,160.05,3.6756,0.69263,40688459,0,184.84,0.75118,0.75133,0.35283,0.21599,0.18237,0.038162,0.14055,2.41E-04,0,0,0,0,5.51E-05,0.029713,10.4,84.949,88.07,-8.05E-04,NaN,6.279,862.4,335.1,0.05,0.51696,578.97
6.6739,1353.3,230.96,-20.697,231.02,20.697,24.04,0.0047558,24.04,0.011335,4.8562,0.014587,28.61,-80.6,9.788,0.16919,9.87E-07,1.6034,-0.0059832,16767,0,14.892,0.025119,198.55,160.05,3.7015,0.68963,40468406,0,182.8,0.75052,0.75058,0.35298,0.21571,0.18183,0.025449,0.094031,3.38E-04,0,0,0,0,1.34E-04,0.02958,10.4,84.949,88.137,-0.0042519,NaN,6.2038,861.17,335.06,0.05,0.51991,573.14
6.7239,1364.8,229.93,-20.571,229.98,20.572,24.283,0.0048279,24.283,0.011392,4.8509,0.20591,28.61,-80.6,9.788,0.073273,1.08E-06,1.9355,-0.014452,16767,0,14.892,0.025119,198.87,160.05,3.7322,0.68664,4.03E+07,0,180.79,0.74986,0.74987,0.35314,0.21543,0.18129,0.010941,0.041006,-4.19E-04,0,0,0,0,1.98E-04,0.029448,10.4,84.949,88.226,-0.0059115,NaN,6.1289,859.94,335.01,0.05,0.52229,567.37
6.7739,1376.3,228.91,-20.446,228.96,20.451,24.525,0.0048982,24.525,0.011443,4.8354,0.42008,28.61,-80.6,9.7879,0.037381,1.08E-06,-1.9878,-0.027151,16767,0,14.892,0.025119,198.98,160.05,3.7429,0.68368,40032736,0,178.82,0.7492,0.74921,0.35329,0.21515,0.18076,0.0055653,0.021009,2.15E-04,0,0,0,0,-2.10E-04,0.029317,10.4,84.949,88.326,-0.0044905,NaN,6.0543,858.72,334.97,0.05,0.52478,561.68
6.8239,1387.7,227.89,-20.326,227.94,20.335,24.766,0.0049669,24.766,0.011491,4.8092,0.60662,28.61,-80.6,9.7879,0.13569,1.07E-06,-1.7452,-0.0084565,16767,0,14.892,0.025119,198.63,160.05,3.7089,0.68073,39817116,0,176.88,0.74856,0.7486,0.35344,0.21488,0.18024,0.020345,0.075581,1.32E-04,0,0,0,0,-1.64E-04,0.029186,10.4,84.949,88.42,0.0010281,NaN,5.9801,857.51,334.92,0.05,0.52752,556.05
6.8739,1399.1,226.87,-20.208,226.93,20.224,25.006,0.0050348,25.006,0.011536,4.7751,0.79017,28.61,-80.6,9.7879,0.23146,1.14E-06,-1.2842,-0.005652,16767,0,14.892,0.025119,198.29,160.05,3.6761,0.6778,39603306,0,174.98,0.74792,0.74804,0.35358,0.21461,0.17972,0.034946,0.12874,9.29E-05,0,0,0,0,-8.94E-05,0.029056,10.4,84.949,88.497,0.010369,NaN,5.9062,856.3,334.88,0.05,0.53004,550.48
6.9239,1410.4,225.87,-20.093,225.92,20.116,25.243,0.005103,25.243,0.011583,4.7308,0.95291,28.61,-80.6,9.7878,0.31548,1.28E-06,-0.56132,-0.0047821,16767,0,14.892,0.025119,197.99,160.05,3.6476,0.67489,39391353,0,173.12,0.74729,0.74751,0.35373,0.21434,0.17921,0.047916,0.17483,-1.69E-05,0,0,0,0,-1.72E-05,0.028927,10.4,84.949,88.544,0.021269,NaN,5.8326,855.09,334.83,0.05,0.53255,544.97
