# Time (s),Altitude (m),Vertical velocity (m/s),Vertical acceleration (m/s²),Total velocity (m/s),Total acceleration (m/s²),Position East of launch (m),Position North of launch (m),Lateral distance (m),Lateral direction (°),Lateral velocity (m/s),Lateral acceleration (m/s²),Latitude (°),Longitude (°),Gravitational acceleration (m/s²),Angle of attack (°),Roll rate (°/s),Pitch rate (°/s),Yaw rate (°/s),Mass (g),Propellant mass (g),Longitudinal moment of inertia (kg·m²),Rotational moment of inertia (kg·m²),CP location (cm),CG location (cm),Stability margin calibers (?),Mach number (?),Reynolds number (?),Thrust (N),Drag force (N),Drag coefficient (?),Axial drag coefficient (?),Friction drag coefficient (?),Pressure drag coefficient (?),Base drag coefficient (?),Normal force coefficient (?),Pitch moment coefficient (?),Yaw moment coefficient (?),Side force coefficient (?),Roll moment coefficient (?),Roll forcing coefficient (?),Roll damping coefficient (?),Pitch damping coefficient (?),Coriolis acceleration (m/s²),Reference length (cm),Reference area (cm²),Vertical orientation (zenith) (°),Lateral orientation (azimuth) (°),Wind velocity (m/s),Air temperature (°C),Air pressure (mbar),Speed of sound (m/s),Simulation time step (s),Computation time (s),Dynamic Pressure (mbar)
0,0,0,25.393,0,25.393,0,0,0,0,0,0,28.61,-80.6,9.7884,0,0,0,0,18166,2663.3,13.153,0.028562,NaN,158.95,NaN,0,0,639.11,0,1.8216,1.8216,1.5969,0.10474,0.12,NaN,NaN,NaN,NaN,NaN,NaN,NaN,NaN,0,10.3,83.323,90,0,NaN,38.765,999.33,354.79,0.01,0.010041,0
0.01,0.0012697,0.25393,93.966,0.25393,93.966,0,0,0,0,0,0,28.61,-80.6,9.7884,0,0,0,0,18166,2663.3,13.153,0.028562,NaN,158.95,NaN,7.16E-04,37844,1884.8,3.78E-04,1.2594,1.2594,1.0347,0.10474,0.12,NaN,NaN,NaN,NaN,NaN,NaN,NaN,NaN,3.25E-05,10.3,83.323,90,0,NaN,38.765,999.33,354.79,0.01,0.019149,7.20E-04
0.02,0.0085085,1.1939,103.88,1.1939,103.88,0,0,0,0,0,0,28.61,-80.6,9.7884,0,0,0,0,18160,2657.3,13.15,0.028558,NaN,158.93,NaN,0.003365,177923,2064.3,0.0060418,0.91159,0.91159,0.68685,0.10474,0.12,NaN,NaN,NaN,NaN,NaN,NaN,NaN,NaN,1.53E-04,10.3,83.323,90,0,NaN,38.765,999.33,354.79,0.01,0.021784,0.015909
0.03,0.025643,2.2331,97.966,2.2331,97.966,0,0,0,0,0,0,28.61,-80.6,9.7884,0,0,0,0,18152,2649.1,13.146,0.028552,NaN,158.9,NaN,0.0062943,332804,1956,0.018995,0.81916,0.81916,0.59441,0.10474,0.12001,NaN,NaN,NaN,NaN,NaN,NaN,NaN,NaN,2.86E-04,10.3,83.323,90,0,NaN,38.765,999.33,354.79,0.01,0.024624,0.055661
0.04,0.052875,3.2133,98.267,3.2133,98.267,0,0,0,0,0,0,28.61,-80.6,9.7884,0,0,0,0,18142,2639.4,13.141,0.028545,NaN,158.87,NaN,0.0090569,478873,1960.4,0.03715,0.77378,0.77378,0.54902,0.10474,0.12001,NaN,NaN,NaN,NaN,NaN,NaN,NaN,NaN,4.11E-04,10.3,83.323,90,0,NaN,38.764,999.33,354.79,0.01,0.027255,0.11524
0.05,0.089923,4.1964,98.565,4.1964,98.565,0,0,0,0,0,0,28.61,-80.6,9.7884,0,0,0,0,18133,2629.9,13.137,0.028538,NaN,158.83,NaN,0.011828,625388,1964.8,0.060899,0.74372,0.74372,0.51895,0.10475,0.12002,NaN,NaN,NaN,NaN,NaN,NaN,NaN,NaN,5.37E-04,10.3,83.323,90,0,NaN,38.764,999.33,354.79,0.01,0.032021,0.19655
0.06,0.13682,5.1825,98.864,5.1825,98.864,0,0,0,0,0,0,28.61,-80.6,9.7884,0,0,0,0,18123,2620.4,13.132,0.028532,NaN,158.79,NaN,0.014607,772347,1969.2,0.090129,0.72167,0.72167,0.49689,0.10475,0.12003,NaN,NaN,NaN,NaN,NaN,NaN,NaN,NaN,6.64E-04,10.3,83.323,90,0,NaN,38.764,999.33,354.79,0.01,0.036342,0.29978
0.07,0.19359,6.1716,99.163,6.1716,99.163,0,0,0,0,0,0,28.61,-80.6,9.7884,0,0,0,0,18114,2611,13.127,0.028525,NaN,158.76,NaN,0.017395,919751,1973.6,0.12477,0.70447,0.70447,0.47968,0.10475,0.12004,NaN,NaN,NaN,NaN,NaN,NaN,NaN,NaN,7.90E-04,10.3,83.323,90,0,NaN,38.764,999.32,354.79,0.01,0.049095,0.42512
0.08,0.26026,7.1637,99.462,7.1637,99.462,0,0,0,0,0,0,28.61,-80.6,9.7884,0,0,0,0,18104,2601.5,13.123,0.028518,NaN,158.72,NaN,0.020191,1067599,1978,0.16477,0.69049,0.69049,0.46568,0.10476,0.12005,NaN,NaN,NaN,NaN,NaN,NaN,NaN,NaN,9.17E-04,10.3,83.323,90,0,NaN,38.763,999.32,354.79,0.01,0.05171,0.57278
0.09,0.33688,8.1588,99.76,8.1588,99.76,0,0,0,0,0,0,28.61,-80.6,9.7884,0,0,0,0,18095,2592.1,13.118,0.028512,NaN,158.69,NaN,0.022996,1215892,1982.5,0.2101,0.6788,0.6788,0.45397,0.10476,0.12007,NaN,NaN,NaN,NaN,NaN,NaN,NaN,NaN,0.0010446,10.3,83.323,90,0,NaN,38.763,999.31,354.79,0.01,0.054383,0.74296
0.1,0.42345,9.1569,100.06,9.1569,100.06,0,0,0,0,0,0,28.61,-80.6,9.7884,0,0,0,0,18085,2582.6,13.113,0.028505,NaN,158.65,NaN,0.025809,1364629,1986.9,0.26075,0.66879,0.66879,0.44393,0.10477,0.12009,NaN,NaN,NaN,NaN,NaN,NaN,NaN,NaN,0.0011724,10.3,83.323,90,0,NaN,38.763,999.31,354.79,0.01,0.057043,0.93585
0.11,0.52003,10.158,100.36,10.158,100.36,0,0,0,0,0,0,28.61,-80.6,9.7884,0,0,0,0,18076,2573.2,13.109,0.028499,NaN,158.62,NaN,0.028631,1513810,1991.3,0.3167,0.66008,0.66008,0.43519,0.10478,0.12011,NaN,NaN,NaN,NaN,NaN,NaN,NaN,NaN,0.0013006,10.3,83.323,90,0,NaN,38.762,999.3,354.79,0.0098445,0.060592,1.1516
0.11984,0.62489,11.146,100.65,11.146,100.65,0,0,0,0,0,0,28.61,-80.6,9.7884,0,0,0,0,18066,2563.8,13.104,0.028492,NaN,158.58,NaN,0.031417,1661107,1995.4,0.37695,0.6525,0.6525,0.42759,0.10478,0.12013,NaN,NaN,NaN,NaN,NaN,NaN,NaN,NaN,0.0014271,10.3,83.323,90,0,NaN,38.762,999.3,354.79,0.0089716,0.064299,1.3867
0.12882,0.72894,12.05,100.91,12.05,100.91,0,0,0,0,0,0,28.61,-80.6,9.7884,0,0,0,0,18058,2554.9,13.1,0.028486,NaN,158.55,NaN,0.033963,1795719,1999.2,0.43633,0.6463,0.6463,0.42136,0.10479,0.12015,NaN,NaN,NaN,NaN,NaN,NaN,NaN,NaN,0.0015428,10.3,83.323,90,0,NaN,38.761,999.29,354.79,0.008299,0.06696,1.6205
0.13712,0.83242,12.887,101.15,12.887,101.15,0,0,0,0,0,0,28.61,-80.6,9.7884,0,0,0,0,18049,2546.7,13.095,0.02848,NaN,158.52,NaN,0.036324,1920558,2002.8,0.49506,0.64106,0.64106,0.41609,0.1048,0.12017,NaN,NaN,NaN,NaN,NaN,NaN,NaN,NaN,0.00165,10.3,83.323,90,0,NaN,38.76,999.29,354.79,0.0077595,0.069676,1.8537
0.14487,0.93547,13.673,101.38,13.673,101.38,0,0,0,0,0,0,28.61,-80.6,9.7884,0,0,0,0,18042,2539.1,13.092,0.028475,NaN,158.49,NaN,0.038537,2037559,2006.1,0.55329,0.63654,0.63654,0.41154,0.10481,0.12019,NaN,NaN,NaN,NaN,NaN,NaN,NaN,NaN,0.0017506,10.3,83.323,90,0,NaN,38.76,999.28,354.79,0.0073139,0.072722,2.0864
0.15219,1.0382,14.414,101.57,14.414,101.57,0,0,0,0,0,0.0018455,28.61,-80.6,9.7884,0,0,0,0,18035,2532,13.088,0.02847,189.74,158.46,3.0371,0.040628,2148087,2009.2,0.6111,0.63256,0.63256,0.40753,0.10481,0.12021,0,-4.71E-04,2.37E-04,0,0,0,0,0,0.0018455,10.3,83.323,90,0,NaN,38.759,999.28,354.79,0.010971,0.075492,2.3189
0.16316,1.2024,15.529,101.71,15.529,101.71,-1.14E-07,0,1.14E-07,-180,2.10E-05,0.001989,28.61,-80.6,9.7884,7.76E-05,0,0,0,18026,2523.2,13.084,0.028463,189.74,158.43,3.0404,0.04377,2314226,2010.9,0.70311,0.62705,0.62705,0.40198,0.10482,0.12025,1.13E-05,2.33E-04,-1.65E-04,0,0,0,0,0,0.0019883,10.3,83.323,90,0,NaN,38.759,999.27,354.79,0.016456,0.10615,2.6915
0.17962,1.4718,17.204,101.91,17.204,101.91,-7.39E-07,0,7.39E-07,-180,5.55E-05,0.0022048,28.61,-80.6,9.7884,1.85E-04,0,0,0,18012,2509.8,13.077,0.028454,189.74,158.38,3.0454,0.048492,2563842,2013.3,0.85282,0.61968,0.61968,0.39453,0.10484,0.12031,2.69E-05,1.25E-04,3.55E-04,0,0,0,0,0,0.0022027,10.3,83.323,90,0,NaN,38.757,999.25,354.79,0.024685,0.11138,3.3034
0.2043,1.9275,19.723,102.21,19.723,102.21,-2.81E-06,0,2.81E-06,-180,1.14E-04,0.0025204,28.61,-80.6,9.7884,3.31E-04,0,0,0,17992,2489.5,13.067,0.02844,189.75,158.3,3.053,0.055591,2939139,2016.9,1.1036,0.61018,0.61018,0.3849,0.10488,0.1204,4.82E-05,5.05E-04,-2.02E-04,0,0,0,0,0,0.0025252,10.3,83.323,90,0,NaN,38.755,999.23,354.78,0.037027,0.11559,4.3413
0.24133,2.728,23.514,102.66,23.514,102.66,-8.87E-06,0,8.87E-06,-180,2.16E-04,0.0029997,28.61,-80.6,9.7883,5.27E-04,0,0,0,17962,2459.1,13.052,0.028418,189.75,158.18,3.0646,0.066278,3504037,2022,1.5386,0.59851,0.59851,0.37301,0.10494,0.12057,7.67E-05,6.51E-04,-1.06E-04,0,0,0,0,0,0.0030106,10.3,83.323,90,0,NaN,38.751,999.18,354.78,0.05,0.12483,6.1706
0.29133,4.0322,28.659,103.26,28.659,103.26,-2.37E-05,0,2.37E-05,-180,3.82E-04,0.0036457,28.61,-80.6,9.7883,7.64E-04,0,0,0,17919,2416.2,13.03,0.028388,189.75,158.02,3.0811,0.08078,4270587,2027.9,2.2381,0.58612,0.58612,0.36024,0.10503,0.12085,1.11E-04,6.50E-04,3.40E-05,0,0,0,0,0,0.0036694,10.3,83.323,90,0,NaN,38.744,999.11,354.78,0.05,0.12806,9.1658
0.34133,5.5945,33.834,103.85,33.834,103.85,-4.76E-05,0,4.76E-05,-180,5.81E-04,0.0042893,28.61,-80.6,9.7883,9.83E-04,0,0,0,17870,2366.9,13.005,0.028354,189.76,157.83,3.1001,0.095368,5041492,2033.8,3.0671,0.57633,0.57633,0.35001,0.10515,0.12118,1.43E-04,4.70E-04,1.45E-04,0,0,0,0,0,0.0043319,10.3,83.323,90,0,NaN,38.736,999.02,354.77,0.05,0.13186,12.774
0.39133,7.4163,39.038,104.44,39.038,104.44,-8.23E-05,0,8.23E-05,-180,8.11E-04,0.0049293,28.61,-80.6,9.7883,0.0011905,0,0,0,17820,2317.6,12.98,0.028319,189.77,157.64,3.1194,0.11004,5816705,2039.7,4.0264,0.56835,0.56835,0.3415,0.10528,0.12157,1.73E-04,7.30E-04,-7.55E-05,0,0,0,0,0,0.0049983,10.3,83.323,90,0,NaN,38.727,998.92,354.77,0.05,0.13477,17.005
0.44133,9.499,44.272,105.03,44.272,105.03,-1.29E-04,0,1.29E-04,-180,0.0010735,0.0055646,28.61,-80.6,9.7883,0.0013893,0,2.35E-04,1.40E-05,17771,2268.4,12.955,0.028284,189.78,157.45,3.139,0.12479,6596176,2045.5,5.1174,0.56171,0.56171,0.33425,0.10544,0.12202,2.02E-04,6.72E-04,1.26E-04,0,0,0,0,0,0.0056684,10.3,83.323,90,0,NaN,38.716,998.8,354.76,0.05,0.13741,21.868
0.49133,11.844,49.535,105.61,49.535,105.61,-1.90E-04,0,1.90E-04,-180,0.0013675,0.0061939,28.61,-80.6,9.7883,0.0015818,0,4.33E-04,2.25E-05,17722,2219.1,12.929,0.02825,189.79,157.26,3.1587,0.13963,7379858,2051.4,6.3417,0.55608,0.55608,0.32793,0.10561,0.12253,2.30E-04,3.40E-04,-1.89E-04,0,0,0,0,0,0.0063422,10.3,83.323,90,0,NaN,38.704,998.67,354.75,0.05,0.14017,27.374
0.54133,14.453,54.827,106.19,54.827,106.19,-2.67E-04,0,2.67E-04,-180,0.0016928,0.006816,28.61,-80.6,9.7883,0.001769,0,6.69E-04,1.01E-04,17672,2169.8,12.904,0.028215,189.8,157.06,3.1788,0.15455,8167700,2057.3,7.701,0.55127,0.55127,0.32235,0.10581,0.12311,2.58E-04,0.0010783,-2.60E-04,0,0,0,0,0,0.0070198,10.3,83.323,90,0,NaN,38.691,998.52,354.75,0.05,0.14328,33.532
0.59133,17.327,60.148,106.76,60.148,106.76,-3.60E-04,0,3.60E-04,-180,0.002049,0.0074296,28.61,-80.6,9.7883,0.0019518,0,0.0010281,9.60E-05,17623,2120.5,12.878,0.02818,189.82,156.87,3.199,0.16956,8959651,2063.1,9.1975,0.54712,0.54712,0.31736,0.10603,0.12374,2.85E-04,7.40E-04,3.48E-04,0,0,0,0,0,0.007701,10.3,83.323,90,0,NaN,38.677,998.36,354.74,0.05,0.14631,40.351
0.64133,20.469,65.497,107.33,65.497,107.33,-4.72E-04,0,4.72E-04,-180,0.0024368,0.00817,28.61,-80.6,9.7883,0.0020698,0,0.0014676,1.13E-05,17574,2071.3,12.853,0.028146,189.83,156.67,3.2195,0.18464,9755658,2069,10.833,0.54353,0.54353,0.31283,0.10626,0.12443,3.02E-04,0.0012318,-4.84E-05,0,0,0,0,0,0.0083859,10.3,83.323,90,178.64,NaN,38.661,998.18,354.73,0.05,0.15101,47.842
0.69133,23.878,70.875,107.89,70.875,107.89,-6.04E-04,0,6.04E-04,-180,0.0028618,0.0089574,28.61,-80.6,9.7883,0.0021657,0,0.0019341,-3.02E-05,17525,2022,12.827,0.028111,189.85,156.47,3.2403,0.19981,10555666,2074.9,12.611,0.54042,0.54042,0.3087,0.10653,0.12519,3.16E-04,0.0014182,1.36E-04,0,0,0,0,0,0.0090744,10.3,83.323,90,179.23,NaN,38.643,997.99,354.72,0.05,0.15506,56.013
0.74133,27.557,76.28,108.45,76.28,108.45,-7.59E-04,7.50E-09,7.59E-04,180,0.0033285,0.0097894,28.61,-80.6,9.7883,0.0022437,0,0.0024213,-8.28E-05,17475,1972.7,12.801,0.028076,189.87,156.28,3.2614,0.21505,1.14E+07,2080.7,14.533,0.53772,0.53772,0.3049,0.10681,0.12601,3.27E-04,0.0012744,4.89E-04,0,0,0,0,0,0.0097665,10.3,83.323,90,179.98,NaN,38.625,997.78,354.71,0.05,0.15757,64.873
0.79133,31.506,81.714,109,81.714,109,-9.38E-04,1.75E-08,9.38E-04,180,0.0038401,0.010686,28.61,-80.6,9.7883,0.0022969,0,0.0031709,-2.36E-04,17426,1923.4,12.775,0.028042,189.89,156.08,3.2827,0.23038,12167461,2086.6,16.602,0.53538,0.53538,0.30137,0.10712,0.1269,3.35E-04,9.17E-04,1.10E-04,0,0,0,0,0,0.010462,10.3,83.323,90,-178.62,NaN,38.605,997.56,354.69,0.05,0.16041,74.432
0.84133,35.729,87.175,109.55,87.175,109.55,-0.0011436,-3.12E-08,0.0011436,-180,0.0043984,0.011662,28.61,-80.6,9.7882,0.0023204,0,0.003801,-1.97E-04,17377,1874.1,12.748,0.028007,189.91,155.88,3.3043,0.24578,12979129,2092.5,18.821,0.53338,0.53338,0.29808,0.10745,0.12785,3.39E-04,0.0010641,-4.36E-04,0,0,0,0,0,0.011161,10.3,83.323,89.999,-177.95,NaN,38.583,997.32,354.68,0.05,0.16684,84.699
0.89133,40.224,92.663,110.09,92.663,110.09,-0.0013786,-1.89E-07,0.0013786,-179.99,0.0050074,0.012726,28.61,-80.6,9.7882,0.002313,0,0.0048155,-7.90E-06,17328,1824.9,12.722,0.027972,189.93,155.67,3.3261,0.26127,13794563,2098.4,21.193,0.53167,0.53167,0.29499,0.1078,0.12887,3.38E-04,8.19E-04,2.13E-04,0,0,0,0,0,0.011864,10.3,83.323,89.999,-178.5,NaN,38.56,997.07,354.67,0.05,0.16936,95.682
0.94133,44.995,98.178,110.62,98.178,110.62,-0.0016453,-4.75E-07,0.0016453,-179.98,0.005673,0.013925,28.61,-80.6,9.7882,0.0022591,0,0.006024,6.07E-05,17278,1775.6,12.695,0.027938,189.96,155.47,3.3483,0.27683,14613699,2104.2,23.722,0.53022,0.53022,0.29209,0.10818,0.12996,3.30E-04,9.26E-04,1.05E-04,0,0,0,0,6.63E-09,0.01257,10.3,83.323,89.999,-178.96,NaN,38.536,996.8,354.65,0.05,0.17225,107.39
0.99133,50.043,103.72,111.15,103.72,111.15,-0.0019469,-8.69E-07,0.0019469,-179.97,0.0064023,0.015281,28.61,-80.6,9.7882,0.0021559,0,0.0072137,2.07E-04,17229,1726.3,12.669,0.027903,189.99,155.27,3.3707,0.29247,15436471,2110.1,26.411,0.52903,0.52903,0.28933,0.10858,0.13112,3.15E-04,9.12E-04,-1.73E-04,0,0,0,0,8.51E-09,0.01328,10.3,83.323,89.999,-179.57,NaN,38.51,996.52,354.64,0.05,0.17496,119.83
1.0413,55.368,109.29,111.68,109.29,111.68,-0.0022868,-1.32E-06,0.0022868,-179.97,0.0072032,0.01678,28.61,-80.6,9.7882,0.0020133,0,0.0081766,3.55E-04,17180,1677,12.642,0.027868,190.02,155.06,3.3934,0.30818,16262810,2116,29.263,0.52807,0.52807,0.28672,0.109,0.13235,2.95E-04,7.38E-04,2.11E-05,0,0,0,0,9.85E-09,0.013993,10.3,83.323,89.998,179.85,NaN,38.483,996.22,354.62,0.05,0.17658,133.01
1.0913,60.972,114.88,112.02,114.88,112.02,-0.0026686,-1.74E-06,0.0026686,-179.96,0.008083,0.018433,28.61,-80.6,9.7882,0.0018295,0,0.0094346,7.02E-04,17130,1627.8,12.615,0.027834,190.05,154.86,3.4164,0.32397,17092647,2118.9,32.282,0.52733,0.52733,0.28423,0.10945,0.13364,2.68E-04,8.45E-04,4.77E-04,0,0,0,0,1.19E-08,0.014709,10.3,83.323,89.998,179.32,NaN,38.455,995.9,354.6,0.05,0.18415,146.95
1.1413,66.856,120.49,111.68,120.49,111.68,-0.0030965,-1.98E-06,0.0030965,-179.96,0.0090503,0.020245,28.61,-80.6,9.7882,0.0015971,0,0.010856,8.35E-04,17081,1578.3,12.588,0.027799,190.08,154.65,3.4398,0.33981,17924656,2110.3,35.468,0.52679,0.52679,0.28185,0.10993,0.13501,2.34E-04,7.65E-04,-2.54E-05,0,0,0,0,1.43E-08,0.015427,10.3,83.323,89.997,178.93,NaN,38.425,995.57,354.58,0.05,0.19254,161.61
1.1913,73.021,126.09,111.26,126.09,111.26,-0.0035752,-1.88E-06,0.0035752,-179.97,0.010113,0.022258,28.61,-80.6,9.7881,0.0013109,0,0.012374,0.0012791,17031,1528.6,12.56,0.027764,190.11,154.44,3.4636,0.35561,18753700,2100.4,38.803,0.52645,0.52645,0.27959,0.11042,0.13644,1.92E-04,6.90E-04,3.11E-04,0,0,0,0,1.70E-08,0.016143,10.3,83.323,89.997,178.65,NaN,38.393,995.23,354.57,0.05,0.19933,176.92
1.2413,79.465,131.66,110.83,131.66,110.83,-0.0041095,-1.25E-06,0.0041095,-179.98,0.011282,0.024478,28.61,-80.6,9.7881,9.74E-04,0,0.013487,0.0015648,16981,1478.8,12.532,0.027729,190.15,154.23,3.4877,0.37135,19579157,2090.5,42.285,0.52629,0.52629,0.27742,0.11094,0.13793,1.43E-04,6.32E-04,1.80E-04,0,0,0,0,1.85E-08,0.016857,10.3,83.323,89.996,178.58,NaN,38.361,994.86,354.55,0.05,0.20222,192.86
1.2913,86.186,137.21,110.39,137.21,110.39,-0.0047052,5.86E-08,0.0047052,180,0.012565,0.026843,28.61,-80.6,9.7881,6.14E-04,0,0.014163,0.0024813,16932,1429,12.504,0.027694,190.19,154.01,3.512,0.38703,20400926,2080.7,45.915,0.5263,0.5263,0.27535,0.11148,0.13947,9.02E-05,6.81E-05,-1.62E-04,0,0,0,0,1.88E-08,0.017568,10.3,83.323,89.995,178.63,NaN,38.327,994.49,354.52,0.05,0.20498,209.41
1.3413,93.185,142.74,109.93,142.74,109.93,-0.0053681,2.13E-06,0.0053681,179.98,0.01397,0.029275,28.61,-80.6,9.7881,2.65E-04,0,0,0,16882,1379.2,12.476,0.027659,190.23,153.8,3.5366,0.40264,21218907,2070.8,49.692,0.52648,0.52648,0.27336,0.11204,0.14108,3.89E-05,2.12E-04,-2.81E-04,0,0,0,0,0,0.018276,10.3,83.323,89.995,178.76,NaN,38.291,994.09,354.5,0.05,0.20813,226.56
1.3913,100.46,148.24,109.47,148.24,109.47,-0.0061042,4.99E-06,0.0061042,179.95,0.015497,0.03171,28.61,-80.6,9.788,1.17E-04,0,0,0,16832,1329.4,12.448,0.027624,190.26,153.58,3.5614,0.4182,22032999,2060.9,53.617,0.5268,0.5268,0.27145,0.11262,0.14274,1.73E-05,3.94E-04,4.45E-04,0,0,0,0,0,0.01898,10.3,83.323,89.994,179.03,NaN,38.254,993.68,354.48,0.05,0.21057,244.3
1.4413,108.01,153.73,108.91,153.73,108.91,-0.0069197,8.54E-06,0.0069197,179.93,0.017145,0.034077,28.61,-80.6,9.788,3.84E-04,0,-0.013335,0.0020368,16782,1279.6,12.42,0.027589,190.3,153.36,3.5863,0.43369,22843100,2049.6,57.689,0.52727,0.52727,0.2696,0.11322,0.14445,5.64E-05,-3.06E-05,-1.21E-04,0,0,0,0,-1.32E-08,0.019682,10.3,83.323,89.993,179.43,NaN,38.216,993.26,354.46,0.05,0.21312,262.62
1.4913,115.83,159.18,108.14,159.18,108.14,-0.0078206,1.25E-05,0.0078206,179.91,0.018909,0.036323,28.61,-80.6,9.788,6.26E-04,0,-0.012596,9.84E-04,16733,1230.5,12.392,0.027554,190.35,153.15,3.6112,0.44911,23648447,2035.3,61.907,0.52788,0.52788,0.26782,0.11384,0.14622,9.22E-05,5.00E-04,1.80E-04,0,0,0,0,-1.10E-08,0.020381,10.3,83.323,89.993,179.88,NaN,38.176,992.82,354.43,0.05,0.21706,281.5
1.5413,123.93,164.59,107.36,164.59,107.36,-0.0088124,1.65E-05,0.0088124,179.89,0.02078,0.038377,28.61,-80.6,9.788,8.02E-04,0,-0.011335,7.81E-04,16685,1182.4,12.364,0.027521,190.39,152.94,3.6359,0.46442,24447525,2020.8,66.261,0.52862,0.52862,0.2661,0.11447,0.14804,1.18E-04,5.54E-04,4.53E-06,0,0,0,0,-8.35E-09,0.021074,10.3,83.323,89.992,-179.59,NaN,38.135,992.36,354.41,0.05,0.21986,300.88
1.5913,132.29,169.97,106.55,169.97,106.55,-0.0099002,2.00E-05,0.0099002,179.88,0.022749,0.040163,28.61,-80.6,9.788,8.96E-04,0,-0.0099296,-2.00E-04,16637,1134.6,12.336,0.027487,190.43,152.73,3.6608,0.47962,2.52E+07,2006.4,70.75,0.52948,0.52948,0.26444,0.11513,0.1499,1.32E-04,8.72E-04,3.03E-04,0,0,0,0,-6.01E-09,0.021762,10.3,83.323,89.991,-178.97,NaN,38.092,991.89,354.38,0.05,0.22277,320.74
1.6413,140.92,175.3,105.74,175.3,105.74,-0.011089,2.23E-05,0.011089,179.88,0.0248,0.041692,28.61,-80.6,9.7879,9.11E-04,0,-0.0077221,-9.56E-04,16589,1086.7,12.308,0.027453,190.48,152.51,3.686,0.49471,26026258,1991.9,75.373,0.53045,0.53045,0.26283,0.1158,0.15182,1.35E-04,4.66E-04,3.75E-04,0,0,0,0,0,0.022445,10.3,83.323,89.991,-178.63,NaN,38.048,991.41,354.36,0.05,0.24163,341.07
1.6913,149.82,180.6,104.91,180.6,104.91,-0.012381,2.28E-05,0.012381,179.89,0.02692,0.042911,28.61,-80.6,9.7879,8.38E-04,0,-0.0065039,-0.0012453,16541,1038.8,12.28,0.02742,190.52,152.3,3.7115,0.50969,26805696,1977.5,80.128,0.53153,0.53153,0.26127,0.11649,0.15377,1.24E-04,3.61E-04,1.10E-04,0,0,0,0,0,0.023123,10.3,83.323,89.991,-178.47,NaN,38.003,990.91,354.33,0.05,0.24497,361.85
1.7413,158.98,185.85,104.07,185.85,104.07,-0.013781,2.11E-05,0.013781,179.91,0.029097,0.043984,28.61,-80.6,9.7879,7.37E-04,0,-0.0057419,-0.0015259,16494,990.95,12.252,0.027386,190.58,152.08,3.7375,0.52456,27578374,1963,85.014,0.53271,0.53271,0.25975,0.11719,0.15577,1.09E-04,1.73E-04,-4.02E-04,0,0,0,0,0,0.023795,10.3,83.323,89.99,-178.33,NaN,37.956,990.39,354.3,0.05,0.24959,383.06
1.7913,168.4,191.06,103.16,191.06,103.16,-0.015292,1.70E-05,0.015292,179.94,0.031324,0.044846,28.61,-80.6,9.7878,5.94E-04,0,-0.0038449,-0.0021844,16446,943.48,12.224,0.027353,190.63,151.87,3.764,0.5393,28344157,1947.5,90.029,0.534,0.534,0.25828,0.11791,0.15781,8.79E-05,7.56E-04,-4.77E-04,0,0,0,0,0,0.024462,10.3,83.323,89.99,-178.3,NaN,37.909,989.86,354.27,0.05,0.25333,404.68
1.8413,178.09,196.22,102.18,196.22,102.18,-0.016914,1.05E-05,0.016914,179.96,0.033583,0.045244,28.61,-80.6,9.7878,3.50E-04,0,-0.0012368,-0.002189,16401,898.15,12.197,0.027321,190.7,151.66,3.7901,0.55392,29102400,1931.5,95.168,0.53537,0.53537,0.25684,0.11865,0.15989,5.18E-05,-2.30E-04,2.48E-05,0,0,0,0,0,0.025123,10.3,83.323,89.99,-178.46,NaN,37.859,989.32,354.24,0.05,0.25955,426.68
1.8913,188.02,201.34,101.18,201.34,101.18,-0.01865,1.75E-06,0.01865,179.99,0.035857,0.045547,28.61,-80.6,9.7878,1.75E-04,0,0,0,16357,854.57,12.171,0.02729,190.76,151.46,3.8158,0.56841,29852682,1915.6,100.43,0.53684,0.53684,0.25544,0.11939,0.162,2.59E-05,1.06E-04,-4.77E-05,0,0,0,0,0,0.025778,10.3,83.323,89.99,-178.71,NaN,37.809,988.76,354.21,0.05,0.26411,449.03
1.9413,198.22,206.4,100.17,206.4,100.17,-0.0205,-8.87E-06,0.0205,-179.98,0.038147,0.045905,28.61,-80.6,9.7877,2.55E-04,0,0,0,16314,810.98,12.145,0.027259,190.83,151.26,3.842,0.58275,30594887,1899.6,105.8,0.53838,0.53838,0.25408,0.12015,0.16415,3.78E-05,-8.89E-05,-3.19E-04,0,0,0,0,0,0.026426,10.3,83.323,89.99,-179.03,NaN,37.757,988.19,354.18,0.05,0.26791,471.7
1.9913,208.66,211.41,99.146,211.41,99.146,-0.022465,-2.09E-05,0.022465,-179.95,0.040458,0.046316,28.61,-80.6,9.7877,4.32E-04,0,0.0040181,-3.73E-04,16270,767.4,12.119,0.027229,190.9,151.05,3.8685,0.59696,31328913,1883.6,111.29,0.54,0.54,0.25275,0.12093,0.16633,6.42E-05,-2.16E-04,-7.28E-05,0,0,0,0,0,0.027068,10.3,83.323,89.989,-179.16,NaN,37.704,987.6,354.15,0.05,0.2709,494.68
2.0413,219.36,216.37,98.11,216.37,98.11,-0.024546,-3.40E-05,0.024546,-179.92,0.04279,0.046862,28.61,-80.6,9.7877,5.69E-04,0,0.00505,-8.54E-04,16226,723.81,12.092,0.027198,190.97,150.85,3.8954,0.61103,32054662,1867.7,116.89,0.5417,0.5417,0.25145,0.12171,0.16854,8.47E-05,2.88E-04,2.23E-04,0,0,0,0,0,0.027703,10.3,83.323,89.989,-179.24,NaN,37.65,987,354.11,0.05,0.27368,517.95
2.0913,230.3,221.28,97.061,221.28,97.061,-0.026745,-4.82E-05,0.026745,-179.9,0.045157,0.047691,28.61,-80.6,9.7876,6.29E-04,0,0.0072727,-0.0023039,16183,680.23,12.066,0.027168,191.05,150.65,3.9227,0.62495,32772035,1851.7,122.6,0.54346,0.54346,0.25018,0.12251,0.17077,9.37E-05,1.03E-04,-3.99E-06,0,0,0,0,0,0.028332,10.3,83.323,89.989,-179.09,NaN,37.594,986.38,354.08,0.05,0.2763,541.47
2.1413,241.48,226.14,96,226.14,96,-0.029063,-6.38E-05,0.029063,-179.87,0.047575,0.048839,28.61,-80.6,9.7876,6.10E-04,0,0.0081755,-0.0029994,16139,636.64,12.039,0.027137,191.13,150.44,3.9504,0.63872,33480935,1835.8,128.41,0.5453,0.5453,0.24895,0.12331,0.17304,9.09E-05,5.09E-05,4.08E-04,0,0,0,0,0,0.028954,10.3,83.323,89.989,-178.83,NaN,37.537,985.75,354.05,0.05,0.28017,565.24
2.1913,252.91,230.94,94.927,230.94,94.927,-0.031503,-8.13E-05,0.031503,-179.85,0.050058,0.050312,28.61,-80.6,9.7876,5.15E-04,0,0.0097502,-0.0045519,16096,593.05,12.012,0.027106,191.21,150.23,3.9785,0.65235,34181266,1819.8,134.32,0.54719,0.54719,0.24773,0.12413,0.17532,7.69E-05,4.63E-04,3.96E-04,0,0,0,0,0,0.029569,10.3,83.323,89.988,-178.64,NaN,37.479,985.11,354.01,0.05,0.28434,589.23
2.2413,264.58,235.69,93.845,235.69,93.845,-0.03407,-1.01E-04,0.03407,-179.83,0.052629,0.052396,28.61,-80.6,9.7875,3.02E-04,0,0.010853,-0.0095462,16052,549.47,11.985,0.027076,191.3,150.03,4.0069,0.66588,34866908,1803.8,140.3,0.54915,0.54915,0.24655,0.12496,0.17764,4.51E-05,5.34E-04,-4.15E-04,0,0,0,0,0,0.030177,10.3,83.323,89.987,-178.6,NaN,37.383,984.07,353.95,0.05,0.2873,613.26
2.2913,276.48,240.38,92.751,240.38,92.751,-0.036768,-1.24E-04,0.036768,-179.81,0.055315,0.054863,28.61,-80.6,9.7875,1.68E-04,0,0,0,16009,505.88,11.958,0.027045,191.39,149.82,4.0357,0.67928,3.55E+07,1787.9,146.35,0.55118,0.55118,0.2454,0.1258,0.17998,2.51E-05,-2.52E-04,-6.84E-06,0,0,0,0,0,0.030778,10.3,83.323,89.987,-178.99,NaN,37.266,982.81,353.88,0.05,0.28997,637.36
2.3413,288.61,245.02,91.647,245.02,91.647,-0.039603,-1.48E-04,0.039603,-179.79,0.058122,0.05707,28.61,-80.6,9.7875,3.76E-04,0,-0.01147,-0.0035746,15965,462.3,11.931,0.027014,191.47,149.61,4.0646,0.69253,36203767,1771.9,152.49,0.55326,0.55326,0.24427,0.12665,0.18235,5.64E-05,5.82E-05,-2.88E-04,0,0,0,0,0,0.031372,10.3,83.323,89.986,-179.44,NaN,37.146,981.52,353.81,0.05,0.29829,661.58
2.3913,300.98,249.61,90.531,249.61,90.531,-0.042581,-1.73E-04,0.042581,-179.77,0.061028,0.058792,28.61,-80.6,9.7874,5.39E-04,0,-0.011663,-6.11E-04,15921,418.71,11.903,0.026984,191.56,149.4,4.0938,0.70564,36857984,1755.9,158.71,0.55539,0.55539,0.24316,0.1275,0.18473,8.09E-05,1.44E-04,-1.00E-05,0,0,0,0,0,0.031959,10.3,83.323,89.985,179.87,NaN,37.023,980.21,353.73,0.05,0.30297,685.92
2.4413,313.57,254.14,89.405,254.14,89.405,-0.045707,-1.97E-04,0.045707,-179.75,0.064012,0.060215,28.61,-80.6,9.7874,6.70E-04,0,-0.0096058,0.0012603,15878,375.13,11.876,0.026953,191.65,149.18,4.1232,0.71859,37502606,1740,165.01,0.55757,0.55757,0.24207,0.12837,0.18713,1.01E-04,8.11E-04,3.81E-04,0,0,0,0,0,0.032538,10.3,83.323,89.985,179.19,NaN,36.899,978.87,353.66,0.05,0.30605,710.35
2.4913,326.39,258.61,88.267,258.61,88.267,-0.048983,-2.18E-04,0.048983,-179.75,0.06705,0.061138,28.61,-80.6,9.7874,6.92E-04,0,-0.0066382,0.0039159,15834,331.54,11.848,0.026922,191.75,148.97,4.1529,0.73139,38137546,1724,171.38,0.55979,0.55979,0.24101,0.12924,0.18954,1.04E-04,4.07E-04,-9.49E-05,0,0,0,0,0,0.033111,10.3,83.323,89.985,178.79,NaN,36.772,977.51,353.58,0.05,0.30885,734.84
2.5413,339.43,263.02,87.119,263.02,87.119,-0.052412,-2.34E-04,0.052413,-179.74,0.07013,0.061809,28.61,-80.6,9.7873,5.99E-04,0,-0.0031272,0.0053562,15791,287.96,11.82,0.026892,191.84,148.76,4.1829,0.74404,38762718,1708,177.81,0.56205,0.56205,0.23997,0.13011,0.19197,9.02E-05,7.39E-04,3.72E-04,0,0,0,0,0,0.033676,10.3,83.323,89.984,178.94,NaN,36.643,976.12,353.5,0.05,0.31212,759.38
2.5913,352.69,267.38,84.666,267.38,84.666,-0.055996,-2.47E-04,0.055997,-179.75,0.073226,0.061366,28.61,-80.6,9.7873,3.16E-04,0,-3.25E-04,0.0051094,15747,244.37,11.792,0.026861,191.94,148.54,4.2132,0.75654,39378041,1671.7,184.31,0.56434,0.56434,0.23894,0.13099,0.19441,4.76E-05,3.02E-04,3.21E-04,0,0,0,0,0,0.034234,10.3,83.323,89.984,179.55,NaN,36.512,974.71,353.43,0.05,0.31545,783.95
2.6413,366.17,271.61,77.764,271.61,77.764,-0.059734,-2.58E-04,0.059735,-179.75,0.076292,0.059405,28.61,-80.6,9.7872,8.05E-06,0,0,0,15705,202.42,11.765,0.026832,192.03,148.33,4.2427,0.76869,39973852,1565.8,190.77,0.56663,0.56663,0.23795,0.13187,0.19682,1.22E-06,-6.85E-05,2.22E-04,0,0,0,0,0,0.034776,10.3,83.323,89.984,-179.85,NaN,36.378,973.28,353.34,0.05,0.31802,808.13
2.6913,379.85,275.5,66.946,275.5,66.946,-0.063623,-2.69E-04,0.063623,-179.76,0.079263,0.056522,28.61,-80.6,9.7872,2.37E-04,0,8.33E-04,-0.0059786,15668,165.64,11.741,0.026806,192.12,148.15,4.2691,0.77987,40517375,1399.1,196.81,0.5688,0.5688,0.23705,0.13268,0.19907,3.58E-05,3.94E-04,-1.00E-04,0,0,0,0,0,0.035274,10.3,83.323,89.984,-179.28,NaN,36.243,971.83,353.26,0.05,0.32013,830.55
2.7413,393.7,278.84,54.796,278.84,54.796,-0.067657,-2.82E-04,0.067657,-179.76,0.082094,0.053281,28.61,-80.6,9.7871,4.16E-04,0,0.0029068,-0.0045209,15642,139.1,11.724,0.026787,192.2,148.01,4.2895,0.78953,4.10E+07,1212.3,202.08,0.57071,0.57071,0.23628,0.1334,0.20104,6.29E-05,6.83E-05,3.16E-04,0,0,0,0,0,0.035702,10.3,83.323,89.983,-178.86,NaN,36.106,970.36,353.18,0.05,0.32187,849.92
2.7913,407.72,281.58,42.642,281.58,42.642,-0.071828,-2.99E-04,0.071829,-179.76,0.084766,0.050093,28.61,-80.6,9.7871,4.91E-04,0,0.0064187,-0.0035743,15622,119.28,11.711,0.026773,192.26,147.91,4.3054,0.79746,41351978,1025.5,206.42,0.57232,0.57232,0.23565,0.13399,0.20267,7.42E-05,2.55E-04,1.73E-04,0,0,0,0,0,0.036052,10.3,83.323,89.983,-178.77,NaN,35.968,968.87,353.1,0.05,0.32344,865.75
2.8413,421.85,283.71,30.518,283.71,30.518,-0.076129,-3.19E-04,0.07613,-179.76,0.087288,0.047279,28.61,-80.6,9.7871,3.82E-04,0,0.010516,-0.0011759,15602,99.463,11.698,0.026759,192.31,147.81,4.3201,0.80369,41634127,838.65,209.8,0.5736,0.5736,0.23517,0.13446,0.20397,5.78E-05,2.89E-04,-6.86E-06,0,0,0,0,0,0.036325,10.3,83.323,89.983,-179.15,NaN,35.828,967.37,353.01,0.05,0.32552,877.92
2.8913,436.07,285.23,18.429,285.23,18.429,-0.080553,-3.41E-04,0.080554,-179.76,0.08968,0.044681,28.61,-80.6,9.787,1.77E-04,0,0,0,15582,79.646,11.685,0.026745,192.35,147.71,4.3336,0.8082,41826806,651.84,212.17,0.57455,0.57455,0.23483,0.13481,0.20491,2.69E-05,2.38E-04,-4.02E-04,0,0,0,0,0,0.03652,10.3,83.323,89.982,-179.83,NaN,35.687,965.86,352.93,0.05,0.32866,886.4
2.9413,450.36,286.16,6.3731,286.16,6.3733,-0.085093,-3.63E-04,0.085094,-179.76,0.091942,0.04179,28.61,-80.6,9.787,2.30E-04,0,-0.0023458,0.011033,15562,59.828,11.672,0.026731,192.37,147.61,4.3456,0.81101,41930521,465.02,213.53,0.57516,0.57516,0.23463,0.13502,0.20551,3.49E-05,-1.99E-04,1.81E-04,0,0,0,0,0,0.036638,10.3,83.323,89.982,179.55,NaN,35.546,964.34,352.84,0.05,0.33217,891.14
2.9913,464.67,286.47,-5.647,286.47,5.6471,-0.089743,-3.82E-04,0.089744,-179.76,0.094045,0.038479,28.61,-80.6,9.7869,3.56E-04,0,-0.0046253,0.0099653,15543,40.01,11.659,0.026717,192.38,147.51,4.3562,0.81211,41945790,278.21,213.87,0.57542,0.57542,0.23457,0.13511,0.20574,5.39E-05,2.64E-04,3.80E-04,0,0,0,0,0,0.036679,10.3,83.323,89.981,179.2,NaN,35.404,962.82,352.75,0.05,0.33544,892.13
3.0413,478.99,286.19,-15.962,286.19,15.962,-0.094493,-3.99E-04,0.094494,-179.76,0.095979,0.035553,28.61,-80.6,9.7869,4.63E-04,0,-0.0075426,0.0086425,15523,20.192,11.646,0.026703,192.38,147.41,4.3655,0.81151,41873136,117.31,213.17,0.57533,0.57533,0.23466,0.13506,0.20561,7.02E-05,6.97E-04,3.83E-05,0,0,0,0,0,0.036643,10.3,83.323,89.981,179.08,NaN,35.263,961.3,352.67,0.05,0.33829,889.38
3.0913,493.28,285.4,-19.993,285.4,19.993,-0.099337,-4.12E-04,0.099338,-179.76,0.097762,0.034431,28.61,-80.6,9.7868,5.09E-04,0,-0.006661,0.0089214,15509,6.1528,11.636,0.026694,192.36,147.34,4.3708,0.80945,41725271,53.326,211.61,0.57494,0.57494,0.23486,0.13491,0.20518,7.71E-05,-1.07E-04,-4.28E-04,0,0,0,0,0,0.036541,10.3,83.323,89.98,179.24,NaN,35.121,959.78,352.58,0.05,0.34009,883.45
3.1413,507.52,284.4,-22.917,284.4,22.917,-0.10427,-4.23E-04,0.10427,-179.77,0.099489,0.033506,28.61,-80.6,9.7868,5.15E-04,0,-0.0082189,0.0063797,15504,1.3361,11.633,0.02669,192.34,147.31,4.3711,0.80682,41548265,6.1398,209.72,0.57444,0.57444,0.23511,0.1347,0.20462,7.80E-05,6.93E-04,1.27E-04,0,0,0,0,0,0.036413,10.3,83.323,89.979,179.82,NaN,34.98,958.27,352.5,0.05,0.34224,876.31
3.1913,521.71,283.26,-23.177,283.26,23.177,-0.10928,-4.33E-04,0.10929,-179.77,0.10116,0.033137,28.61,-80.6,9.7868,5.11E-04,0,-0.0080788,0.0017077,15503,0.32491,11.632,0.026689,192.31,147.31,4.3692,0.80377,4.14E+07,0,207.59,0.57386,0.57386,0.2354,0.13447,0.20399,7.74E-05,-2.04E-05,-6.03E-05,0,0,0,0,0,0.036267,10.3,83.323,89.979,-179.6,NaN,34.84,956.76,352.41,0.05,0.3453,868.31
3.2413,535.85,282.1,-23.04,282.1,23.04,-0.11438,-4.44E-04,0.11438,-179.78,0.1028,0.03248,28.61,-80.6,9.7867,4.30E-04,0,-0.0036955,-5.11E-05,15503,0,11.632,0.026689,192.29,147.31,4.3669,0.80068,41150664,0,205.46,0.57327,0.57327,0.23569,0.13424,0.20334,6.51E-05,2.98E-05,-4.04E-04,0,0,0,0,0,0.036119,10.3,83.323,89.979,-179.25,NaN,34.7,955.26,352.33,0.05,0.3474,860.28
3.2913,549.92,280.95,-22.904,280.95,22.904,-0.11956,-4.57E-04,0.11956,-179.78,0.1044,0.031415,28.61,-80.6,9.7867,2.73E-04,0,8.24E-04,-0.0036054,15503,0,11.632,0.026689,192.26,147.31,4.3645,0.79761,40952385,0,203.36,0.57269,0.57269,0.23598,0.134,0.2027,4.13E-05,2.99E-04,9.25E-05,0,0,0,0,0,0.035972,10.3,83.323,89.979,-179.17,NaN,34.561,953.76,352.24,0.05,0.34931,852.34
3.3413,563.94,279.81,-22.77,279.81,22.77,-0.12482,-4.71E-04,0.12482,-179.78,0.10595,0.030409,28.61,-80.6,9.7866,2.00E-04,0,0,0,15503,0,11.632,0.026689,192.24,147.31,4.3621,0.79456,40755400,0,201.28,0.57211,0.57211,0.23626,0.13377,0.20207,3.03E-05,5.81E-04,-1.08E-04,0,0,0,0,0,0.035826,10.3,83.323,89.978,-179.5,NaN,34.422,952.27,352.16,0.05,0.35235,844.48
3.3913,577.91,278.68,-22.638,278.68,22.638,-0.13016,-4.86E-04,0.13016,-179.79,0.10745,0.029747,28.61,-80.6,9.7866,3.19E-04,0,0.0055335,0.0067305,15503,0,11.632,0.026689,192.21,147.31,4.3597,0.79153,4.06E+07,0,199.23,0.57154,0.57154,0.23655,0.13355,0.20145,4.83E-05,-2.26E-04,3.92E-04,0,0,0,0,0,0.03568,10.3,83.323,89.978,179.95,NaN,34.284,950.79,352.08,0.05,0.35525,836.72
3.4413,591.81,277.55,-22.507,277.55,22.508,-0.13557,-5.01E-04,0.13557,-179.79,0.10893,0.029566,28.61,-80.6,9.7865,4.12E-04,0,0.0051575,0.0073714,15503,0,11.632,0.026689,192.19,147.31,4.3573,0.78851,40365252,0,197.21,0.57098,0.57098,0.23684,0.13332,0.20083,6.23E-05,5.35E-05,4.83E-04,0,0,0,0,0,0.035536,10.3,83.323,89.978,179.46,NaN,34.147,949.31,351.99,0.05,0.35902,829.03
3.4913,605.66,276.43,-22.379,276.43,22.379,-0.14105,-5.14E-04,0.14105,-179.79,0.1104,0.029543,28.61,-80.6,9.7865,3.98E-04,0,0.0069051,0.0065978,15503,0,11.632,0.026689,192.16,147.31,4.3549,0.78551,40172057,0,195.21,0.57043,0.57043,0.23712,0.1331,0.20021,6.02E-05,-1.11E-04,1.23E-04,0,0,0,0,0,0.035392,10.3,83.323,89.977,179.37,NaN,34.01,947.84,351.91,0.05,0.36435,821.43
3.5413,619.45,275.31,-22.251,275.31,22.251,-0.14661,-5.24E-04,0.14661,-179.8,0.11188,0.029574,28.61,-80.6,9.7865,3.52E-04,0,0.0045896,0.0081354,15503,0,11.632,0.026689,192.14,147.31,4.3526,0.78252,4.00E+07,0,193.24,0.56988,0.56988,0.2374,0.13288,0.1996,5.32E-05,2.49E-04,1.05E-04,0,0,0,0,0,0.035249,10.3,83.323,89.977,179.38,NaN,33.873,946.38,351.83,0.05,0.36914,813.92
3.5913,633.19,274.2,-22.126,274.2,22.126,-0.15224,-5.32E-04,0.15224,-179.8,0.11336,0.029698,28.61,-80.6,9.7864,3.23E-04,0,0.003518,0.0097239,15503,0,11.632,0.026689,192.12,147.31,4.3503,0.77955,39789354,0,191.29,0.56934,0.56934,0.23769,0.13266,0.199,4.89E-05,5.68E-04,4.38E-04,0,0,0,0,0,0.035107,10.3,83.323,89.976,179.33,NaN,33.738,944.92,351.74,0.05,0.37235,806.48
3.6413,646.87,273.1,-22.002,273.1,22.002,-0.15794,-5.38E-04,0.15794,-179.8,0.11484,0.029772,28.61,-80.6,9.7864,2.68E-04,0,6.26E-04,0.010147,15503,0,11.632,0.026689,192.09,147.31,4.3481,0.77659,3.96E+07,0,189.37,0.56881,0.56881,0.23797,0.13244,0.1984,4.05E-05,3.17E-04,2.79E-05,0,0,0,0,0,0.034966,10.3,83.323,89.976,179.41,NaN,33.602,943.47,351.66,0.05,0.37575,799.13
3.6913,660.5,272,-21.879,272,21.879,-0.16372,-5.42E-04,0.16372,-179.81,0.11633,0.029964,28.61,-80.6,9.7863,2.02E-04,0,0,0,15503,0,11.632,0.026689,192.07,147.31,4.3458,0.77365,39411467,0,187.47,0.56828,0.56828,0.23825,0.13223,0.19781,3.05E-05,1.39E-04,-4.30E-04,0,0,0,0,0,0.034826,10.3,83.323,89.975,179.62,NaN,33.467,942.02,351.58,0.05,0.38285,791.85
3.7413,674.08,270.91,-21.758,270.91,21.758,-0.16958,-5.45E-04,0.16958,-179.82,0.11784,0.030265,28.61,-80.6,9.7863,2.70E-04,0,-0.012054,0.0033712,15503,0,11.632,0.026689,192.05,147.31,4.3436,0.77073,39224295,0,185.6,0.56776,0.56776,0.23853,0.13201,0.19722,4.08E-05,5.15E-04,-1.58E-04,0,0,0,0,0,0.034686,10.3,83.323,89.975,-179.85,NaN,33.333,940.58,351.5,0.05,0.38585,784.66
3.7913,687.59,269.82,-21.639,269.83,21.639,-0.17551,-5.48E-04,0.17551,-179.82,0.11935,0.030328,28.61,-80.6,9.7862,4.34E-04,0,-0.0086018,-0.0041996,15503,0,11.632,0.026689,192.02,147.31,4.3413,0.76782,39038285,0,183.75,0.56725,0.56725,0.23881,0.1318,0.19664,6.54E-05,1.25E-04,-1.86E-04,0,0,0,0,0,0.034547,10.3,83.323,89.974,-179.37,NaN,33.199,939.14,351.42,0.05,0.38846,777.54
3.8413,701.06,268.75,-21.521,268.75,21.521,-0.18151,-5.53E-04,0.18151,-179.83,0.12086,0.030094,28.61,-80.6,9.7862,4.57E-04,0,-0.0047024,-0.004166,15503,0,11.632,0.026689,192,147.31,4.3391,0.76492,38853424,0,181.92,0.56674,0.56674,0.23908,0.13159,0.19606,6.90E-05,2.78E-05,2.58E-04,0,0,0,0,0,0.034409,10.3,83.323,89.974,-179.24,NaN,33.066,937.71,351.34,0.05,0.39131,770.49
3.8913,714.47,267.67,-21.404,267.67,21.404,-0.18759,-5.60E-04,0.18759,-179.83,0.12235,0.029604,28.61,-80.6,9.7862,3.96E-04,0,-0.0036307,-0.0048648,15503,0,11.632,0.026689,191.98,147.31,4.337,0.76204,3.87E+07,0,180.11,0.56624,0.56624,0.23936,0.13139,0.19549,5.96E-05,6.70E-04,-2.21E-04,0,0,0,0,0,0.034271,10.3,83.323,89.974,-179.2,NaN,32.934,936.29,351.26,0.05,0.39398,763.52
3.9413,727.83,266.61,-21.289,266.61,21.289,-0.19375,-5.70E-04,0.19375,-179.83,0.12382,0.028888,28.61,-80.6,9.7861,2.84E-04,0,0.0018154,-0.0044093,15503,0,11.632,0.026689,191.96,147.31,4.3349,0.75918,38487097,0,178.33,0.56574,0.56574,0.23964,0.13118,0.19493,4.28E-05,1.59E-05,4.38E-04,0,0,0,0,0,0.034135,10.3,83.323,89.973,-179.29,NaN,32.802,934.87,351.18,0.05,0.39741,756.62
3.9913,741.13,265.54,-21.176,265.54,21.176,-0.19997,-5.82E-04,0.19997,-179.83,0.12524,0.028083,28.61,-80.6,9.7861,2.33E-04,0,0.0045347,0.0011181,15503,0,11.632,0.026689,191.94,147.31,4.3327,0.75633,38305605,0,176.57,0.56525,0.56525,0.23991,0.13098,0.19436,3.51E-05,-8.51E-06,4.11E-04,0,0,0,0,0,0.033999,10.3,83.323,89.973,-179.61,NaN,32.67,933.45,351.1,0.05,0.40193,749.79
4.0413,754.38,264.49,-21.063,264.49,21.063,-0.20627,-5.94E-04,0.20627,-179.83,0.12663,0.027354,28.61,-80.6,9.786,3.96E-04,0,0.0048461,8.96E-04,15503,0,11.632,0.026689,191.91,147.31,4.3306,0.75349,38125210,0,174.83,0.56477,0.56477,0.24019,0.13078,0.19381,5.96E-05,5.28E-04,3.33E-04,0,0,0,0,0,0.033864,10.3,83.323,89.973,-179.83,NaN,32.539,932.05,351.02,0.05,0.40464,743.04
4.0913,767.58,263.44,-20.953,263.44,20.953,-0.21264,-6.07E-04,0.21264,-179.84,0.12798,0.026871,28.61,-80.6,9.786,5.17E-04,0,0.006442,0.0019296,15503,0,11.632,0.026689,191.89,147.31,4.3285,0.75067,37947683,0,173.12,0.56429,0.56429,0.24046,0.13058,0.19325,7.78E-05,-8.47E-05,2.81E-04,0,0,0,0,0,0.033729,10.3,83.323,89.973,-179.98,NaN,32.408,930.69,350.94,0.05,0.40735,736.39
4.1413,780.72,262.39,-20.844,262.39,20.844,-0.21907,-6.20E-04,0.21907,-179.84,0.12932,0.026566,28.61,-80.6,9.786,5.74E-04,0,0.0074082,-4.46E-04,15503,0,11.632,0.026689,191.87,147.31,4.3264,0.74786,37771644,0,171.43,0.56381,0.56381,0.24073,0.13038,0.19271,8.65E-05,5.98E-04,-4.52E-04,0,0,0,0,0,0.033595,10.3,83.323,89.972,-179.99,NaN,32.278,929.35,350.86,0.05,0.40972,729.82
4.1913,793.82,261.35,-20.736,261.35,20.736,-0.22557,-6.32E-04,0.22557,-179.84,0.13064,0.026443,28.61,-80.6,9.7859,5.66E-04,0,0.0093488,1.48E-04,15503,0,11.632,0.026689,191.85,147.31,4.3243,0.74506,37596639,0,169.76,0.56335,0.56335,0.241,0.13018,0.19216,8.52E-05,5.32E-04,-3.51E-04,0,0,0,0,0,0.033462,10.3,83.323,89.972,-179.96,NaN,32.149,928.01,350.78,0.05,0.41196,723.31
4.2413,806.86,260.32,-20.63,260.32,20.63,-0.23213,-6.44E-04,0.23213,-179.84,0.13197,0.02663,28.61,-80.6,9.7859,4.46E-04,0,0.01078,0.0013635,15503,0,11.632,0.026689,191.83,147.31,4.3223,0.74228,37422656,0,168.11,0.56288,0.56288,0.24127,0.12999,0.19163,6.71E-05,3.98E-04,2.27E-04,0,0,0,0,0,0.03333,10.3,83.323,89.971,-179.98,NaN,32.02,926.68,350.7,0.05,0.41489,716.87
4.2913,819.85,259.29,-20.524,259.29,20.524,-0.23876,-6.56E-04,0.23876,-179.84,0.13331,0.026978,28.61,-80.6,9.7858,2.60E-04,0,0.012077,-0.001779,15503,0,11.632,0.026689,191.81,147.31,4.3204,0.73951,3.73E+07,0,166.48,0.56242,0.56242,0.24153,0.1298,0.19109,3.92E-05,6.20E-04,-2.09E-04,0,0,0,0,0,0.033198,10.3,83.323,89.971,-179.89,NaN,31.891,925.35,350.63,0.05,0.41699,710.5
4.3413,832.79,258.27,-20.42,258.27,20.421,-0.24546,-6.68E-04,0.24546,-179.84,0.13467,0.027453,28.61,-80.6,9.7858,6.68E-05,0,0,0,15503,0,11.632,0.026689,191.79,147.31,4.3185,0.73675,37077713,0,164.87,0.56197,0.56197,0.2418,0.1296,0.19056,1.00E-05,3.24E-05,4.53E-04,0,0,0,0,0,0.033067,10.3,83.323,89.97,-179.78,NaN,31.763,924.03,350.55,0.05,0.41899,704.19
4.3913,845.68,257.25,-20.318,257.25,20.318,-0.25223,-6.80E-04,0.25223,-179.85,0.13605,0.028034,28.61,-80.6,9.7858,2.74E-04,0,-0.013136,-0.0060398,15503,0,11.632,0.026689,191.77,147.31,4.3164,0.73401,36906730,0,163.27,0.56152,0.56152,0.24207,0.12941,0.19004,4.12E-05,2.70E-05,9.92E-05,0,0,0,0,0,0.032937,10.3,83.323,89.969,-179.7,NaN,31.636,922.71,350.47,0.05,0.42069,697.94
4.4413,858.51,256.23,-20.216,256.23,20.216,-0.25907,-6.93E-04,0.25907,-179.85,0.13747,0.02859,28.61,-80.6,9.7857,5.29E-04,0,-0.013715,-0.002703,15503,0,11.632,0.026689,191.75,147.31,4.3144,0.73128,36736726,0,161.7,0.56108,0.56108,0.24233,0.12923,0.18952,7.95E-05,5.99E-04,-3.32E-04,0,0,0,0,-5.04E-09,0.032807,10.3,83.323,89.969,-179.83,NaN,31.509,921.4,350.39,0.05,0.42324,691.76
4.4913,871.3,255.23,-20.116,255.23,20.116,-0.26598,-7.06E-04,0.26598,-179.85,0.13891,0.02881,28.61,-80.6,9.7857,6.78E-04,0,-0.0096351,5.19E-04,15503,0,11.632,0.026689,191.73,147.31,4.3124,0.72856,36567690,0,160.14,0.56064,0.56064,0.2426,0.12904,0.189,1.02E-04,4.74E-04,4.53E-04,0,0,0,0,0,0.032678,10.3,83.323,89.968,-179.89,NaN,31.383,920.1,350.32,0.05,0.42659,685.64
4.5413,884.04,254.22,-20.017,254.22,20.017,-0.27296,-7.20E-04,0.27296,-179.85,0.14034,0.028424,28.61,-80.6,9.7856,5.93E-04,0,-0.005409,-6.47E-04,15503,0,11.632,0.026689,191.71,147.31,4.3105,0.72585,3.64E+07,0,158.61,0.56021,0.56021,0.24286,0.12886,0.18849,8.92E-05,3.93E-04,-3.80E-04,0,0,0,0,0,0.032549,10.3,83.323,89.968,-179.91,NaN,31.257,918.8,350.24,0.05,0.43089,679.58
4.5913,896.72,253.22,-19.918,253.22,19.918,-0.28001,-7.33E-04,0.28001,-179.85,0.14174,0.027637,28.61,-80.6,9.7856,3.52E-04,0,-0.0025331,-7.04E-04,15503,0,11.632,0.026689,191.69,147.31,4.3087,0.72316,36232480,0,157.09,0.55979,0.55979,0.24313,0.12867,0.18798,5.29E-05,-1.17E-04,3.54E-04,0,0,0,0,0,0.032422,10.3,83.323,89.968,-179.98,NaN,31.131,917.5,350.16,0.05,0.43415,673.58
4.6413,909.36,252.23,-19.821,252.23,19.822,-0.28713,-7.46E-04,0.28713,-179.85,0.1431,0.026634,28.61,-80.6,9.7856,5.03E-05,0,0,0,15503,0,11.632,0.026689,191.67,147.31,4.307,0.72048,36066286,0,155.58,0.55936,0.55936,0.24339,0.12849,0.18748,7.55E-06,-2.67E-04,3.17E-04,0,0,0,0,0,0.032294,10.3,83.323,89.967,-179.98,NaN,31.006,916.21,350.09,0.05,0.43708,667.64
4.6913,921.94,251.24,-19.726,251.24,19.726,-0.29432,-7.58E-04,0.29432,-179.85,0.14441,0.025598,28.61,-80.6,9.7855,3.43E-04,0,0.0016619,-8.76E-04,15503,0,11.632,0.026689,191.65,147.31,4.305,0.71781,35901018,0,154.1,0.55895,0.55895,0.24365,0.12831,0.18698,5.16E-05,-2.56E-04,3.38E-04,0,0,0,0,0,0.032168,10.3,83.323,89.967,-179.87,NaN,30.882,914.93,350.01,0.05,0.44069,661.75
4.7413,934.48,250.26,-19.631,250.26,19.631,-0.30157,-7.71E-04,0.30157,-179.85,0.14566,0.024615,28.61,-80.6,9.7855,6.87E-04,0,0.0014882,6.29E-04,15503,0,11.632,0.026689,191.63,147.31,4.3031,0.71515,35736668,0,152.63,0.55854,0.55854,0.24391,0.12813,0.18649,1.03E-04,-4.65E-05,-4.86E-04,0,0,0,0,0,0.032042,10.3,83.323,89.967,-179.84,NaN,30.758,913.65,349.94,0.05,0.44338,655.93
4.7913,946.97,249.28,-19.537,249.28,19.537,-0.30889,-7.84E-04,0.30889,-179.85,0.14687,0.023842,28.61,-80.6,9.7854,9.50E-04,0,0.0054415,7.56E-04,15503,0,11.632,0.026689,191.61,147.31,4.3011,0.71251,35573226,0,151.18,0.55813,0.55813,0.24418,0.12796,0.186,1.43E-04,4.06E-04,1.51E-04,0,0,0,0,0,0.031916,10.3,83.323,89.967,-179.93,NaN,30.634,912.37,349.86,0.05,0.44651,650.16
4.8413,959.41,248.3,-19.445,248.3,19.445,-0.31626,-7.96E-04,0.31626,-179.86,0.14805,0.023651,28.61,-80.6,9.7854,9.85E-04,0,0.0093591,0.0036705,15503,0,11.632,0.026689,191.59,147.31,4.2993,0.70987,35410682,0,149.74,0.55773,0.55773,0.24444,0.12778,0.18551,1.48E-04,5.89E-04,2.08E-04,0,0,0,0,0,0.031792,10.3,83.323,89.967,179.94,NaN,30.511,911.1,349.79,0.05,0.44921,644.45
4.8913,971.8,247.34,-19.353,247.34,19.353,-0.32369,-8.08E-04,0.32369,-179.86,0.14924,0.023959,28.61,-80.6,9.7854,8.37E-04,0,0.01289,0.0064175,15503,0,11.632,0.026689,191.57,147.31,4.2976,0.70725,35249027,0,148.32,0.55733,0.55733,0.2447,0.12761,0.18503,1.26E-04,1.84E-04,1.94E-04,0,0,0,0,0,0.031668,10.3,83.323,89.966,179.71,NaN,30.389,909.84,349.71,0.05,0.45246,638.8
4.9413,984.14,246.37,-19.262,246.37,19.262,-0.33118,-8.19E-04,0.33118,-179.86,0.15045,0.024696,28.61,-80.6,9.7853,5.35E-04,0,0.014685,0.0095167,15503,0,11.632,0.026689,191.56,147.31,4.2959,0.70464,35088252,0,146.92,0.55694,0.55694,0.24495,0.12744,0.18455,8.02E-05,5.83E-04,-3.41E-04,0,0,0,0,6.25E-09,0.031544,10.3,83.323,89.965,179.59,NaN,30.266,908.58,349.64,0.05,0.45584,633.2
4.9913,996.44,245.41,-19.173,245.41,19.173,-0.33874,-8.28E-04,0.33874,-179.86,0.15171,0.025703,28.61,-80.6,9.7853,2.73E-04,0,-0.0011201,0.018116,15503,0,11.632,0.026689,191.54,147.31,4.2943,0.70204,34928347,0,145.53,0.55655,0.55655,0.24521,0.12727,0.18407,4.09E-05,9.78E-05,-2.57E-04,0,0,0,0,0,0.031421,10.3,83.323,89.965,179.62,NaN,30.145,907.32,349.57,0.05,0.45869,627.65
5.0413,1008.7,244.45,-19.084,244.45,19.084,-0.34636,-8.36E-04,0.34636,-179.86,0.15302,0.026668,28.61,-80.6,9.7853,5.48E-04,0,-0.016011,0.007877,15503,0,11.632,0.026689,191.52,147.31,4.2924,0.69945,34769304,0,144.16,0.55617,0.55617,0.24547,0.1271,0.1836,8.21E-05,2.04E-04,4.28E-04,0,0,0,0,-7.55E-09,0.031298,10.3,83.323,89.964,179.72,NaN,30.024,906.07,349.49,0.05,0.46149,622.16
5.0913,1020.9,243.5,-18.997,243.5,18.997,-0.35404,-8.42E-04,0.35404,-179.86,0.15438,0.027358,28.61,-80.6,9.7852,8.82E-04,0,-0.014015,0.0040822,15503,0,11.632,0.026689,191.5,147.31,4.2906,0.69687,34611114,0,142.8,0.55579,0.55579,0.24573,0.12693,0.18313,1.32E-04,8.63E-04,4.36E-04,0,0,0,0,-5.83E-09,0.031177,10.3,83.323,89.963,179.81,NaN,29.903,904.83,349.42,0.05,0.46456,616.72
5.1413,1033,242.55,-18.91,242.55,18.91,-0.36179,-8.47E-04,0.36179,-179.87,0.15575,0.027501,28.61,-80.6,9.7852,0.001007,0,-0.0098147,0.0015041,15503,0,11.632,0.026689,191.48,147.31,4.2889,0.6943,34453768,0,141.46,0.55541,0.55541,0.24598,0.12676,0.18267,1.51E-04,5.33E-04,-6.00E-05,0,0,0,0,0,0.031055,10.3,83.323,89.962,179.86,NaN,29.783,903.59,349.35,0.05,0.47345,611.33
5.1913,1045.1,241.61,-18.824,241.61,18.824,-0.36962,-8.52E-04,0.36962,-179.87,0.15712,0.027168,28.61,-80.6,9.7851,9.28E-04,0,-0.0053696,0.0010303,15503,0,11.632,0.026689,191.47,147.31,4.2872,0.69175,34297258,0,140.13,0.55504,0.55504,0.24624,0.1266,0.18221,1.39E-04,9.82E-04,-4.76E-04,0,0,0,0,0,0.030934,10.3,83.323,89.962,179.93,NaN,29.663,902.35,349.27,0.05,0.47673,606
5.2413,1057.2,240.67,-18.739,240.67,18.739,-0.37751,-8.56E-04,0.37751,-179.87,0.15846,0.026333,28.61,-80.6,9.7851,6.25E-04,0,-0.0015742,8.71E-04,15503,0,11.632,0.026689,191.45,147.31,4.2857,0.6892,34141575,0,138.82,0.55468,0.55468,0.2465,0.12643,0.18175,9.37E-05,1.09E-05,5.49E-05,0,0,0,0,0,0.030814,10.3,83.323,89.962,-179.99,NaN,29.544,901.12,349.2,0.05,0.4817,600.71
5.2913,1069.2,239.74,-18.656,239.74,18.656,-0.38546,-8.61E-04,0.38546,-179.87,0.15975,0.025371,28.61,-80.6,9.7851,2.66E-04,0,-0.0023415,0.0014864,15503,0,11.632,0.026689,191.43,147.31,4.2841,0.68666,33986711,0,137.52,0.55432,0.55432,0.24675,0.12627,0.1813,3.98E-05,5.64E-04,4.01E-04,0,0,0,0,0,0.030695,10.3,83.323,89.962,-179.9,NaN,29.425,899.89,349.13,0.05,0.48545,595.48
5.3413,1081.2,238.8,-18.573,238.8,18.573,-0.39348,-8.65E-04,0.39348,-179.87,0.16099,0.024383,28.61,-80.6,9.785,1.61E-04,0,0,0,15503,0,11.632,0.026689,191.42,147.31,4.2825,0.68414,33832658,0,136.23,0.55396,0.55396,0.24701,0.12611,0.18085,2.41E-05,-1.31E-04,1.71E-04,0,0,0,0,0,0.030575,10.3,83.323,89.961,-179.81,NaN,29.307,898.67,349.06,0.05,0.48881,590.29
5.3913,1093.1,237.88,-18.491,237.88,18.491,-0.40156,-8.70E-04,0.40156,-179.88,0.16219,0.023529,28.61,-80.6,9.785,4.77E-04,0,0.0033076,-0.0016031,15503,0,11.632,0.026689,191.4,147.31,4.2808,0.68162,33679407,0,134.96,0.55361,0.55361,0.24726,0.12595,0.1804,7.14E-05,9.58E-06,-1.04E-04,0,0,0,0,0,0.030457,10.3,83.323,89.961,-179.73,NaN,29.189,897.46,348.99,0.05,0.49134,585.15
5.4413,1105,236.96,-18.409,236.96,18.409,-0.4097,-8.76E-04,0.4097,-179.88,0.16335,0.022938,28.61,-80.6,9.785,6.84E-04,0,0.0052025,-9.94E-04,15503,0,11.632,0.026689,191.38,147.31,4.2791,0.67912,33526952,0,133.7,0.55326,0.55326,0.24751,0.12579,0.17996,1.02E-04,5.59E-04,3.39E-04,0,0,0,0,0,0.030339,10.3,83.323,89.961,-179.74,NaN,29.072,896.24,348.92,0.05,0.49418,580.07
5.4913,1116.8,236.04,-18.329,236.04,18.329,-0.41789,-8.83E-04,0.41789,-179.88,0.16448,0.022619,28.61,-80.6,9.7849,7.74E-04,0,0.0076157,-7.70E-04,15503,0,11.632,0.026689,191.37,147.31,4.2775,0.67662,33375283,0,132.46,0.55291,0.55291,0.24777,0.12563,0.17952,1.16E-04,4.87E-04,-1.60E-04,0,0,0,0,0,0.030221,10.3,83.323,89.961,-179.76,NaN,28.955,895.04,348.85,0.05,0.49876,575.03
5.5413,1128.6,235.12,-18.25,235.12,18.25,-0.42615,-8.90E-04,0.42615,-179.88,0.16561,0.022589,28.61,-80.6,9.7849,7.35E-04,0,0.010937,-0.0019401,15503,0,11.632,0.026689,191.35,147.31,4.276,0.67414,33224393,0,131.23,0.55257,0.55257,0.24802,0.12547,0.17908,1.10E-04,2.11E-04,-1.01E-04,0,0,0,0,0,0.030104,10.3,83.323,89.96,-179.77,NaN,28.838,893.83,348.77,0.05,0.50142,570.03
5.5913,1140.3,234.21,-18.171,234.21,18.171,-0.43445,-8.98E-04,0.43446,-179.88,0.16675,0.022776,28.61,-80.6,9.7849,5.93E-04,0,0.012458,-8.92E-04,15503,0,11.632,0.026689,191.33,147.31,4.2744,0.67166,33074275,0,130.01,0.55224,0.55224,0.24827,0.12532,0.17865,8.86E-05,6.86E-04,3.96E-04,0,0,0,0,0,0.029987,10.3,83.323,89.96,-179.81,NaN,28.722,892.64,348.7,0.05,0.5041,565.08
5.6413,1152,233.31,-18.093,233.31,18.093,-0.44282,-9.07E-04,0.44282,-179.88,0.1679,0.023261,28.61,-80.6,9.7848,3.02E-04,0,0.01625,-6.01E-04,15503,0,11.632,0.026689,191.32,147.31,4.273,0.6692,32924921,0,128.8,0.55191,0.55191,0.24852,0.12517,0.17822,4.51E-05,-2.94E-04,1.40E-04,0,0,0,0,8.54E-09,0.029871,10.3,83.323,89.959,-179.89,NaN,28.607,891.44,348.63,0.05,0.50657,560.18
5.6913,1163.6,232.4,-18.016,232.4,18.016,-0.45124,-9.15E-04,0.45125,-179.88,0.16907,0.023829,28.61,-80.6,9.7848,3.10E-05,0,0,0,15503,0,11.632,0.026689,191.31,147.31,4.2716,0.66674,32776324,0,127.61,0.55158,0.55158,0.24877,0.12501,0.17779,4.63E-06,-3.31E-04,-3.33E-04,0,0,0,0,0,0.029756,10.3,83.323,89.958,-179.93,NaN,28.491,890.25,348.56,0.05,0.50896,555.33
5.7413,1175.2,231.5,-17.94,231.5,17.94,-0.45973,-9.24E-04,0.45973,-179.88,0.17028,0.024435,28.61,-80.6,9.7847,3.86E-04,0,-0.016751,-0.0015457,15503,0,11.632,0.026689,191.29,147.31,4.2699,0.6643,32628476,0,126.43,0.55125,0.55125,0.24902,0.12486,0.17737,5.77E-05,6.48E-04,4.68E-04,0,0,0,0,-9.22E-09,0.029641,10.3,83.323,89.957,-179.88,NaN,28.377,889.07,348.5,0.05,0.51134,550.52
5.7913,1186.8,230.61,-17.865,230.61,17.865,-0.46827,-9.33E-04,0.46827,-179.89,0.17152,0.02493,28.61,-80.6,9.7847,6.90E-04,0,-0.013877,-0.0014093,15503,0,11.632,0.026689,191.27,147.31,4.2683,0.66186,32481370,0,125.26,0.55093,0.55093,0.24927,0.12471,0.17695,1.03E-04,-2.76E-05,6.46E-05,0,0,0,0,-6.37E-09,0.029526,10.3,83.323,89.957,-179.9,NaN,28.262,887.89,348.43,0.05,0.5132,545.75
5.8413,1198.3,229.72,-17.79,229.72,17.79,-0.47688,-9.43E-04,0.47688,-179.89,0.17277,0.025219,28.61,-80.6,9.7847,9.00E-04,0,-0.013074,-4.18E-04,15503,0,11.632,0.026689,191.26,147.31,4.2668,0.65943,32334999,0,124.11,0.55062,0.55062,0.24952,0.12456,0.17653,1.34E-04,5.18E-04,-3.89E-04,0,0,0,0,-5.70E-09,0.029412,10.3,83.323,89.956,-179.97,NaN,28.149,886.72,348.36,0.05,0.51466,541.03
5.8913,1209.7,228.83,-17.716,228.83,17.716,-0.48555,-9.52E-04,0.48555,-179.89,0.17403,0.025256,28.61,-80.6,9.7846,9.90E-04,0,-0.0093499,-5.79E-04,15503,0,11.632,0.026689,191.24,147.31,4.2653,0.65701,32189356,0,122.96,0.5503,0.5503,0.24977,0.12441,0.17612,1.48E-04,6.69E-04,-4.50E-05,0,0,0,0,0,0.029298,10.3,83.323,89.955,179.98,NaN,28.035,885.55,348.29,0.05,0.51725,536.35
5.9413,1221.2,227.95,-17.643,227.95,17.643,-0.49428,-9.60E-04,0.49428,-179.89,0.17529,0.024959,28.61,-80.6,9.7846,9.14E-04,0,-0.006765,3.11E-04,15503,0,11.632,0.026689,191.23,147.31,4.2639,0.6546,32044435,0,121.83,0.55,0.55,0.25002,0.12427,0.17571,1.37E-04,0.0010705,3.25E-04,0,0,0,0,0,0.029185,10.3,83.323,89.955,179.95,NaN,27.922,884.38,348.22,0.05,0.52062,531.71
5.9913,1232.5,227.07,-17.571,227.07,17.571,-0.50308,-9.69E-04,0.50308,-179.89,0.17652,0.024406,28.61,-80.6,9.7846,7.09E-04,0,-0.0043236,3.08E-04,15503,0,11.632,0.026689,191.21,147.31,4.2625,0.6522,3.19E+07,0,120.71,0.54969,0.54969,0.25027,0.12412,0.1753,1.06E-04,3.07E-04,6.90E-05,0,0,0,0,0,0.029072,10.3,83.323,89.955,179.92,NaN,27.81,883.22,348.15,0.05,0.5233,527.11
6.0413,1243.9,226.19,-17.5,226.19,17.5,-0.51194,-9.77E-04,0.51194,-179.89,0.17773,0.023689,28.61,-80.6,9.7845,4.16E-04,0,-0.0030607,0.0010845,15503,0,11.632,0.026689,191.2,147.31,4.2612,0.64981,31756728,0,119.6,0.54939,0.54939,0.25052,0.12398,0.17489,6.21E-05,-7.64E-05,1.33E-04,0,0,0,0,0,0.02896,10.3,83.323,89.955,179.92,NaN,27.698,882.06,348.08,0.05,0.52588,522.56
6.0913,1255.2,225.32,-17.429,225.32,17.429,-0.52085,-9.84E-04,0.52085,-179.89,0.17889,0.022947,28.61,-80.6,9.7845,1.59E-04,0,0,0,15503,0,11.632,0.026689,191.18,147.31,4.2599,0.64743,31613929,0,118.51,0.54909,0.54909,0.25077,0.12383,0.17449,2.37E-05,-8.70E-05,1.84E-04,0,0,0,0,0,0.028848,10.3,83.323,89.954,179.88,NaN,27.586,880.91,348.02,0.05,0.52883,518.05
6.1413,1266.4,224.45,-17.359,224.45,17.359,-0.52982,-9.91E-04,0.52983,-179.89,0.18002,0.0222,28.61,-80.6,9.7845,2.83E-04,0,0.0029114,0.0015565,15503,0,11.632,0.026689,191.17,147.31,4.2584,0.64505,31473182,0,117.43,0.5488,0.5488,0.25101,0.12369,0.17409,4.22E-05,-2.47E-04,-4.22E-04,0,0,0,0,0,0.028737,10.3,83.323,89.954,179.85,NaN,27.475,879.8,347.95,0.05,0.53239,513.6
6.1913,1277.6,223.58,-17.29,223.58,17.29,-0.53885,-9.97E-04,0.53885,-179.89,0.18112,0.021609,28.61,-80.6,9.7844,5.22E-04,0,0.0045649,0.0028317,15503,0,11.632,0.026689,191.15,147.31,4.257,0.64269,31333370,0,116.36,0.5485,0.5485,0.25126,0.12355,0.1737,7.79E-05,7.19E-04,-4.24E-04,0,0,0,0,0,0.028626,10.3,83.323,89.954,179.82,NaN,27.364,878.7,347.88,0.05,0.53486,509.19
6.2413,1288.8,222.72,-17.222,222.72,17.222,-0.54794,-0.0010018,0.54794,-179.9,0.18219,0.02126,28.61,-80.6,9.7844,6.55E-04,0,0.0066979,0.0027895,15503,0,11.632,0.026689,191.14,147.31,4.2556,0.64033,31194221,0,115.3,0.54822,0.54822,0.2515,0.12341,0.1733,9.78E-05,7.02E-04,4.98E-04,0,0,0,0,0,0.028516,10.3,83.323,89.954,179.77,NaN,27.254,877.61,347.81,0.05,0.5374,504.83
6.2913,1299.9,221.86,-17.154,221.86,17.154,-0.55707,-0.001006,0.55707,-179.9,0.18325,0.021118,28.61,-80.6,9.7844,6.71E-04,0,0.009731,0.002159,15503,0,11.632,0.026689,191.13,147.31,4.2542,0.63798,31055729,0,114.25,0.54793,0.54793,0.25175,0.12327,0.17291,1.00E-04,1.46E-04,-2.61E-04,0,0,0,0,0,0.028405,10.3,83.323,89.953,179.78,NaN,27.144,876.52,347.75,0.05,0.54006,500.5
6.3413,1310.9,221,-17.087,221,17.087,-0.56626,-0.0010093,0.56626,-179.9,0.1843,0.021191,28.61,-80.6,9.7843,5.66E-04,0,0.012096,0.0021809,15503,0,11.632,0.026689,191.11,147.31,4.2529,0.63564,30917887,0,113.21,0.54765,0.54765,0.25199,0.12313,0.17253,8.43E-05,3.41E-04,-1.86E-04,0,0,0,0,5.27E-09,0.028296,10.3,83.323,89.953,179.84,NaN,27.034,875.43,347.68,0.05,0.54251,496.21
6.3913,1322,220.15,-17.021,220.15,17.021,-0.5755,-0.001012,0.5755,-179.9,0.18537,0.02151,28.61,-80.6,9.7843,3.26E-04,0,0.01506,0.0019296,15503,0,11.632,0.026689,191.1,147.31,4.2517,0.63331,30780689,0,112.19,0.54737,0.54737,0.25224,0.12299,0.17214,4.86E-05,-1.87E-04,-1.26E-04,0,0,0,0,8.24E-09,0.028187,10.3,83.323,89.952,179.92,NaN,26.925,874.35,347.62,0.05,0.5455,491.96
6.4413,1333,219.3,-16.955,219.3,16.955,-0.5848,-0.0010143,0.5848,-179.9,0.18646,0.02186,28.61,-80.6,9.7843,6.74E-05,0,0,0,15503,0,11.632,0.026689,191.09,147.31,4.2505,0.63099,30644130,0,111.17,0.5471,0.5471,0.25248,0.12286,0.17176,1.00E-05,4.39E-04,3.47E-04,0,0,0,0,0,0.028078,10.3,83.323,89.951,-179.97,NaN,26.817,873.27,347.55,0.05,0.54814,487.75
6.4913,1343.9,218.45,-16.89,218.45,16.89,-0.59415,-0.0010167,0.59415,-179.9,0.18756,0.022162,28.61,-80.6,9.7842,2.18E-04,0,0,0,15503,0,11.632,0.026689,191.07,147.31,4.2491,0.62867,30508204,0,110.16,0.54682,0.54682,0.25272,0.12272,0.17138,3.25E-05,1.10E-04,-3.47E-04,0,0,0,0,0,0.02797,10.3,83.323,89.951,-179.81,NaN,26.708,872.2,347.48,0.05,0.55075,483.57
6.5413,1354.8,217.61,-16.826,217.61,16.826,-0.60355,-0.0010198,0.60355,-179.9,0.18867,0.022329,28.61,-80.6,9.7842,4.04E-04,0,-0.010622,-0.0063075,15503,0,11.632,0.026689,191.06,147.31,4.2478,0.62636,30372905,0,109.17,0.54656,0.54656,0.25296,0.12259,0.171,6.03E-05,2.34E-04,1.48E-04,0,0,0,0,0,0.027862,10.3,83.323,89.95,-179.69,NaN,26.6,871.13,347.42,0.05,0.55269,479.43
6.5913,1365.7,216.77,-16.762,216.77,16.762,-0.61301,-0.001024,0.61302,-179.9,0.18979,0.022393,28.61,-80.6,9.7842,5.06E-04,0,-0.0093182,-0.0065652,15503,0,11.632,0.026689,191.05,147.31,4.2465,0.62406,30238227,0,108.18,0.54629,0.54629,0.25321,0.12246,0.17063,7.54E-05,6.73E-04,-2.57E-04,0,0,0,0,0,0.027754,10.3,83.323,89.949,-179.65,NaN,26.493,870.07,347.35,0.05,0.55422,475.33
6.6413,1376.5,215.93,-16.699,215.93,16.699,-0.62253,-0.0010296,0.62253,-179.91,0.1909,0.022303,28.61,-80.6,9.7841,5.02E-04,0,-0.0074264,-0.0050676,15503,0,11.632,0.026689,191.03,147.31,4.2452,0.62177,30104166,0,107.2,0.54603,0.54603,0.25345,0.12232,0.17026,7.48E-05,6.15E-04,-1.49E-04,0,0,0,0,0,0.027647,10.3,83.323,89.949,-179.68,NaN,26.386,869.01,347.29,0.05,0.55584,471.26
6.6913,1387.3,215.1,-16.637,215.1,16.637,-0.6321,-0.0010362,0.63211,-179.91,0.19201,0.022046,28.61,-80.6,9.7841,4.19E-04,0,-0.0062156,-0.0043798,15503,0,11.632,0.026689,191.02,147.31,4.244,0.61949,29970714,0,106.23,0.54577,0.54577,0.25369,0.12219,0.16989,6.25E-05,1.13E-04,-3.91E-04,0,0,0,0,0,0.02754,10.3,83.323,89.948,-179.71,NaN,26.28,867.95,347.22,0.05,0.55728,467.22
6.7413,1398,214.27,-16.575,214.27,16.575,-0.64173,-0.0010439,0.64173,-179.91,0.19311,0.021657,28.61,-80.6,9.7841,3.05E-04,0,-0.0040533,-0.0044098,15503,0,11.632,0.026689,191.01,147.31,4.2428,0.61721,29837868,0,105.28,0.54552,0.54552,0.25393,0.12206,0.16952,4.54E-05,3.73E-04,-4.59E-04,0,0,0,0,0,0.027434,10.3,83.323,89.948,-179.69,NaN,26.173,866.9,347.16,0.05,0.55937,463.23
6.7913,1408.7,213.44,-16.514,213.44,16.514,-0.65142,-0.0010526,0.65142,-179.91,0.19418,0.021167,28.61,-80.6,9.784,2.30E-04,0,0,0,15503,0,11.632,0.026689,191,147.31,4.2416,0.61494,29705621,0,104.33,0.54527,0.54527,0.25417,0.12193,0.16916,3.42E-05,2.12E-04,7.99E-05,0,0,0,0,0,0.027328,10.3,83.323,89.948,-179.69,NaN,26.068,865.85,347.1,0.05,0.56083,459.26
6.8413,1419.3,212.62,-16.453,212.62,16.453,-0.66115,-0.0010624,0.66115,-179.91,0.19522,0.020647,28.61,-80.6,9.784,3.33E-04,0,0.0043121,-0.0028361,15503,0,11.632,0.026689,190.98,147.31,4.2404,0.61268,29573968,0,103.39,0.54502,0.54502,0.25441,0.1218,0.1688,4.96E-05,3.02E-04,-3.53E-04,0,0,0,0,0,0.027223,10.3,83.323,89.948,-179.72,NaN,25.962,864.8,347.03,0.05,0.56445,455.33
6.8913,1430,211.8,-16.393,211.8,16.393,-0.67094,-0.001073,0.67094,-179.91,0.19624,0.020258,28.61,-80.6,9.784,4.63E-04,0,0.0072912,-0.0014939,15503,0,11.632,0.026689,190.97,147.31,4.2391,0.61042,29442904,0,102.46,0.54477,0.54477,0.25466,0.12168,0.16844,6.88E-05,-1.42E-04,1.86E-04,0,0,0,0,0,0.027118,10.3,83.323,89.947,-179.77,NaN,25.857,863.76,346.97,0.05,0.56693,451.44
6.9413,1440.5,210.98,-16.333,210.98,16.333,-0.68077,-0.0010842,0.68078,-179.91,0.19725,0.020011,28.61,-80.6,9.7839,5.33E-04,0,0.0090609,1.96E-04,15503,0,11.632,0.026689,190.96,147.31,4.2379,0.60818,29312424,0,101.54,0.54453,0.54453,0.2549,0.12155,0.16808,7.93E-05,5.83E-04,3.52E-04,0,0,0,0,0,0.027013,10.3,83.323,89.947,-179.83,NaN,25.753,862.73,346.91,0.05,0.56943,447.58
6.9913,1451,210.16,-16.275,210.16,16.275,-0.69066,-0.0010959,0.69066,-179.91,0.19825,0.019932,28.61,-80.6,9.7839,5.14E-04,0,0.010557,0.0015684,15503,0,11.632,0.026689,190.95,147.31,4.2368,0.60594,29182523,0,100.62,0.54429,0.54429,0.25514,0.12143,0.16773,7.65E-05,5.99E-04,-2.32E-04,0,0,0,0,0,0.026908,10.3,83.323,89.946,-179.93,NaN,25.649,861.7,346.84,0.05,0.57207,443.75
7.0413,1461.5,209.35,-16.216,209.35,16.216,-0.7006,-0.0011076,0.7006,-179.91,0.19925,0.019997,28.61,-80.6,9.7839,4.23E-04,0,0.011854,0.0033362,15503,0,11.632,0.026689,190.94,147.31,4.2357,0.6037,29053195,0,99.719,0.54406,0.54406,0.25538,0.1213,0.16738,6.30E-05,2.39E-04,2.27E-05,0,0,0,0,5.64E-09,0.026804,10.3,83.323,89.946,179.99,NaN,25.545,860.67,346.78,0.05,0.57493,439.95
7.0913,1472,208.54,-16.158,208.54,16.158,-0.71059,-0.001119,0.71059,-179.91,0.20025,0.020113,28.61,-80.6,9.7838,3.25E-04,0,0.010221,0.0078875,15503,0,11.632,0.026689,190.92,147.31,4.2346,0.60148,28924436,0,98.824,0.54382,0.54382,0.25562,0.12118,0.16703,4.83E-05,6.04E-04,3.52E-04,0,0,0,0,0,0.026701,10.3,83.323,89.945,179.9,NaN,25.442,859.64,346.72,0.05,0.57862,436.19
7.1413,1482.4,207.74,-16.101,207.74,16.101,-0.72062,-0.0011299,0.72063,-179.91,0.20126,0.020285,28.61,-80.6,9.7838,2.71E-04,0,0,0,15503,0,11.632,0.026689,190.91,147.31,4.2335,0.59926,28796241,0,97.937,0.54359,0.54359,0.25586,0.12105,0.16668,4.03E-05,-3.25E-05,1.56E-04,0,0,0,0,0,0.026598,10.3,83.323,89.945,179.81,NaN,25.339,858.62,346.65,0.05,0.58141,432.46
7.1913,1492.8,206.93,-16.045,206.93,16.045,-0.73071,-0.0011398,0.73071,-179.91,0.20228,0.020414,28.61,-80.6,9.7838,3.18E-04,0,-0.0018558,0.012495,15503,0,11.632,0.026689,190.9,147.31,4.2323,0.59705,28668605,0,97.058,0.54337,0.54337,0.2561,0.12093,0.16634,4.73E-05,5.33E-04,-2.01E-04,0,0,0,0,0,0.026495,10.3,83.323,89.944,179.73,NaN,25.236,857.61,346.59,0.05,0.58397,428.76
