# Time ,Altitude ,Vertical velocity (m/s),Vertical acceleration (m/s²),Total velocity (m/s),Total acceleration (m/s²),Position East of launch ,Position North of launch ,Lateral distance ,Lateral direction ,Lateral velocity (m/s),Lateral acceleration (m/s²),Latitude ,Longitude ,Gravitational acceleration (m/s²),Angle of attack ,Roll rate (°/s),Pitch rate (°/s),Yaw rate (°/s),Mass ,Propellant mass ,Longitudinal moment of inertia (kg·m²),Rotational moment of inertia (kg·m²),CP location,CG location (cm),Stability margin calibers ,Mach number ,Reynolds number ,Thrust ,Drag force ,Drag coefficient ,Axial drag coefficient ,Friction drag coefficient ,Pressure drag coefficient ,Base drag coefficient ,Normal force coefficient ,Pitch moment coefficient ,Yaw moment coefficient ,Side force coefficient ,Roll moment coefficient ,Roll forcing coefficient ,Roll damping coefficient ,Pitch damping coefficient ,Coriolis acceleration (m/s²),Reference length (cm),Reference area (cm²),Vertical orientation (zenith) ,Lateral orientation (azimuth) ,Wind velocity (m/s),Air temperature (°C),Air pressure (mbar),Speed of sound (m/s),Simulation time step ,Computation time ,Dynamic Pressure (mbar)
0.00,0.00,0.00,25.39,0.00,25.39,0.00,0.00,0.00,0.00,0.00,0.00,28.61,-80.60,9.79,0.00,0.00,0.00,0.00,18166.00,2663.30,13.15,0.03,0.00,158.95,0.00,0.00,0.00,639.11,0.00,1.82,1.82,1.60,0.10,0.12,0.00,0.00,0.00,0.00,0.00,0.00,0.00,0.00,0.00,10.30,83.32,90.00,0.00,0.00,38.77,999.33,354.79,0.01,0.01,0.00
0.01,0.00,0.25,93.97,0.25,93.97,0.00,0.00,0.00,0.00,0.00,0.00,28.61,-80.60,9.79,0.00,0.00,0.00,0.00,18166.00,2663.30,13.15,0.03,0.00,158.95,0.00,0.00,37844.00,1884.80,0.00,1.26,1.26,1.03,0.10,0.12,0.00,0.00,0.00,0.00,0.00,0.00,0.00,0.00,0.00,10.30,83.32,90.00,0.00,0.00,38.77,999.33,354.79,0.01,0.02,0.00
0.02,0.01,1.19,103.88,1.19,103.88,0.00,0.00,0.00,0.00,0.00,0.00,28.61,-80.60,9.79,0.00,0.00,0.00,0.00,18160.00,2657.30,13.15,0.03,0.00,158.93,0.00,0.00,177923.00,2064.30,0.01,0.91,0.91,0.69,0.10,0.12,0.00,0.00,0.00,0.00,0.00,0.00,0.00,0.00,0.00,10.30,83.32,90.00,0.00,0.00,38.77,999.33,354.79,0.01,0.02,0.02
0.03,0.03,2.23,97.97,2.23,97.97,0.00,0.00,0.00,0.00,0.00,0.00,28.61,-80.60,9.79,0.00,0.00,0.00,0.00,18152.00,2649.10,13.15,0.03,0.00,158.90,0.00,0.01,332804.00,1956.00,0.02,0.82,0.82,0.59,0.10,0.12,0.00,0.00,0.00,0.00,0.00,0.00,0.00,0.00,0.00,10.30,83.32,90.00,0.00,0.00,38.77,999.33,354.79,0.01,0.02,0.06
0.04,0.05,3.21,98.27,3.21,98.27,0.00,0.00,0.00,0.00,0.00,0.00,28.61,-80.60,9.79,0.00,0.00,0.00,0.00,18142.00,2639.40,13.14,0.03,0.00,158.87,0.00,0.01,478873.00,1960.40,0.04,0.77,0.77,0.55,0.10,0.12,0.00,0.00,0.00,0.00,0.00,0.00,0.00,0.00,0.00,10.30,83.32,90.00,0.00,0.00,38.76,999.33,354.79,0.01,0.03,0.12
0.05,0.09,4.20,98.57,4.20,98.57,0.00,0.00,0.00,0.00,0.00,0.00,28.61,-80.60,9.79,0.00,0.00,0.00,0.00,18133.00,2629.90,13.14,0.03,0.00,158.83,0.00,0.01,625388.00,1964.80,0.06,0.74,0.74,0.52,0.10,0.12,0.00,0.00,0.00,0.00,0.00,0.00,0.00,0.00,0.00,10.30,83.32,90.00,0.00,0.00,38.76,999.33,354.79,0.01,0.03,0.20
0.06,0.14,5.18,98.86,5.18,98.86,0.00,0.00,0.00,0.00,0.00,0.00,28.61,-80.60,9.79,0.00,0.00,0.00,0.00,18123.00,2620.40,13.13,0.03,0.00,158.79,0.00,0.01,772347.00,1969.20,0.09,0.72,0.72,0.50,0.10,0.12,0.00,0.00,0.00,0.00,0.00,0.00,0.00,0.00,0.00,10.30,83.32,90.00,0.00,0.00,38.76,999.33,354.79,0.01,0.04,0.30
0.07,0.19,6.17,99.16,6.17,99.16,0.00,0.00,0.00,0.00,0.00,0.00,28.61,-80.60,9.79,0.00,0.00,0.00,0.00,18114.00,2611.00,13.13,0.03,0.00,158.76,0.00,0.02,919751.00,1973.60,0.12,0.70,0.70,0.48,0.10,0.12,0.00,0.00,0.00,0.00,0.00,0.00,0.00,0.00,0.00,10.30,83.32,90.00,0.00,0.00,38.76,999.32,354.79,0.01,0.05,0.43
0.08,0.26,7.16,99.46,7.16,99.46,0.00,0.00,0.00,0.00,0.00,0.00,28.61,-80.60,9.79,0.00,0.00,0.00,0.00,18104.00,2601.50,13.12,0.03,0.00,158.72,0.00,0.02,1067599.00,1978.00,0.16,0.69,0.69,0.47,0.10,0.12,0.00,0.00,0.00,0.00,0.00,0.00,0.00,0.00,0.00,10.30,83.32,90.00,0.00,0.00,38.76,999.32,354.79,0.01,0.05,0.57
0.09,0.34,8.16,99.76,8.16,99.76,0.00,0.00,0.00,0.00,0.00,0.00,28.61,-80.60,9.79,0.00,0.00,0.00,0.00,18095.00,2592.10,13.12,0.03,0.00,158.69,0.00,0.02,1215892.00,1982.50,0.21,0.68,0.68,0.45,0.10,0.12,0.00,0.00,0.00,0.00,0.00,0.00,0.00,0.00,0.00,10.30,83.32,90.00,0.00,0.00,38.76,999.31,354.79,0.01,0.05,0.74
0.10,0.42,9.16,100.06,9.16,100.06,0.00,0.00,0.00,0.00,0.00,0.00,28.61,-80.60,9.79,0.00,0.00,0.00,0.00,18085.00,2582.60,13.11,0.03,0.00,158.65,0.00,0.03,1364629.00,1986.90,0.26,0.67,0.67,0.44,0.10,0.12,0.00,0.00,0.00,0.00,0.00,0.00,0.00,0.00,0.00,10.30,83.32,90.00,0.00,0.00,38.76,999.31,354.79,0.01,0.06,0.94
0.11,0.52,10.16,100.36,10.16,100.36,0.00,0.00,0.00,0.00,0.00,0.00,28.61,-80.60,9.79,0.00,0.00,0.00,0.00,18076.00,2573.20,13.11,0.03,0.00,158.62,0.00,0.03,1513810.00,1991.30,0.32,0.66,0.66,0.44,0.10,0.12,0.00,0.00,0.00,0.00,0.00,0.00,0.00,0.00,0.00,10.30,83.32,90.00,0.00,0.00,38.76,999.30,354.79,0.01,0.06,1.15
0.12,0.62,11.15,100.65,11.15,100.65,0.00,0.00,0.00,0.00,0.00,0.00,28.61,-80.60,9.79,0.00,0.00,0.00,0.00,18066.00,2563.80,13.10,0.03,0.00,158.58,0.00,0.03,1661107.00,1995.40,0.38,0.65,0.65,0.43,0.10,0.12,0.00,0.00,0.00,0.00,0.00,0.00,0.00,0.00,0.00,10.30,83.32,90.00,0.00,0.00,38.76,999.30,354.79,0.01,0.06,1.39
0.13,0.73,12.05,100.91,12.05,100.91,0.00,0.00,0.00,0.00,0.00,0.00,28.61,-80.60,9.79,0.00,0.00,0.00,0.00,18058.00,2554.90,13.10,0.03,0.00,158.55,0.00,0.03,1795719.00,1999.20,0.44,0.65,0.65,0.42,0.10,0.12,0.00,0.00,0.00,0.00,0.00,0.00,0.00,0.00,0.00,10.30,83.32,90.00,0.00,0.00,38.76,999.29,354.79,0.01,0.07,1.62
0.14,0.83,12.89,101.15,12.89,101.15,0.00,0.00,0.00,0.00,0.00,0.00,28.61,-80.60,9.79,0.00,0.00,0.00,0.00,18049.00,2546.70,13.10,0.03,0.00,158.52,0.00,0.04,1920558.00,2002.80,0.50,0.64,0.64,0.42,0.10,0.12,0.00,0.00,0.00,0.00,0.00,0.00,0.00,0.00,0.00,10.30,83.32,90.00,0.00,0.00,38.76,999.29,354.79,0.01,0.07,1.85
0.14,0.94,13.67,101.38,13.67,101.38,0.00,0.00,0.00,0.00,0.00,0.00,28.61,-80.60,9.79,0.00,0.00,0.00,0.00,18042.00,2539.10,13.09,0.03,0.00,158.49,0.00,0.04,2037559.00,2006.10,0.55,0.64,0.64,0.41,0.10,0.12,0.00,0.00,0.00,0.00,0.00,0.00,0.00,0.00,0.00,10.30,83.32,90.00,0.00,0.00,38.76,999.28,354.79,0.01,0.07,2.09
0.15,1.04,14.41,101.57,14.41,101.57,0.00,0.00,0.00,0.00,0.00,0.00,28.61,-80.60,9.79,0.00,0.00,0.00,0.00,18035.00,2532.00,13.09,0.03,189.74,158.46,3.04,0.04,2148087.00,2009.20,0.61,0.63,0.63,0.41,0.10,0.12,0.00,0.00,0.00,0.00,0.00,0.00,0.00,0.00,0.00,10.30,83.32,90.00,0.00,0.00,38.76,999.28,354.79,0.01,0.08,2.32
0.16,1.20,15.53,101.71,15.53,101.71,0.00,0.00,0.00,-180.00,0.00,0.00,28.61,-80.60,9.79,0.00,0.00,0.00,0.00,18026.00,2523.20,13.08,0.03,189.74,158.43,3.04,0.04,2314226.00,2010.90,0.70,0.63,0.63,0.40,0.10,0.12,0.00,0.00,0.00,0.00,0.00,0.00,0.00,0.00,0.00,10.30,83.32,90.00,0.00,0.00,38.76,999.27,354.79,0.02,0.11,2.69
0.18,1.47,17.20,101.91,17.20,101.91,0.00,0.00,0.00,-180.00,0.00,0.00,28.61,-80.60,9.79,0.00,0.00,0.00,0.00,18012.00,2509.80,13.08,0.03,189.74,158.38,3.05,0.05,2563842.00,2013.30,0.85,0.62,0.62,0.39,0.10,0.12,0.00,0.00,0.00,0.00,0.00,0.00,0.00,0.00,0.00,10.30,83.32,90.00,0.00,0.00,38.76,999.25,354.79,0.02,0.11,3.30
0.20,1.93,19.72,102.21,19.72,102.21,0.00,0.00,0.00,-180.00,0.00,0.00,28.61,-80.60,9.79,0.00,0.00,0.00,0.00,17992.00,2489.50,13.07,0.03,189.75,158.30,3.05,0.06,2939139.00,2016.90,1.10,0.61,0.61,0.38,0.10,0.12,0.00,0.00,0.00,0.00,0.00,0.00,0.00,0.00,0.00,10.30,83.32,90.00,0.00,0.00,38.76,999.23,354.78,0.04,0.12,4.34
0.24,2.73,23.51,102.66,23.51,102.66,0.00,0.00,0.00,-180.00,0.00,0.00,28.61,-80.60,9.79,0.00,0.00,0.00,0.00,17962.00,2459.10,13.05,0.03,189.75,158.18,3.06,0.07,3504037.00,2022.00,1.54,0.60,0.60,0.37,0.10,0.12,0.00,0.00,0.00,0.00,0.00,0.00,0.00,0.00,0.00,10.30,83.32,90.00,0.00,0.00,38.75,999.18,354.78,0.05,0.12,6.17
0.29,4.03,28.66,103.26,28.66,103.26,0.00,0.00,0.00,-180.00,0.00,0.00,28.61,-80.60,9.79,0.00,0.00,0.00,0.00,17919.00,2416.20,13.03,0.03,189.75,158.02,3.08,0.08,4270587.00,2027.90,2.24,0.59,0.59,0.36,0.11,0.12,0.00,0.00,0.00,0.00,0.00,0.00,0.00,0.00,0.00,10.30,83.32,90.00,0.00,0.00,38.74,999.11,354.78,0.05,0.13,9.17
0.34,5.59,33.83,103.85,33.83,103.85,0.00,0.00,0.00,-180.00,0.00,0.00,28.61,-80.60,9.79,0.00,0.00,0.00,0.00,17870.00,2366.90,13.01,0.03,189.76,157.83,3.10,0.10,5041492.00,2033.80,3.07,0.58,0.58,0.35,0.11,0.12,0.00,0.00,0.00,0.00,0.00,0.00,0.00,0.00,0.00,10.30,83.32,90.00,0.00,0.00,38.74,999.02,354.77,0.05,0.13,12.77
0.39,7.42,39.04,104.44,39.04,104.44,0.00,0.00,0.00,-180.00,0.00,0.00,28.61,-80.60,9.79,0.00,0.00,0.00,0.00,17820.00,2317.60,12.98,0.03,189.77,157.64,3.12,0.11,5816705.00,2039.70,4.03,0.57,0.57,0.34,0.11,0.12,0.00,0.00,0.00,0.00,0.00,0.00,0.00,0.00,0.00,10.30,83.32,90.00,0.00,0.00,38.73,998.92,354.77,0.05,0.13,17.01
0.44,9.50,44.27,105.03,44.27,105.03,0.00,0.00,0.00,-180.00,0.00,0.01,28.61,-80.60,9.79,0.00,0.00,0.00,0.00,17771.00,2268.40,12.96,0.03,189.78,157.45,3.14,0.12,6596176.00,2045.50,5.12,0.56,0.56,0.33,0.11,0.12,0.00,0.00,0.00,0.00,0.00,0.00,0.00,0.00,0.01,10.30,83.32,90.00,0.00,0.00,38.72,998.80,354.76,0.05,0.14,21.87
0.49,11.84,49.54,105.61,49.54,105.61,0.00,0.00,0.00,-180.00,0.00,0.01,28.61,-80.60,9.79,0.00,0.00,0.00,0.00,17722.00,2219.10,12.93,0.03,189.79,157.26,3.16,0.14,7379858.00,2051.40,6.34,0.56,0.56,0.33,0.11,0.12,0.00,0.00,0.00,0.00,0.00,0.00,0.00,0.00,0.01,10.30,83.32,90.00,0.00,0.00,38.70,998.67,354.75,0.05,0.14,27.37
0.54,14.45,54.83,106.19,54.83,106.19,0.00,0.00,0.00,-180.00,0.00,0.01,28.61,-80.60,9.79,0.00,0.00,0.00,0.00,17672.00,2169.80,12.90,0.03,189.80,157.06,3.18,0.15,8167700.00,2057.30,7.70,0.55,0.55,0.32,0.11,0.12,0.00,0.00,0.00,0.00,0.00,0.00,0.00,0.00,0.01,10.30,83.32,90.00,0.00,0.00,38.69,998.52,354.75,0.05,0.14,33.53
0.59,17.33,60.15,106.76,60.15,106.76,0.00,0.00,0.00,-180.00,0.00,0.01,28.61,-80.60,9.79,0.00,0.00,0.00,0.00,17623.00,2120.50,12.88,0.03,189.82,156.87,3.20,0.17,8959651.00,2063.10,9.20,0.55,0.55,0.32,0.11,0.12,0.00,0.00,0.00,0.00,0.00,0.00,0.00,0.00,0.01,10.30,83.32,90.00,0.00,0.00,38.68,998.36,354.74,0.05,0.15,40.35
0.64,20.47,65.50,107.33,65.50,107.33,0.00,0.00,0.00,-180.00,0.00,0.01,28.61,-80.60,9.79,0.00,0.00,0.00,0.00,17574.00,2071.30,12.85,0.03,189.83,156.67,3.22,0.18,9755658.00,2069.00,10.83,0.54,0.54,0.31,0.11,0.12,0.00,0.00,0.00,0.00,0.00,0.00,0.00,0.00,0.01,10.30,83.32,90.00,178.64,0.00,38.66,998.18,354.73,0.05,0.15,47.84
0.69,23.88,70.88,107.89,70.88,107.89,0.00,0.00,0.00,-180.00,0.00,0.01,28.61,-80.60,9.79,0.00,0.00,0.00,0.00,17525.00,2022.00,12.83,0.03,189.85,156.47,3.24,0.20,10555666.00,2074.90,12.61,0.54,0.54,0.31,0.11,0.13,0.00,0.00,0.00,0.00,0.00,0.00,0.00,0.00,0.01,10.30,83.32,90.00,179.23,0.00,38.64,997.99,354.72,0.05,0.16,56.01
0.74,27.56,76.28,108.45,76.28,108.45,0.00,0.00,0.00,180.00,0.00,0.01,28.61,-80.60,9.79,0.00,0.00,0.00,0.00,17475.00,1972.70,12.80,0.03,189.87,156.28,3.26,0.22,11400000.00,2080.70,14.53,0.54,0.54,0.30,0.11,0.13,0.00,0.00,0.00,0.00,0.00,0.00,0.00,0.00,0.01,10.30,83.32,90.00,179.98,0.00,38.63,997.78,354.71,0.05,0.16,64.87
0.79,31.51,81.71,109.00,81.71,109.00,0.00,0.00,0.00,180.00,0.00,0.01,28.61,-80.60,9.79,0.00,0.00,0.00,0.00,17426.00,1923.40,12.78,0.03,189.89,156.08,3.28,0.23,12167461.00,2086.60,16.60,0.54,0.54,0.30,0.11,0.13,0.00,0.00,0.00,0.00,0.00,0.00,0.00,0.00,0.01,10.30,83.32,90.00,-178.62,0.00,38.61,997.56,354.69,0.05,0.16,74.43
0.84,35.73,87.18,109.55,87.18,109.55,0.00,0.00,0.00,-180.00,0.00,0.01,28.61,-80.60,9.79,0.00,0.00,0.00,0.00,17377.00,1874.10,12.75,0.03,189.91,155.88,3.30,0.25,12979129.00,2092.50,18.82,0.53,0.53,0.30,0.11,0.13,0.00,0.00,0.00,0.00,0.00,0.00,0.00,0.00,0.01,10.30,83.32,90.00,-177.95,0.00,38.58,997.32,354.68,0.05,0.17,84.70
0.89,40.22,92.66,110.09,92.66,110.09,0.00,0.00,0.00,-179.99,0.01,0.01,28.61,-80.60,9.79,0.00,0.00,0.00,0.00,17328.00,1824.90,12.72,0.03,189.93,155.67,3.33,0.26,13794563.00,2098.40,21.19,0.53,0.53,0.29,0.11,0.13,0.00,0.00,0.00,0.00,0.00,0.00,0.00,0.00,0.01,10.30,83.32,90.00,-178.50,0.00,38.56,997.07,354.67,0.05,0.17,95.68
0.94,45.00,98.18,110.62,98.18,110.62,0.00,0.00,0.00,-179.98,0.01,0.01,28.61,-80.60,9.79,0.00,0.00,0.01,0.00,17278.00,1775.60,12.70,0.03,189.96,155.47,3.35,0.28,14613699.00,2104.20,23.72,0.53,0.53,0.29,0.11,0.13,0.00,0.00,0.00,0.00,0.00,0.00,0.00,0.00,0.01,10.30,83.32,90.00,-178.96,0.00,38.54,996.80,354.65,0.05,0.17,107.39
0.99,50.04,103.72,111.15,103.72,111.15,0.00,0.00,0.00,-179.97,0.01,0.02,28.61,-80.60,9.79,0.00,0.00,0.01,0.00,17229.00,1726.30,12.67,0.03,189.99,155.27,3.37,0.29,15436471.00,2110.10,26.41,0.53,0.53,0.29,0.11,0.13,0.00,0.00,0.00,0.00,0.00,0.00,0.00,0.00,0.01,10.30,83.32,90.00,-179.57,0.00,38.51,996.52,354.64,0.05,0.17,119.83
1.04,55.37,109.29,111.68,109.29,111.68,0.00,0.00,0.00,-179.97,0.01,0.02,28.61,-80.60,9.79,0.00,0.00,0.01,0.00,17180.00,1677.00,12.64,0.03,190.02,155.06,3.39,0.31,16262810.00,2116.00,29.26,0.53,0.53,0.29,0.11,0.13,0.00,0.00,0.00,0.00,0.00,0.00,0.00,0.00,0.01,10.30,83.32,90.00,179.85,0.00,38.48,996.22,354.62,0.05,0.18,133.01
1.09,60.97,114.88,112.02,114.88,112.02,0.00,0.00,0.00,-179.96,0.01,0.02,28.61,-80.60,9.79,0.00,0.00,0.01,0.00,17130.00,1627.80,12.62,0.03,190.05,154.86,3.42,0.32,17092647.00,2118.90,32.28,0.53,0.53,0.28,0.11,0.13,0.00,0.00,0.00,0.00,0.00,0.00,0.00,0.00,0.01,10.30,83.32,90.00,179.32,0.00,38.46,995.90,354.60,0.05,0.18,146.95
1.14,66.86,120.49,111.68,120.49,111.68,0.00,0.00,0.00,-179.96,0.01,0.02,28.61,-80.60,9.79,0.00,0.00,0.01,0.00,17081.00,1578.30,12.59,0.03,190.08,154.65,3.44,0.34,17924656.00,2110.30,35.47,0.53,0.53,0.28,0.11,0.14,0.00,0.00,0.00,0.00,0.00,0.00,0.00,0.00,0.02,10.30,83.32,90.00,178.93,0.00,38.43,995.57,354.58,0.05,0.19,161.61
1.19,73.02,126.09,111.26,126.09,111.26,0.00,0.00,0.00,-179.97,0.01,0.02,28.61,-80.60,9.79,0.00,0.00,0.01,0.00,17031.00,1528.60,12.56,0.03,190.11,154.44,3.46,0.36,18753700.00,2100.40,38.80,0.53,0.53,0.28,0.11,0.14,0.00,0.00,0.00,0.00,0.00,0.00,0.00,0.00,0.02,10.30,83.32,90.00,178.65,0.00,38.39,995.23,354.57,0.05,0.20,176.92
1.24,79.47,131.66,110.83,131.66,110.83,0.00,0.00,0.00,-179.98,0.01,0.02,28.61,-80.60,9.79,0.00,0.00,0.01,0.00,16981.00,1478.80,12.53,0.03,190.15,154.23,3.49,0.37,19579157.00,2090.50,42.29,0.53,0.53,0.28,0.11,0.14,0.00,0.00,0.00,0.00,0.00,0.00,0.00,0.00,0.02,10.30,83.32,90.00,178.58,0.00,38.36,994.86,354.55,0.05,0.20,192.86
1.29,86.19,137.21,110.39,137.21,110.39,0.00,0.00,0.00,180.00,0.01,0.03,28.61,-80.60,9.79,0.00,0.00,0.01,0.00,16932.00,1429.00,12.50,0.03,190.19,154.01,3.51,0.39,20400926.00,2080.70,45.92,0.53,0.53,0.28,0.11,0.14,0.00,0.00,0.00,0.00,0.00,0.00,0.00,0.00,0.02,10.30,83.32,90.00,178.63,0.00,38.33,994.49,354.52,0.05,0.20,209.41
1.34,93.19,142.74,109.93,142.74,109.93,-0.01,0.00,0.01,179.98,0.01,0.03,28.61,-80.60,9.79,0.00,0.00,0.00,0.00,16882.00,1379.20,12.48,0.03,190.23,153.80,3.54,0.40,21218907.00,2070.80,49.69,0.53,0.53,0.27,0.11,0.14,0.00,0.00,0.00,0.00,0.00,0.00,0.00,0.00,0.02,10.30,83.32,90.00,178.76,0.00,38.29,994.09,354.50,0.05,0.21,226.56
1.39,100.46,148.24,109.47,148.24,109.47,-0.01,0.00,0.01,179.95,0.02,0.03,28.61,-80.60,9.79,0.00,0.00,0.00,0.00,16832.00,1329.40,12.45,0.03,190.26,153.58,3.56,0.42,22032999.00,2060.90,53.62,0.53,0.53,0.27,0.11,0.14,0.00,0.00,0.00,0.00,0.00,0.00,0.00,0.00,0.02,10.30,83.32,89.99,179.03,0.00,38.25,993.68,354.48,0.05,0.21,244.30
1.44,108.01,153.73,108.91,153.73,108.91,-0.01,0.00,0.01,179.93,0.02,0.03,28.61,-80.60,9.79,0.00,0.00,-0.01,0.00,16782.00,1279.60,12.42,0.03,190.30,153.36,3.59,0.43,22843100.00,2049.60,57.69,0.53,0.53,0.27,0.11,0.14,0.00,0.00,0.00,0.00,0.00,0.00,0.00,0.00,0.02,10.30,83.32,89.99,179.43,0.00,38.22,993.26,354.46,0.05,0.21,262.62
1.49,115.83,159.18,108.14,159.18,108.14,-0.01,0.00,0.01,179.91,0.02,0.04,28.61,-80.60,9.79,0.00,0.00,-0.01,0.00,16733.00,1230.50,12.39,0.03,190.35,153.15,3.61,0.45,23648447.00,2035.30,61.91,0.53,0.53,0.27,0.11,0.15,0.00,0.00,0.00,0.00,0.00,0.00,0.00,0.00,0.02,10.30,83.32,89.99,179.88,0.00,38.18,992.82,354.43,0.05,0.22,281.50
1.54,123.93,164.59,107.36,164.59,107.36,-0.01,0.00,0.01,179.89,0.02,0.04,28.61,-80.60,9.79,0.00,0.00,-0.01,0.00,16685.00,1182.40,12.36,0.03,190.39,152.94,3.64,0.46,24447525.00,2020.80,66.26,0.53,0.53,0.27,0.11,0.15,0.00,0.00,0.00,0.00,0.00,0.00,0.00,0.00,0.02,10.30,83.32,89.99,-179.59,0.00,38.14,992.36,354.41,0.05,0.22,300.88
1.59,132.29,169.97,106.55,169.97,106.55,-0.01,0.00,0.01,179.88,0.02,0.04,28.61,-80.60,9.79,0.00,0.00,-0.01,0.00,16637.00,1134.60,12.34,0.03,190.43,152.73,3.66,0.48,25200000.00,2006.40,70.75,0.53,0.53,0.26,0.12,0.15,0.00,0.00,0.00,0.00,0.00,0.00,0.00,0.00,0.02,10.30,83.32,89.99,-178.97,0.00,38.09,991.89,354.38,0.05,0.22,320.74
1.64,140.92,175.30,105.74,175.30,105.74,-0.01,0.00,0.01,179.88,0.02,0.04,28.61,-80.60,9.79,0.00,0.00,-0.01,0.00,16589.00,1086.70,12.31,0.03,190.48,152.51,3.69,0.49,26026258.00,1991.90,75.37,0.53,0.53,0.26,0.12,0.15,0.00,0.00,0.00,0.00,0.00,0.00,0.00,0.00,0.02,10.30,83.32,89.99,-178.63,0.00,38.05,991.41,354.36,0.05,0.24,341.07
1.69,149.82,180.60,104.91,180.60,104.91,-0.01,0.00,0.01,179.89,0.03,0.04,28.61,-80.60,9.79,0.00,0.00,-0.01,0.00,16541.00,1038.80,12.28,0.03,190.52,152.30,3.71,0.51,26805696.00,1977.50,80.13,0.53,0.53,0.26,0.12,0.15,0.00,0.00,0.00,0.00,0.00,0.00,0.00,0.00,0.02,10.30,83.32,89.99,-178.47,0.00,38.00,990.91,354.33,0.05,0.24,361.85
1.74,158.98,185.85,104.07,185.85,104.07,-0.01,0.00,0.01,179.91,0.03,0.04,28.61,-80.60,9.79,0.00,0.00,-0.01,0.00,16494.00,990.95,12.25,0.03,190.58,152.08,3.74,0.52,27578374.00,1963.00,85.01,0.53,0.53,0.26,0.12,0.16,0.00,0.00,0.00,0.00,0.00,0.00,0.00,0.00,0.02,10.30,83.32,89.99,-178.33,0.00,37.96,990.39,354.30,0.05,0.25,383.06
1.79,168.40,191.06,103.16,191.06,103.16,-0.02,0.00,0.02,179.94,0.03,0.04,28.61,-80.60,9.79,0.00,0.00,0.00,0.00,16446.00,943.48,12.22,0.03,190.63,151.87,3.76,0.54,28344157.00,1947.50,90.03,0.53,0.53,0.26,0.12,0.16,0.00,0.00,0.00,0.00,0.00,0.00,0.00,0.00,0.02,10.30,83.32,89.99,-178.30,0.00,37.91,989.86,354.27,0.05,0.25,404.68
1.84,178.09,196.22,102.18,196.22,102.18,-0.02,0.00,0.02,179.96,0.03,0.05,28.61,-80.60,9.79,0.00,0.00,0.00,0.00,16401.00,898.15,12.20,0.03,190.70,151.66,3.79,0.55,29102400.00,1931.50,95.17,0.54,0.54,0.26,0.12,0.16,0.00,0.00,0.00,0.00,0.00,0.00,0.00,0.00,0.03,10.30,83.32,89.99,-178.46,0.00,37.86,989.32,354.24,0.05,0.26,426.68
1.89,188.02,201.34,101.18,201.34,101.18,-0.02,0.00,0.02,179.99,0.04,0.05,28.61,-80.60,9.79,0.00,0.00,0.00,0.00,16357.00,854.57,12.17,0.03,190.76,151.46,3.82,0.57,29852682.00,1915.60,100.43,0.54,0.54,0.26,0.12,0.16,0.00,0.00,0.00,0.00,0.00,0.00,0.00,0.00,0.03,10.30,83.32,89.99,-178.71,0.00,37.81,988.76,354.21,0.05,0.26,449.03
1.94,198.22,206.40,100.17,206.40,100.17,-0.02,0.00,0.02,-179.98,0.04,0.05,28.61,-80.60,9.79,0.00,0.00,0.00,0.00,16314.00,810.98,12.15,0.03,190.83,151.26,3.84,0.58,30594887.00,1899.60,105.80,0.54,0.54,0.25,0.12,0.16,0.00,0.00,0.00,0.00,0.00,0.00,0.00,0.00,0.03,10.30,83.32,89.99,-179.03,0.00,37.76,988.19,354.18,0.05,0.27,471.70
1.99,208.66,211.41,99.15,211.41,99.15,-0.02,0.00,0.02,-179.95,0.04,0.05,28.61,-80.60,9.79,0.00,0.00,0.00,0.00,16270.00,767.40,12.12,0.03,190.90,151.05,3.87,0.60,31328913.00,1883.60,111.29,0.54,0.54,0.25,0.12,0.17,0.00,0.00,0.00,0.00,0.00,0.00,0.00,0.00,0.03,10.30,83.32,89.99,-179.16,0.00,37.70,987.60,354.15,0.05,0.27,494.68
2.04,219.36,216.37,98.11,216.37,98.11,-0.02,0.00,0.02,-179.92,0.04,0.05,28.61,-80.60,9.79,0.00,0.00,0.01,0.00,16226.00,723.81,12.09,0.03,190.97,150.85,3.90,0.61,32054662.00,1867.70,116.89,0.54,0.54,0.25,0.12,0.17,0.00,0.00,0.00,0.00,0.00,0.00,0.00,0.00,0.03,10.30,83.32,89.99,-179.24,0.00,37.65,987.00,354.11,0.05,0.27,517.95
2.09,230.30,221.28,97.06,221.28,97.06,-0.03,0.00,0.03,-179.90,0.05,0.05,28.61,-80.60,9.79,0.00,0.00,0.01,0.00,16183.00,680.23,12.07,0.03,191.05,150.65,3.92,0.62,32772035.00,1851.70,122.60,0.54,0.54,0.25,0.12,0.17,0.00,0.00,0.00,0.00,0.00,0.00,0.00,0.00,0.03,10.30,83.32,89.99,-179.09,0.00,37.59,986.38,354.08,0.05,0.28,541.47
2.14,241.48,226.14,96.00,226.14,96.00,-0.03,0.00,0.03,-179.87,0.05,0.05,28.61,-80.60,9.79,0.00,0.00,0.01,0.00,16139.00,636.64,12.04,0.03,191.13,150.44,3.95,0.64,33480935.00,1835.80,128.41,0.55,0.55,0.25,0.12,0.17,0.00,0.00,0.00,0.00,0.00,0.00,0.00,0.00,0.03,10.30,83.32,89.99,-178.83,0.00,37.54,985.75,354.05,0.05,0.28,565.24
2.19,252.91,230.94,94.93,230.94,94.93,-0.03,0.00,0.03,-179.85,0.05,0.05,28.61,-80.60,9.79,0.00,0.00,0.01,0.00,16096.00,593.05,12.01,0.03,191.21,150.23,3.98,0.65,34181266.00,1819.80,134.32,0.55,0.55,0.25,0.12,0.18,0.00,0.00,0.00,0.00,0.00,0.00,0.00,0.00,0.03,10.30,83.32,89.99,-178.64,0.00,37.48,985.11,354.01,0.05,0.28,589.23
2.24,264.58,235.69,93.85,235.69,93.85,-0.03,0.00,0.03,-179.83,0.05,0.05,28.61,-80.60,9.79,0.00,0.00,0.01,-0.01,16052.00,549.47,11.99,0.03,191.30,150.03,4.01,0.67,34866908.00,1803.80,140.30,0.55,0.55,0.25,0.12,0.18,0.00,0.00,0.00,0.00,0.00,0.00,0.00,0.00,0.03,10.30,83.32,89.99,-178.60,0.00,37.38,984.07,353.95,0.05,0.29,613.26
2.29,276.48,240.38,92.75,240.38,92.75,-0.04,0.00,0.04,-179.81,0.06,0.05,28.61,-80.60,9.79,0.00,0.00,0.00,0.00,16009.00,505.88,11.96,0.03,191.39,149.82,4.04,0.68,35500000.00,1787.90,146.35,0.55,0.55,0.25,0.13,0.18,0.00,0.00,0.00,0.00,0.00,0.00,0.00,0.00,0.03,10.30,83.32,89.99,-178.99,0.00,37.27,982.81,353.88,0.05,0.29,637.36
2.34,288.61,245.02,91.65,245.02,91.65,-0.04,0.00,0.04,-179.79,0.06,0.06,28.61,-80.60,9.79,0.00,0.00,-0.01,0.00,15965.00,462.30,11.93,0.03,191.47,149.61,4.06,0.69,36203767.00,1771.90,152.49,0.55,0.55,0.24,0.13,0.18,0.00,0.00,0.00,0.00,0.00,0.00,0.00,0.00,0.03,10.30,83.32,89.99,-179.44,0.00,37.15,981.52,353.81,0.05,0.30,661.58
2.39,300.98,249.61,90.53,249.61,90.53,-0.04,0.00,0.04,-179.77,0.06,0.06,28.61,-80.60,9.79,0.00,0.00,-0.01,0.00,15921.00,418.71,11.90,0.03,191.56,149.40,4.09,0.71,36857984.00,1755.90,158.71,0.56,0.56,0.24,0.13,0.18,0.00,0.00,0.00,0.00,0.00,0.00,0.00,0.00,0.03,10.30,83.32,89.99,179.87,0.00,37.02,980.21,353.73,0.05,0.30,685.92
2.44,313.57,254.14,89.41,254.14,89.41,-0.05,0.00,0.05,-179.75,0.06,0.06,28.61,-80.60,9.79,0.00,0.00,-0.01,0.00,15878.00,375.13,11.88,0.03,191.65,149.18,4.12,0.72,37502606.00,1740.00,165.01,0.56,0.56,0.24,0.13,0.19,0.00,0.00,0.00,0.00,0.00,0.00,0.00,0.00,0.03,10.30,83.32,89.99,179.19,0.00,36.90,978.87,353.66,0.05,0.31,710.35
2.49,326.39,258.61,88.27,258.61,88.27,-0.05,0.00,0.05,-179.75,0.07,0.06,28.61,-80.60,9.79,0.00,0.00,-0.01,0.00,15834.00,331.54,11.85,0.03,191.75,148.97,4.15,0.73,38137546.00,1724.00,171.38,0.56,0.56,0.24,0.13,0.19,0.00,0.00,0.00,0.00,0.00,0.00,0.00,0.00,0.03,10.30,83.32,89.99,178.79,0.00,36.77,977.51,353.58,0.05,0.31,734.84
2.54,339.43,263.02,87.12,263.02,87.12,-0.05,0.00,0.05,-179.74,0.07,0.06,28.61,-80.60,9.79,0.00,0.00,0.00,0.01,15791.00,287.96,11.82,0.03,191.84,148.76,4.18,0.74,38762718.00,1708.00,177.81,0.56,0.56,0.24,0.13,0.19,0.00,0.00,0.00,0.00,0.00,0.00,0.00,0.00,0.03,10.30,83.32,89.98,178.94,0.00,36.64,976.12,353.50,0.05,0.31,759.38
2.59,352.69,267.38,84.67,267.38,84.67,-0.06,0.00,0.06,-179.75,0.07,0.06,28.61,-80.60,9.79,0.00,0.00,0.00,0.01,15747.00,244.37,11.79,0.03,191.94,148.54,4.21,0.76,39378041.00,1671.70,184.31,0.56,0.56,0.24,0.13,0.19,0.00,0.00,0.00,0.00,0.00,0.00,0.00,0.00,0.03,10.30,83.32,89.98,179.55,0.00,36.51,974.71,353.43,0.05,0.32,783.95
2.64,366.17,271.61,77.76,271.61,77.76,-0.06,0.00,0.06,-179.75,0.08,0.06,28.61,-80.60,9.79,0.00,0.00,0.00,0.00,15705.00,202.42,11.77,0.03,192.03,148.33,4.24,0.77,39973852.00,1565.80,190.77,0.57,0.57,0.24,0.13,0.20,0.00,0.00,0.00,0.00,0.00,0.00,0.00,0.00,0.03,10.30,83.32,89.98,-179.85,0.00,36.38,973.28,353.34,0.05,0.32,808.13
2.69,379.85,275.50,66.95,275.50,66.95,-0.06,0.00,0.06,-179.76,0.08,0.06,28.61,-80.60,9.79,0.00,0.00,0.00,-0.01,15668.00,165.64,11.74,0.03,192.12,148.15,4.27,0.78,40517375.00,1399.10,196.81,0.57,0.57,0.24,0.13,0.20,0.00,0.00,0.00,0.00,0.00,0.00,0.00,0.00,0.04,10.30,83.32,89.98,-179.28,0.00,36.24,971.83,353.26,0.05,0.32,830.55
2.74,393.70,278.84,54.80,278.84,54.80,-0.07,0.00,0.07,-179.76,0.08,0.05,28.61,-80.60,9.79,0.00,0.00,0.00,0.00,15642.00,139.10,11.72,0.03,192.20,148.01,4.29,0.79,41000000.00,1212.30,202.08,0.57,0.57,0.24,0.13,0.20,0.00,0.00,0.00,0.00,0.00,0.00,0.00,0.00,0.04,10.30,83.32,89.98,-178.86,0.00,36.11,970.36,353.18,0.05,0.32,849.92
2.79,407.72,281.58,42.64,281.58,42.64,-0.07,0.00,0.07,-179.76,0.08,0.05,28.61,-80.60,9.79,0.00,0.00,0.01,0.00,15622.00,119.28,11.71,0.03,192.26,147.91,4.31,0.80,41351978.00,1025.50,206.42,0.57,0.57,0.24,0.13,0.20,0.00,0.00,0.00,0.00,0.00,0.00,0.00,0.00,0.04,10.30,83.32,89.98,-178.77,0.00,35.97,968.87,353.10,0.05,0.32,865.75
2.84,421.85,283.71,30.52,283.71,30.52,-0.08,0.00,0.08,-179.76,0.09,0.05,28.61,-80.60,9.79,0.00,0.00,0.01,0.00,15602.00,99.46,11.70,0.03,192.31,147.81,4.32,0.80,41634127.00,838.65,209.80,0.57,0.57,0.24,0.13,0.20,0.00,0.00,0.00,0.00,0.00,0.00,0.00,0.00,0.04,10.30,83.32,89.98,-179.15,0.00,35.83,967.37,353.01,0.05,0.33,877.92
2.89,436.07,285.23,18.43,285.23,18.43,-0.08,0.00,0.08,-179.76,0.09,0.04,28.61,-80.60,9.79,0.00,0.00,0.00,0.00,15582.00,79.65,11.69,0.03,192.35,147.71,4.33,0.81,41826806.00,651.84,212.17,0.57,0.57,0.23,0.13,0.20,0.00,0.00,0.00,0.00,0.00,0.00,0.00,0.00,0.04,10.30,83.32,89.98,-179.83,0.00,35.69,965.86,352.93,0.05,0.33,886.40
2.94,450.36,286.16,6.37,286.16,6.37,-0.09,0.00,0.09,-179.76,0.09,0.04,28.61,-80.60,9.79,0.00,0.00,0.00,0.01,15562.00,59.83,11.67,0.03,192.37,147.61,4.35,0.81,41930521.00,465.02,213.53,0.58,0.58,0.23,0.14,0.21,0.00,0.00,0.00,0.00,0.00,0.00,0.00,0.00,0.04,10.30,83.32,89.98,179.55,0.00,35.55,964.34,352.84,0.05,0.33,891.14
2.99,464.67,286.47,-5.65,286.47,5.65,-0.09,0.00,0.09,-179.76,0.09,0.04,28.61,-80.60,9.79,0.00,0.00,0.00,0.01,15543.00,40.01,11.66,0.03,192.38,147.51,4.36,0.81,41945790.00,278.21,213.87,0.58,0.58,0.23,0.14,0.21,0.00,0.00,0.00,0.00,0.00,0.00,0.00,0.00,0.04,10.30,83.32,89.98,179.20,0.00,35.40,962.82,352.75,0.05,0.34,892.13
3.04,478.99,286.19,-15.96,286.19,15.96,-0.09,0.00,0.09,-179.76,0.10,0.04,28.61,-80.60,9.79,0.00,0.00,-0.01,0.01,15523.00,20.19,11.65,0.03,192.38,147.41,4.37,0.81,41873136.00,117.31,213.17,0.58,0.58,0.23,0.14,0.21,0.00,0.00,0.00,0.00,0.00,0.00,0.00,0.00,0.04,10.30,83.32,89.98,179.08,0.00,35.26,961.30,352.67,0.05,0.34,889.38
3.09,493.28,285.40,-19.99,285.40,19.99,-0.10,0.00,0.10,-179.76,0.10,0.03,28.61,-80.60,9.79,0.00,0.00,-0.01,0.01,15509.00,6.15,11.64,0.03,192.36,147.34,4.37,0.81,41725271.00,53.33,211.61,0.57,0.57,0.23,0.13,0.21,0.00,0.00,0.00,0.00,0.00,0.00,0.00,0.00,0.04,10.30,83.32,89.98,179.24,0.00,35.12,959.78,352.58,0.05,0.34,883.45
3.14,507.52,284.40,-22.92,284.40,22.92,-0.10,0.00,0.10,-179.77,0.10,0.03,28.61,-80.60,9.79,0.00,0.00,-0.01,0.01,15504.00,1.34,11.63,0.03,192.34,147.31,4.37,0.81,41548265.00,6.14,209.72,0.57,0.57,0.24,0.13,0.20,0.00,0.00,0.00,0.00,0.00,0.00,0.00,0.00,0.04,10.30,83.32,89.98,179.82,0.00,34.98,958.27,352.50,0.05,0.34,876.31
3.19,521.71,283.26,-23.18,283.26,23.18,-0.11,0.00,0.11,-179.77,0.10,0.03,28.61,-80.60,9.79,0.00,0.00,-0.01,0.00,15503.00,0.32,11.63,0.03,192.31,147.31,4.37,0.80,41400000.00,0.00,207.59,0.57,0.57,0.24,0.13,0.20,0.00,0.00,0.00,0.00,0.00,0.00,0.00,0.00,0.04,10.30,83.32,89.98,-179.60,0.00,34.84,956.76,352.41,0.05,0.35,868.31
3.24,535.85,282.10,-23.04,282.10,23.04,-0.11,0.00,0.11,-179.78,0.10,0.03,28.61,-80.60,9.79,0.00,0.00,0.00,0.00,15503.00,0.00,11.63,0.03,192.29,147.31,4.37,0.80,41150664.00,0.00,205.46,0.57,0.57,0.24,0.13,0.20,0.00,0.00,0.00,0.00,0.00,0.00,0.00,0.00,0.04,10.30,83.32,89.98,-179.25,0.00,34.70,955.26,352.33,0.05,0.35,860.28
3.29,549.92,280.95,-22.90,280.95,22.90,-0.12,0.00,0.12,-179.78,0.10,0.03,28.61,-80.60,9.79,0.00,0.00,0.00,0.00,15503.00,0.00,11.63,0.03,192.26,147.31,4.36,0.80,40952385.00,0.00,203.36,0.57,0.57,0.24,0.13,0.20,0.00,0.00,0.00,0.00,0.00,0.00,0.00,0.00,0.04,10.30,83.32,89.98,-179.17,0.00,34.56,953.76,352.24,0.05,0.35,852.34
3.34,563.94,279.81,-22.77,279.81,22.77,-0.12,0.00,0.12,-179.78,0.11,0.03,28.61,-80.60,9.79,0.00,0.00,0.00,0.00,15503.00,0.00,11.63,0.03,192.24,147.31,4.36,0.79,40755400.00,0.00,201.28,0.57,0.57,0.24,0.13,0.20,0.00,0.00,0.00,0.00,0.00,0.00,0.00,0.00,0.04,10.30,83.32,89.98,-179.50,0.00,34.42,952.27,352.16,0.05,0.35,844.48
3.39,577.91,278.68,-22.64,278.68,22.64,-0.13,0.00,0.13,-179.79,0.11,0.03,28.61,-80.60,9.79,0.00,0.00,0.01,0.01,15503.00,0.00,11.63,0.03,192.21,147.31,4.36,0.79,40600000.00,0.00,199.23,0.57,0.57,0.24,0.13,0.20,0.00,0.00,0.00,0.00,0.00,0.00,0.00,0.00,0.04,10.30,83.32,89.98,179.95,0.00,34.28,950.79,352.08,0.05,0.36,836.72
3.44,591.81,277.55,-22.51,277.55,22.51,-0.14,0.00,0.14,-179.79,0.11,0.03,28.61,-80.60,9.79,0.00,0.00,0.01,0.01,15503.00,0.00,11.63,0.03,192.19,147.31,4.36,0.79,40365252.00,0.00,197.21,0.57,0.57,0.24,0.13,0.20,0.00,0.00,0.00,0.00,0.00,0.00,0.00,0.00,0.04,10.30,83.32,89.98,179.46,0.00,34.15,949.31,351.99,0.05,0.36,829.03
3.49,605.66,276.43,-22.38,276.43,22.38,-0.14,0.00,0.14,-179.79,0.11,0.03,28.61,-80.60,9.79,0.00,0.00,0.01,0.01,15503.00,0.00,11.63,0.03,192.16,147.31,4.35,0.79,40172057.00,0.00,195.21,0.57,0.57,0.24,0.13,0.20,0.00,0.00,0.00,0.00,0.00,0.00,0.00,0.00,0.04,10.30,83.32,89.98,179.37,0.00,34.01,947.84,351.91,0.05,0.36,821.43
3.54,619.45,275.31,-22.25,275.31,22.25,-0.15,0.00,0.15,-179.80,0.11,0.03,28.61,-80.60,9.79,0.00,0.00,0.00,0.01,15503.00,0.00,11.63,0.03,192.14,147.31,4.35,0.78,40000000.00,0.00,193.24,0.57,0.57,0.24,0.13,0.20,0.00,0.00,0.00,0.00,0.00,0.00,0.00,0.00,0.04,10.30,83.32,89.98,179.38,0.00,33.87,946.38,351.83,0.05,0.37,813.92
3.59,633.19,274.20,-22.13,274.20,22.13,-0.15,0.00,0.15,-179.80,0.11,0.03,28.61,-80.60,9.79,0.00,0.00,0.00,0.01,15503.00,0.00,11.63,0.03,192.12,147.31,4.35,0.78,39789354.00,0.00,191.29,0.57,0.57,0.24,0.13,0.20,0.00,0.00,0.00,0.00,0.00,0.00,0.00,0.00,0.04,10.30,83.32,89.98,179.33,0.00,33.74,944.92,351.74,0.05,0.37,806.48
3.64,646.87,273.10,-22.00,273.10,22.00,-0.16,0.00,0.16,-179.80,0.11,0.03,28.61,-80.60,9.79,0.00,0.00,0.00,0.01,15503.00,0.00,11.63,0.03,192.09,147.31,4.35,0.78,39600000.00,0.00,189.37,0.57,0.57,0.24,0.13,0.20,0.00,0.00,0.00,0.00,0.00,0.00,0.00,0.00,0.03,10.30,83.32,89.98,179.41,0.00,33.60,943.47,351.66,0.05,0.38,799.13
3.69,660.50,272.00,-21.88,272.00,21.88,-0.16,0.00,0.16,-179.81,0.12,0.03,28.61,-80.60,9.79,0.00,0.00,0.00,0.00,15503.00,0.00,11.63,0.03,192.07,147.31,4.35,0.77,39411467.00,0.00,187.47,0.57,0.57,0.24,0.13,0.20,0.00,0.00,0.00,0.00,0.00,0.00,0.00,0.00,0.03,10.30,83.32,89.98,179.62,0.00,33.47,942.02,351.58,0.05,0.38,791.85
3.74,674.08,270.91,-21.76,270.91,21.76,-0.17,0.00,0.17,-179.82,0.12,0.03,28.61,-80.60,9.79,0.00,0.00,-0.01,0.00,15503.00,0.00,11.63,0.03,192.05,147.31,4.34,0.77,39224295.00,0.00,185.60,0.57,0.57,0.24,0.13,0.20,0.00,0.00,0.00,0.00,0.00,0.00,0.00,0.00,0.03,10.30,83.32,89.98,-179.85,0.00,33.33,940.58,351.50,0.05,0.39,784.66
3.79,687.59,269.82,-21.64,269.83,21.64,-0.18,0.00,0.18,-179.82,0.12,0.03,28.61,-80.60,9.79,0.00,0.00,-0.01,0.00,15503.00,0.00,11.63,0.03,192.02,147.31,4.34,0.77,39038285.00,0.00,183.75,0.57,0.57,0.24,0.13,0.20,0.00,0.00,0.00,0.00,0.00,0.00,0.00,0.00,0.03,10.30,83.32,89.97,-179.37,0.00,33.20,939.14,351.42,0.05,0.39,777.54
3.84,701.06,268.75,-21.52,268.75,21.52,-0.18,0.00,0.18,-179.83,0.12,0.03,28.61,-80.60,9.79,0.00,0.00,0.00,0.00,15503.00,0.00,11.63,0.03,192.00,147.31,4.34,0.76,38853424.00,0.00,181.92,0.57,0.57,0.24,0.13,0.20,0.00,0.00,0.00,0.00,0.00,0.00,0.00,0.00,0.03,10.30,83.32,89.97,-179.24,0.00,33.07,937.71,351.34,0.05,0.39,770.49
3.89,714.47,267.67,-21.40,267.67,21.40,-0.19,0.00,0.19,-179.83,0.12,0.03,28.61,-80.60,9.79,0.00,0.00,0.00,0.00,15503.00,0.00,11.63,0.03,191.98,147.31,4.34,0.76,38700000.00,0.00,180.11,0.57,0.57,0.24,0.13,0.20,0.00,0.00,0.00,0.00,0.00,0.00,0.00,0.00,0.03,10.30,83.32,89.97,-179.20,0.00,32.93,936.29,351.26,0.05,0.39,763.52
3.94,727.83,266.61,-21.29,266.61,21.29,-0.19,0.00,0.19,-179.83,0.12,0.03,28.61,-80.60,9.79,0.00,0.00,0.00,0.00,15503.00,0.00,11.63,0.03,191.96,147.31,4.33,0.76,38487097.00,0.00,178.33,0.57,0.57,0.24,0.13,0.19,0.00,0.00,0.00,0.00,0.00,0.00,0.00,0.00,0.03,10.30,83.32,89.97,-179.29,0.00,32.80,934.87,351.18,0.05,0.40,756.62
3.99,741.13,265.54,-21.18,265.54,21.18,-0.20,0.00,0.20,-179.83,0.13,0.03,28.61,-80.60,9.79,0.00,0.00,0.00,0.00,15503.00,0.00,11.63,0.03,191.94,147.31,4.33,0.76,38305605.00,0.00,176.57,0.57,0.57,0.24,0.13,0.19,0.00,0.00,0.00,0.00,0.00,0.00,0.00,0.00,0.03,10.30,83.32,89.97,-179.61,0.00,32.67,933.45,351.10,0.05,0.40,749.79
4.04,754.38,264.49,-21.06,264.49,21.06,-0.21,0.00,0.21,-179.83,0.13,0.03,28.61,-80.60,9.79,0.00,0.00,0.00,0.00,15503.00,0.00,11.63,0.03,191.91,147.31,4.33,0.75,38125210.00,0.00,174.83,0.56,0.56,0.24,0.13,0.19,0.00,0.00,0.00,0.00,0.00,0.00,0.00,0.00,0.03,10.30,83.32,89.97,-179.83,0.00,32.54,932.05,351.02,0.05,0.40,743.04
4.09,767.58,263.44,-20.95,263.44,20.95,-0.21,0.00,0.21,-179.84,0.13,0.03,28.61,-80.60,9.79,0.00,0.00,0.01,0.00,15503.00,0.00,11.63,0.03,191.89,147.31,4.33,0.75,37947683.00,0.00,173.12,0.56,0.56,0.24,0.13,0.19,0.00,0.00,0.00,0.00,0.00,0.00,0.00,0.00,0.03,10.30,83.32,89.97,-179.98,0.00,32.41,930.69,350.94,0.05,0.41,736.39
4.14,780.72,262.39,-20.84,262.39,20.84,-0.22,0.00,0.22,-179.84,0.13,0.03,28.61,-80.60,9.79,0.00,0.00,0.01,0.00,15503.00,0.00,11.63,0.03,191.87,147.31,4.33,0.75,37771644.00,0.00,171.43,0.56,0.56,0.24,0.13,0.19,0.00,0.00,0.00,0.00,0.00,0.00,0.00,0.00,0.03,10.30,83.32,89.97,-179.99,0.00,32.28,929.35,350.86,0.05,0.41,729.82
4.19,793.82,261.35,-20.74,261.35,20.74,-0.23,0.00,0.23,-179.84,0.13,0.03,28.61,-80.60,9.79,0.00,0.00,0.01,0.00,15503.00,0.00,11.63,0.03,191.85,147.31,4.32,0.75,37596639.00,0.00,169.76,0.56,0.56,0.24,0.13,0.19,0.00,0.00,0.00,0.00,0.00,0.00,0.00,0.00,0.03,10.30,83.32,89.97,-179.96,0.00,32.15,928.01,350.78,0.05,0.41,723.31
4.24,806.86,260.32,-20.63,260.32,20.63,-0.23,0.00,0.23,-179.84,0.13,0.03,28.61,-80.60,9.79,0.00,0.00,0.01,0.00,15503.00,0.00,11.63,0.03,191.83,147.31,4.32,0.74,37422656.00,0.00,168.11,0.56,0.56,0.24,0.13,0.19,0.00,0.00,0.00,0.00,0.00,0.00,0.00,0.00,0.03,10.30,83.32,89.97,-179.98,0.00,32.02,926.68,350.70,0.05,0.41,716.87
4.29,819.85,259.29,-20.52,259.29,20.52,-0.24,0.00,0.24,-179.84,0.13,0.03,28.61,-80.60,9.79,0.00,0.00,0.01,0.00,15503.00,0.00,11.63,0.03,191.81,147.31,4.32,0.74,37300000.00,0.00,166.48,0.56,0.56,0.24,0.13,0.19,0.00,0.00,0.00,0.00,0.00,0.00,0.00,0.00,0.03,10.30,83.32,89.97,-179.89,0.00,31.89,925.35,350.63,0.05,0.42,710.50
4.34,832.79,258.27,-20.42,258.27,20.42,-0.25,0.00,0.25,-179.84,0.13,0.03,28.61,-80.60,9.79,0.00,0.00,0.00,0.00,15503.00,0.00,11.63,0.03,191.79,147.31,4.32,0.74,37077713.00,0.00,164.87,0.56,0.56,0.24,0.13,0.19,0.00,0.00,0.00,0.00,0.00,0.00,0.00,0.00,0.03,10.30,83.32,89.97,-179.78,0.00,31.76,924.03,350.55,0.05,0.42,704.19
4.39,845.68,257.25,-20.32,257.25,20.32,-0.25,0.00,0.25,-179.85,0.14,0.03,28.61,-80.60,9.79,0.00,0.00,-0.01,-0.01,15503.00,0.00,11.63,0.03,191.77,147.31,4.32,0.73,36906730.00,0.00,163.27,0.56,0.56,0.24,0.13,0.19,0.00,0.00,0.00,0.00,0.00,0.00,0.00,0.00,0.03,10.30,83.32,89.97,-179.70,0.00,31.64,922.71,350.47,0.05,0.42,697.94
4.44,858.51,256.23,-20.22,256.23,20.22,-0.26,0.00,0.26,-179.85,0.14,0.03,28.61,-80.60,9.79,0.00,0.00,-0.01,0.00,15503.00,0.00,11.63,0.03,191.75,147.31,4.31,0.73,36736726.00,0.00,161.70,0.56,0.56,0.24,0.13,0.19,0.00,0.00,0.00,0.00,0.00,0.00,0.00,0.00,0.03,10.30,83.32,89.97,-179.83,0.00,31.51,921.40,350.39,0.05,0.42,691.76
4.49,871.30,255.23,-20.12,255.23,20.12,-0.27,0.00,0.27,-179.85,0.14,0.03,28.61,-80.60,9.79,0.00,0.00,-0.01,0.00,15503.00,0.00,11.63,0.03,191.73,147.31,4.31,0.73,36567690.00,0.00,160.14,0.56,0.56,0.24,0.13,0.19,0.00,0.00,0.00,0.00,0.00,0.00,0.00,0.00,0.03,10.30,83.32,89.97,-179.89,0.00,31.38,920.10,350.32,0.05,0.43,685.64
4.54,884.04,254.22,-20.02,254.22,20.02,-0.27,0.00,0.27,-179.85,0.14,0.03,28.61,-80.60,9.79,0.00,0.00,-0.01,0.00,15503.00,0.00,11.63,0.03,191.71,147.31,4.31,0.73,36400000.00,0.00,158.61,0.56,0.56,0.24,0.13,0.19,0.00,0.00,0.00,0.00,0.00,0.00,0.00,0.00,0.03,10.30,83.32,89.97,-179.91,0.00,31.26,918.80,350.24,0.05,0.43,679.58
4.59,896.72,253.22,-19.92,253.22,19.92,-0.28,0.00,0.28,-179.85,0.14,0.03,28.61,-80.60,9.79,0.00,0.00,0.00,0.00,15503.00,0.00,11.63,0.03,191.69,147.31,4.31,0.72,36232480.00,0.00,157.09,0.56,0.56,0.24,0.13,0.19,0.00,0.00,0.00,0.00,0.00,0.00,0.00,0.00,0.03,10.30,83.32,89.97,-179.98,0.00,31.13,917.50,350.16,0.05,0.43,673.58
4.64,909.36,252.23,-19.82,252.23,19.82,-0.29,0.00,0.29,-179.85,0.14,0.03,28.61,-80.60,9.79,0.00,0.00,0.00,0.00,15503.00,0.00,11.63,0.03,191.67,147.31,4.31,0.72,36066286.00,0.00,155.58,0.56,0.56,0.24,0.13,0.19,0.00,0.00,0.00,0.00,0.00,0.00,0.00,0.00,0.03,10.30,83.32,89.97,-179.98,0.00,31.01,916.21,350.09,0.05,0.44,667.64
4.69,921.94,251.24,-19.73,251.24,19.73,-0.29,0.00,0.29,-179.85,0.14,0.03,28.61,-80.60,9.79,0.00,0.00,0.00,0.00,15503.00,0.00,11.63,0.03,191.65,147.31,4.31,0.72,35901018.00,0.00,154.10,0.56,0.56,0.24,0.13,0.19,0.00,0.00,0.00,0.00,0.00,0.00,0.00,0.00,0.03,10.30,83.32,89.97,-179.87,0.00,30.88,914.93,350.01,0.05,0.44,661.75
4.74,934.48,250.26,-19.63,250.26,19.63,-0.30,0.00,0.30,-179.85,0.15,0.02,28.61,-80.60,9.79,0.00,0.00,0.00,0.00,15503.00,0.00,11.63,0.03,191.63,147.31,4.30,0.72,35736668.00,0.00,152.63,0.56,0.56,0.24,0.13,0.19,0.00,0.00,0.00,0.00,0.00,0.00,0.00,0.00,0.03,10.30,83.32,89.97,-179.84,0.00,30.76,913.65,349.94,0.05,0.44,655.93
4.79,946.97,249.28,-19.54,249.28,19.54,-0.31,0.00,0.31,-179.85,0.15,0.02,28.61,-80.60,9.79,0.00,0.00,0.01,0.00,15503.00,0.00,11.63,0.03,191.61,147.31,4.30,0.71,35573226.00,0.00,151.18,0.56,0.56,0.24,0.13,0.19,0.00,0.00,0.00,0.00,0.00,0.00,0.00,0.00,0.03,10.30,83.32,89.97,-179.93,0.00,30.63,912.37,349.86,0.05,0.45,650.16
4.84,959.41,248.30,-19.45,248.30,19.45,-0.32,0.00,0.32,-179.86,0.15,0.02,28.61,-80.60,9.79,0.00,0.00,0.01,0.00,15503.00,0.00,11.63,0.03,191.59,147.31,4.30,0.71,35410682.00,0.00,149.74,0.56,0.56,0.24,0.13,0.19,0.00,0.00,0.00,0.00,0.00,0.00,0.00,0.00,0.03,10.30,83.32,89.97,179.94,0.00,30.51,911.10,349.79,0.05,0.45,644.45
4.89,971.80,247.34,-19.35,247.34,19.35,-0.32,0.00,0.32,-179.86,0.15,0.02,28.61,-80.60,9.79,0.00,0.00,0.01,0.01,15503.00,0.00,11.63,0.03,191.57,147.31,4.30,0.71,35249027.00,0.00,148.32,0.56,0.56,0.24,0.13,0.19,0.00,0.00,0.00,0.00,0.00,0.00,0.00,0.00,0.03,10.30,83.32,89.97,179.71,0.00,30.39,909.84,349.71,0.05,0.45,638.80
4.94,984.14,246.37,-19.26,246.37,19.26,-0.33,0.00,0.33,-179.86,0.15,0.02,28.61,-80.60,9.79,0.00,0.00,0.01,0.01,15503.00,0.00,11.63,0.03,191.56,147.31,4.30,0.70,35088252.00,0.00,146.92,0.56,0.56,0.24,0.13,0.18,0.00,0.00,0.00,0.00,0.00,0.00,0.00,0.00,0.03,10.30,83.32,89.97,179.59,0.00,30.27,908.58,349.64,0.05,0.46,633.20
4.99,996.44,245.41,-19.17,245.41,19.17,-0.34,0.00,0.34,-179.86,0.15,0.03,28.61,-80.60,9.79,0.00,0.00,0.00,0.02,15503.00,0.00,11.63,0.03,191.54,147.31,4.29,0.70,34928347.00,0.00,145.53,0.56,0.56,0.25,0.13,0.18,0.00,0.00,0.00,0.00,0.00,0.00,0.00,0.00,0.03,10.30,83.32,89.97,179.62,0.00,30.15,907.32,349.57,0.05,0.46,627.65
5.04,1008.70,244.45,-19.08,244.45,19.08,-0.35,0.00,0.35,-179.86,0.15,0.03,28.61,-80.60,9.79,0.00,0.00,-0.02,0.01,15503.00,0.00,11.63,0.03,191.52,147.31,4.29,0.70,34769304.00,0.00,144.16,0.56,0.56,0.25,0.13,0.18,0.00,0.00,0.00,0.00,0.00,0.00,0.00,0.00,0.03,10.30,83.32,89.96,179.72,0.00,30.02,906.07,349.49,0.05,0.46,622.16
5.09,1020.90,243.50,-19.00,243.50,19.00,-0.35,0.00,0.35,-179.86,0.15,0.03,28.61,-80.60,9.79,0.00,0.00,-0.01,0.00,15503.00,0.00,11.63,0.03,191.50,147.31,4.29,0.70,34611114.00,0.00,142.80,0.56,0.56,0.25,0.13,0.18,0.00,0.00,0.00,0.00,0.00,0.00,0.00,0.00,0.03,10.30,83.32,89.96,179.81,0.00,29.90,904.83,349.42,0.05,0.46,616.72
5.14,1033.00,242.55,-18.91,242.55,18.91,-0.36,0.00,0.36,-179.87,0.16,0.03,28.61,-80.60,9.79,0.00,0.00,-0.01,0.00,15503.00,0.00,11.63,0.03,191.48,147.31,4.29,0.69,34453768.00,0.00,141.46,0.56,0.56,0.25,0.13,0.18,0.00,0.00,0.00,0.00,0.00,0.00,0.00,0.00,0.03,10.30,83.32,89.96,179.86,0.00,29.78,903.59,349.35,0.05,0.47,611.33
5.19,1045.10,241.61,-18.82,241.61,18.82,-0.37,0.00,0.37,-179.87,0.16,0.03,28.61,-80.60,9.79,0.00,0.00,-0.01,0.00,15503.00,0.00,11.63,0.03,191.47,147.31,4.29,0.69,34297258.00,0.00,140.13,0.56,0.56,0.25,0.13,0.18,0.00,0.00,0.00,0.00,0.00,0.00,0.00,0.00,0.03,10.30,83.32,89.96,179.93,0.00,29.66,902.35,349.27,0.05,0.48,606.00
5.24,1057.20,240.67,-18.74,240.67,18.74,-0.38,0.00,0.38,-179.87,0.16,0.03,28.61,-80.60,9.79,0.00,0.00,0.00,0.00,15503.00,0.00,11.63,0.03,191.45,147.31,4.29,0.69,34141575.00,0.00,138.82,0.55,0.55,0.25,0.13,0.18,0.00,0.00,0.00,0.00,0.00,0.00,0.00,0.00,0.03,10.30,83.32,89.96,-179.99,0.00,29.54,901.12,349.20,0.05,0.48,600.71
5.29,1069.20,239.74,-18.66,239.74,18.66,-0.39,0.00,0.39,-179.87,0.16,0.03,28.61,-80.60,9.79,0.00,0.00,0.00,0.00,15503.00,0.00,11.63,0.03,191.43,147.31,4.28,0.69,33986711.00,0.00,137.52,0.55,0.55,0.25,0.13,0.18,0.00,0.00,0.00,0.00,0.00,0.00,0.00,0.00,0.03,10.30,83.32,89.96,-179.90,0.00,29.43,899.89,349.13,0.05,0.49,595.48
5.34,1081.20,238.80,-18.57,238.80,18.57,-0.39,0.00,0.39,-179.87,0.16,0.02,28.61,-80.60,9.79,0.00,0.00,0.00,0.00,15503.00,0.00,11.63,0.03,191.42,147.31,4.28,0.68,33832658.00,0.00,136.23,0.55,0.55,0.25,0.13,0.18,0.00,0.00,0.00,0.00,0.00,0.00,0.00,0.00,0.03,10.30,83.32,89.96,-179.81,0.00,29.31,898.67,349.06,0.05,0.49,590.29
5.39,1093.10,237.88,-18.49,237.88,18.49,-0.40,0.00,0.40,-179.88,0.16,0.02,28.61,-80.60,9.79,0.00,0.00,0.00,0.00,15503.00,0.00,11.63,0.03,191.40,147.31,4.28,0.68,33679407.00,0.00,134.96,0.55,0.55,0.25,0.13,0.18,0.00,0.00,0.00,0.00,0.00,0.00,0.00,0.00,0.03,10.30,83.32,89.96,-179.73,0.00,29.19,897.46,348.99,0.05,0.49,585.15
5.44,1105.00,236.96,-18.41,236.96,18.41,-0.41,0.00,0.41,-179.88,0.16,0.02,28.61,-80.60,9.79,0.00,0.00,0.01,0.00,15503.00,0.00,11.63,0.03,191.38,147.31,4.28,0.68,33526952.00,0.00,133.70,0.55,0.55,0.25,0.13,0.18,0.00,0.00,0.00,0.00,0.00,0.00,0.00,0.00,0.03,10.30,83.32,89.96,-179.74,0.00,29.07,896.24,348.92,0.05,0.49,580.07
5.49,1116.80,236.04,-18.33,236.04,18.33,-0.42,0.00,0.42,-179.88,0.16,0.02,28.61,-80.60,9.78,0.00,0.00,0.01,0.00,15503.00,0.00,11.63,0.03,191.37,147.31,4.28,0.68,33375283.00,0.00,132.46,0.55,0.55,0.25,0.13,0.18,0.00,0.00,0.00,0.00,0.00,0.00,0.00,0.00,0.03,10.30,83.32,89.96,-179.76,0.00,28.96,895.04,348.85,0.05,0.50,575.03
5.54,1128.60,235.12,-18.25,235.12,18.25,-0.43,0.00,0.43,-179.88,0.17,0.02,28.61,-80.60,9.78,0.00,0.00,0.01,0.00,15503.00,0.00,11.63,0.03,191.35,147.31,4.28,0.67,33224393.00,0.00,131.23,0.55,0.55,0.25,0.13,0.18,0.00,0.00,0.00,0.00,0.00,0.00,0.00,0.00,0.03,10.30,83.32,89.96,-179.77,0.00,28.84,893.83,348.77,0.05,0.50,570.03
5.59,1140.30,234.21,-18.17,234.21,18.17,-0.43,0.00,0.43,-179.88,0.17,0.02,28.61,-80.60,9.78,0.00,0.00,0.01,0.00,15503.00,0.00,11.63,0.03,191.33,147.31,4.27,0.67,33074275.00,0.00,130.01,0.55,0.55,0.25,0.13,0.18,0.00,0.00,0.00,0.00,0.00,0.00,0.00,0.00,0.03,10.30,83.32,89.96,-179.81,0.00,28.72,892.64,348.70,0.05,0.50,565.08
5.64,1152.00,233.31,-18.09,233.31,18.09,-0.44,0.00,0.44,-179.88,0.17,0.02,28.61,-80.60,9.78,0.00,0.00,0.02,0.00,15503.00,0.00,11.63,0.03,191.32,147.31,4.27,0.67,32924921.00,0.00,128.80,0.55,0.55,0.25,0.13,0.18,0.00,0.00,0.00,0.00,0.00,0.00,0.00,0.00,0.03,10.30,83.32,89.96,-179.89,0.00,28.61,891.44,348.63,0.05,0.51,560.18
5.69,1163.60,232.40,-18.02,232.40,18.02,-0.45,0.00,0.45,-179.88,0.17,0.02,28.61,-80.60,9.78,0.00,0.00,0.00,0.00,15503.00,0.00,11.63,0.03,191.31,147.31,4.27,0.67,32776324.00,0.00,127.61,0.55,0.55,0.25,0.13,0.18,0.00,0.00,0.00,0.00,0.00,0.00,0.00,0.00,0.03,10.30,83.32,89.96,-179.93,0.00,28.49,890.25,348.56,0.05,0.51,555.33
5.74,1175.20,231.50,-17.94,231.50,17.94,-0.46,0.00,0.46,-179.88,0.17,0.02,28.61,-80.60,9.78,0.00,0.00,-0.02,0.00,15503.00,0.00,11.63,0.03,191.29,147.31,4.27,0.66,32628476.00,0.00,126.43,0.55,0.55,0.25,0.12,0.18,0.00,0.00,0.00,0.00,0.00,0.00,0.00,0.00,0.03,10.30,83.32,89.96,-179.88,0.00,28.38,889.07,348.50,0.05,0.51,550.52
5.79,1186.80,230.61,-17.87,230.61,17.87,-0.47,0.00,0.47,-179.89,0.17,0.02,28.61,-80.60,9.78,0.00,0.00,-0.01,0.00,15503.00,0.00,11.63,0.03,191.27,147.31,4.27,0.66,32481370.00,0.00,125.26,0.55,0.55,0.25,0.12,0.18,0.00,0.00,0.00,0.00,0.00,0.00,0.00,0.00,0.03,10.30,83.32,89.96,-179.90,0.00,28.26,887.89,348.43,0.05,0.51,545.75
5.84,1198.30,229.72,-17.79,229.72,17.79,-0.48,0.00,0.48,-179.89,0.17,0.03,28.61,-80.60,9.78,0.00,0.00,-0.01,0.00,15503.00,0.00,11.63,0.03,191.26,147.31,4.27,0.66,32334999.00,0.00,124.11,0.55,0.55,0.25,0.12,0.18,0.00,0.00,0.00,0.00,0.00,0.00,0.00,0.00,0.03,10.30,83.32,89.96,-179.97,0.00,28.15,886.72,348.36,0.05,0.51,541.03
5.89,1209.70,228.83,-17.72,228.83,17.72,-0.49,0.00,0.49,-179.89,0.17,0.03,28.61,-80.60,9.78,0.00,0.00,-0.01,0.00,15503.00,0.00,11.63,0.03,191.24,147.31,4.27,0.66,32189356.00,0.00,122.96,0.55,0.55,0.25,0.12,0.18,0.00,0.00,0.00,0.00,0.00,0.00,0.00,0.00,0.03,10.30,83.32,89.96,179.98,0.00,28.04,885.55,348.29,0.05,0.52,536.35
5.94,1221.20,227.95,-17.64,227.95,17.64,-0.49,0.00,0.49,-179.89,0.18,0.02,28.61,-80.60,9.78,0.00,0.00,-0.01,0.00,15503.00,0.00,11.63,0.03,191.23,147.31,4.26,0.65,32044435.00,0.00,121.83,0.55,0.55,0.25,0.12,0.18,0.00,0.00,0.00,0.00,0.00,0.00,0.00,0.00,0.03,10.30,83.32,89.96,179.95,0.00,27.92,884.38,348.22,0.05,0.52,531.71
5.99,1232.50,227.07,-17.57,227.07,17.57,-0.50,0.00,0.50,-179.89,0.18,0.02,28.61,-80.60,9.78,0.00,0.00,0.00,0.00,15503.00,0.00,11.63,0.03,191.21,147.31,4.26,0.65,31900000.00,0.00,120.71,0.55,0.55,0.25,0.12,0.18,0.00,0.00,0.00,0.00,0.00,0.00,0.00,0.00,0.03,10.30,83.32,89.96,179.92,0.00,27.81,883.22,348.15,0.05,0.52,527.11
6.04,1243.90,226.19,-17.50,226.19,17.50,-0.51,0.00,0.51,-179.89,0.18,0.02,28.61,-80.60,9.78,0.00,0.00,0.00,0.00,15503.00,0.00,11.63,0.03,191.20,147.31,4.26,0.65,31756728.00,0.00,119.60,0.55,0.55,0.25,0.12,0.17,0.00,0.00,0.00,0.00,0.00,0.00,0.00,0.00,0.03,10.30,83.32,89.96,179.92,0.00,27.70,882.06,348.08,0.05,0.53,522.56
6.09,1255.20,225.32,-17.43,225.32,17.43,-0.52,0.00,0.52,-179.89,0.18,0.02,28.61,-80.60,9.78,0.00,0.00,0.00,0.00,15503.00,0.00,11.63,0.03,191.18,147.31,4.26,0.65,31613929.00,0.00,118.51,0.55,0.55,0.25,0.12,0.17,0.00,0.00,0.00,0.00,0.00,0.00,0.00,0.00,0.03,10.30,83.32,89.95,179.88,0.00,27.59,880.91,348.02,0.05,0.53,518.05
6.14,1266.40,224.45,-17.36,224.45,17.36,-0.53,0.00,0.53,-179.89,0.18,0.02,28.61,-80.60,9.78,0.00,0.00,0.00,0.00,15503.00,0.00,11.63,0.03,191.17,147.31,4.26,0.65,31473182.00,0.00,117.43,0.55,0.55,0.25,0.12,0.17,0.00,0.00,0.00,0.00,0.00,0.00,0.00,0.00,0.03,10.30,83.32,89.95,179.85,0.00,27.48,879.80,347.95,0.05,0.53,513.60
6.19,1277.60,223.58,-17.29,223.58,17.29,-0.54,0.00,0.54,-179.89,0.18,0.02,28.61,-80.60,9.78,0.00,0.00,0.00,0.00,15503.00,0.00,11.63,0.03,191.15,147.31,4.26,0.64,31333370.00,0.00,116.36,0.55,0.55,0.25,0.12,0.17,0.00,0.00,0.00,0.00,0.00,0.00,0.00,0.00,0.03,10.30,83.32,89.95,179.82,0.00,27.36,878.70,347.88,0.05,0.53,509.19
6.24,1288.80,222.72,-17.22,222.72,17.22,-0.55,0.00,0.55,-179.90,0.18,0.02,28.61,-80.60,9.78,0.00,0.00,0.01,0.00,15503.00,0.00,11.63,0.03,191.14,147.31,4.26,0.64,31194221.00,0.00,115.30,0.55,0.55,0.25,0.12,0.17,0.00,0.00,0.00,0.00,0.00,0.00,0.00,0.00,0.03,10.30,83.32,89.95,179.77,0.00,27.25,877.61,347.81,0.05,0.54,504.83
6.29,1299.90,221.86,-17.15,221.86,17.15,-0.56,0.00,0.56,-179.90,0.18,0.02,28.61,-80.60,9.78,0.00,0.00,0.01,0.00,15503.00,0.00,11.63,0.03,191.13,147.31,4.25,0.64,31055729.00,0.00,114.25,0.55,0.55,0.25,0.12,0.17,0.00,0.00,0.00,0.00,0.00,0.00,0.00,0.00,0.03,10.30,83.32,89.95,179.78,0.00,27.14,876.52,347.75,0.05,0.54,500.50
6.34,1310.90,221.00,-17.09,221.00,17.09,-0.57,0.00,0.57,-179.90,0.18,0.02,28.61,-80.60,9.78,0.00,0.00,0.01,0.00,15503.00,0.00,11.63,0.03,191.11,147.31,4.25,0.64,30917887.00,0.00,113.21,0.55,0.55,0.25,0.12,0.17,0.00,0.00,0.00,0.00,0.00,0.00,0.00,0.00,0.03,10.30,83.32,89.95,179.84,0.00,27.03,875.43,347.68,0.05,0.54,496.21
6.39,1322.00,220.15,-17.02,220.15,17.02,-0.58,0.00,0.58,-179.90,0.19,0.02,28.61,-80.60,9.78,0.00,0.00,0.02,0.00,15503.00,0.00,11.63,0.03,191.10,147.31,4.25,0.63,30780689.00,0.00,112.19,0.55,0.55,0.25,0.12,0.17,0.00,0.00,0.00,0.00,0.00,0.00,0.00,0.00,0.03,10.30,83.32,89.95,179.92,0.00,26.93,874.35,347.62,0.05,0.55,491.96
6.44,1333.00,219.30,-16.96,219.30,16.96,-0.58,0.00,0.58,-179.90,0.19,0.02,28.61,-80.60,9.78,0.00,0.00,0.00,0.00,15503.00,0.00,11.63,0.03,191.09,147.31,4.25,0.63,30644130.00,0.00,111.17,0.55,0.55,0.25,0.12,0.17,0.00,0.00,0.00,0.00,0.00,0.00,0.00,0.00,0.03,10.30,83.32,89.95,-179.97,0.00,26.82,873.27,347.55,0.05,0.55,487.75
6.49,1343.90,218.45,-16.89,218.45,16.89,-0.59,0.00,0.59,-179.90,0.19,0.02,28.61,-80.60,9.78,0.00,0.00,0.00,0.00,15503.00,0.00,11.63,0.03,191.07,147.31,4.25,0.63,30508204.00,0.00,110.16,0.55,0.55,0.25,0.12,0.17,0.00,0.00,0.00,0.00,0.00,0.00,0.00,0.00,0.03,10.30,83.32,89.95,-179.81,0.00,26.71,872.20,347.48,0.05,0.55,483.57
6.54,1354.80,217.61,-16.83,217.61,16.83,-0.60,0.00,0.60,-179.90,0.19,0.02,28.61,-80.60,9.78,0.00,0.00,-0.01,-0.01,15503.00,0.00,11.63,0.03,191.06,147.31,4.25,0.63,30372905.00,0.00,109.17,0.55,0.55,0.25,0.12,0.17,0.00,0.00,0.00,0.00,0.00,0.00,0.00,0.00,0.03,10.30,83.32,89.95,-179.69,0.00,26.60,871.13,347.42,0.05,0.55,479.43
6.59,1365.70,216.77,-16.76,216.77,16.76,-0.61,0.00,0.61,-179.90,0.19,0.02,28.61,-80.60,9.78,0.00,0.00,-0.01,-0.01,15503.00,0.00,11.63,0.03,191.05,147.31,4.25,0.62,30238227.00,0.00,108.18,0.55,0.55,0.25,0.12,0.17,0.00,0.00,0.00,0.00,0.00,0.00,0.00,0.00,0.03,10.30,83.32,89.95,-179.65,0.00,26.49,870.07,347.35,0.05,0.55,475.33
6.64,1376.50,215.93,-16.70,215.93,16.70,-0.62,0.00,0.62,-179.91,0.19,0.02,28.61,-80.60,9.78,0.00,0.00,-0.01,-0.01,15503.00,0.00,11.63,0.03,191.03,147.31,4.25,0.62,30104166.00,0.00,107.20,0.55,0.55,0.25,0.12,0.17,0.00,0.00,0.00,0.00,0.00,0.00,0.00,0.00,0.03,10.30,83.32,89.95,-179.68,0.00,26.39,869.01,347.29,0.05,0.56,471.26
6.69,1387.30,215.10,-16.64,215.10,16.64,-0.63,0.00,0.63,-179.91,0.19,0.02,28.61,-80.60,9.78,0.00,0.00,-0.01,0.00,15503.00,0.00,11.63,0.03,191.02,147.31,4.24,0.62,29970714.00,0.00,106.23,0.55,0.55,0.25,0.12,0.17,0.00,0.00,0.00,0.00,0.00,0.00,0.00,0.00,0.03,10.30,83.32,89.95,-179.71,0.00,26.28,867.95,347.22,0.05,0.56,467.22
6.74,1398.00,214.27,-16.58,214.27,16.58,-0.64,0.00,0.64,-179.91,0.19,0.02,28.61,-80.60,9.78,0.00,0.00,0.00,0.00,15503.00,0.00,11.63,0.03,191.01,147.31,4.24,0.62,29837868.00,0.00,105.28,0.55,0.55,0.25,0.12,0.17,0.00,0.00,0.00,0.00,0.00,0.00,0.00,0.00,0.03,10.30,83.32,89.95,-179.69,0.00,26.17,866.90,347.16,0.05,0.56,463.23
6.79,1408.70,213.44,-16.51,213.44,16.51,-0.65,0.00,0.65,-179.91,0.19,0.02,28.61,-80.60,9.78,0.00,0.00,0.00,0.00,15503.00,0.00,11.63,0.03,191.00,147.31,4.24,0.61,29705621.00,0.00,104.33,0.55,0.55,0.25,0.12,0.17,0.00,0.00,0.00,0.00,0.00,0.00,0.00,0.00,0.03,10.30,83.32,89.95,-179.69,0.00,26.07,865.85,347.10,0.05,0.56,459.26
6.84,1419.30,212.62,-16.45,212.62,16.45,-0.66,0.00,0.66,-179.91,0.20,0.02,28.61,-80.60,9.78,0.00,0.00,0.00,0.00,15503.00,0.00,11.63,0.03,190.98,147.31,4.24,0.61,29573968.00,0.00,103.39,0.55,0.55,0.25,0.12,0.17,0.00,0.00,0.00,0.00,0.00,0.00,0.00,0.00,0.03,10.30,83.32,89.95,-179.72,0.00,25.96,864.80,347.03,0.05,0.56,455.33
6.89,1430.00,211.80,-16.39,211.80,16.39,-0.67,0.00,0.67,-179.91,0.20,0.02,28.61,-80.60,9.78,0.00,0.00,0.01,0.00,15503.00,0.00,11.63,0.03,190.97,147.31,4.24,0.61,29442904.00,0.00,102.46,0.54,0.54,0.25,0.12,0.17,0.00,0.00,0.00,0.00,0.00,0.00,0.00,0.00,0.03,10.30,83.32,89.95,-179.77,0.00,25.86,863.76,346.97,0.05,0.57,451.44
6.94,1440.50,210.98,-16.33,210.98,16.33,-0.68,0.00,0.68,-179.91,0.20,0.02,28.61,-80.60,9.78,0.00,0.00,0.01,0.00,15503.00,0.00,11.63,0.03,190.96,147.31,4.24,0.61,29312424.00,0.00,101.54,0.54,0.54,0.25,0.12,0.17,0.00,0.00,0.00,0.00,0.00,0.00,0.00,0.00,0.03,10.30,83.32,89.95,-179.83,0.00,25.75,862.73,346.91,0.05,0.57,447.58
6.99,1451.00,210.16,-16.28,210.16,16.28,-0.69,0.00,0.69,-179.91,0.20,0.02,28.61,-80.60,9.78,0.00,0.00,0.01,0.00,15503.00,0.00,11.63,0.03,190.95,147.31,4.24,0.61,29182523.00,0.00,100.62,0.54,0.54,0.26,0.12,0.17,0.00,0.00,0.00,0.00,0.00,0.00,0.00,0.00,0.03,10.30,83.32,89.95,-179.93,0.00,25.65,861.70,346.84,0.05,0.57,443.75
7.04,1461.50,209.35,-16.22,209.35,16.22,-0.70,0.00,0.70,-179.91,0.20,0.02,28.61,-80.60,9.78,0.00,0.00,0.01,0.00,15503.00,0.00,11.63,0.03,190.94,147.31,4.24,0.60,29053195.00,0.00,99.72,0.54,0.54,0.26,0.12,0.17,0.00,0.00,0.00,0.00,0.00,0.00,0.00,0.00,0.03,10.30,83.32,89.95,179.99,0.00,25.55,860.67,346.78,0.05,0.57,439.95
7.09,1472.00,208.54,-16.16,208.54,16.16,-0.71,0.00,0.71,-179.91,0.20,0.02,28.61,-80.60,9.78,0.00,0.00,0.01,0.01,15503.00,0.00,11.63,0.03,190.92,147.31,4.23,0.60,28924436.00,0.00,98.82,0.54,0.54,0.26,0.12,0.17,0.00,0.00,0.00,0.00,0.00,0.00,0.00,0.00,0.03,10.30,83.32,89.95,179.90,0.00,25.44,859.64,346.72,0.05,0.58,436.19
7.14,1482.40,207.74,-16.10,207.74,16.10,-0.72,0.00,0.72,-179.91,0.20,0.02,28.61,-80.60,9.78,0.00,0.00,0.00,0.00,15503.00,0.00,11.63,0.03,190.91,147.31,4.23,0.60,28796241.00,0.00,97.94,0.54,0.54,0.26,0.12,0.17,0.00,0.00,0.00,0.00,0.00,0.00,0.00,0.00,0.03,10.30,83.32,89.95,179.81,0.00,25.34,858.62,346.65,0.05,0.58,432.46
7.19,1492.80,206.93,-16.05,206.93,16.05,-0.73,0.00,0.73,-179.91,0.20,0.02,28.61,-80.60,9.78,0.00,0.00,0.00,0.01,15503.00,0.00,11.63,0.03,190.90,147.31,4.23,0.60,28668605.00,0.00,97.06,0.54,0.54,0.26,0.12,0.17,0.00,0.00,0.00,0.00,0.00,0.00,0.00,0.00,0.03,10.30,83.32,89.94,179.73,0.00,25.24,857.61,346.59,0.05,0.58,428.76
7.24,1503.10,206.13,-15.99,206.13,15.99,-0.74,0.00,0.74,-179.91,0.20,0.02,28.61,-80.60,9.78,0.00,0.00,-0.01,0.01,15503.00,0.00,11.63,0.03,190.89,147.31,4.23,0.59,28541523.00,0.00,96.19,0.54,0.54,0.26,0.12,0.17,0.00,0.00,0.00,0.00,0.00,0.00,0.00,0.00,0.03,10.30,83.32,89.94,179.72,0.00,25.13,856.59,346.53,0.05,0.59,425.09
7.29,1513.40,205.33,-15.93,205.33,15.93,-0.75,0.00,0.75,-179.91,0.20,0.02,28.61,-80.60,9.78,0.00,0.00,-0.01,0.01,15503.00,0.00,11.63,0.03,190.88,147.31,4.23,0.59,28414990.00,0.00,95.33,0.54,0.54,0.26,0.12,0.17,0.00,0.00,0.00,0.00,0.00,0.00,0.00,0.00,0.03,10.30,83.32,89.94,179.73,0.00,25.03,855.58,346.47,0.05,0.59,421.45
7.34,1523.60,204.54,-15.88,204.54,15.88,-0.76,0.00,0.76,-179.91,0.21,0.02,28.61,-80.60,9.78,0.00,0.00,-0.01,0.01,15503.00,0.00,11.63,0.03,190.87,147.31,4.23,0.59,28289002.00,0.00,94.47,0.54,0.54,0.26,0.12,0.17,0.00,0.00,0.00,0.00,0.00,0.00,0.00,0.00,0.03,10.30,83.32,89.94,179.75,0.00,24.93,854.58,346.41,0.05,0.59,417.84
7.39,1533.80,203.75,-15.82,203.75,15.82,-0.77,0.00,0.77,-179.91,0.21,0.02,28.61,-80.60,9.78,0.00,0.00,-0.01,0.01,15503.00,0.00,11.63,0.03,190.86,147.31,4.23,0.59,28163554.00,0.00,93.63,0.54,0.54,0.26,0.12,0.16,0.00,0.00,0.00,0.00,0.00,0.00,0.00,0.00,0.03,10.30,83.32,89.94,179.84,0.00,24.83,853.58,346.35,0.05,0.59,414.26
7.44,1544.00,202.96,-15.77,202.96,15.77,-0.78,0.00,0.78,-179.91,0.21,0.02,28.61,-80.60,9.78,0.00,0.00,-0.01,0.00,15503.00,0.00,11.63,0.03,190.85,147.31,4.23,0.59,28038641.00,0.00,92.79,0.54,0.54,0.26,0.12,0.16,0.00,0.00,0.00,0.00,0.00,0.00,0.00,0.00,0.03,10.30,83.32,89.94,179.96,0.00,24.73,852.58,346.28,0.05,0.59,410.72
7.49,1554.10,202.17,-15.72,202.17,15.72,-0.79,0.00,0.79,-179.91,0.21,0.02,28.61,-80.60,9.78,0.00,0.00,-0.01,0.00,15503.00,0.00,11.63,0.03,190.83,147.31,4.23,0.58,27914259.00,0.00,91.96,0.54,0.54,0.26,0.12,0.16,0.00,0.00,0.00,0.00,0.00,0.00,0.00,0.00,0.03,10.30,83.32,89.94,-179.91,0.00,24.63,851.59,346.22,0.05,0.60,407.20
7.54,1564.20,201.38,-15.66,201.38,15.66,-0.80,0.00,0.80,-179.92,0.21,0.02,28.61,-80.60,9.78,0.00,0.00,-0.01,0.00,15503.00,0.00,11.63,0.03,190.82,147.31,4.22,0.58,27800000.00,0.00,91.14,0.54,0.54,0.26,0.12,0.16,0.00,0.00,0.00,0.00,0.00,0.00,0.00,0.00,0.03,10.30,83.32,89.94,-179.80,0.00,24.53,850.60,346.16,0.05,0.60,403.71
7.59,1574.30,200.60,-15.61,200.60,15.61,-0.81,0.00,0.81,-179.92,0.21,0.02,28.61,-80.60,9.78,0.00,0.00,0.00,0.00,15503.00,0.00,11.63,0.03,190.81,147.31,4.22,0.58,27667070.00,0.00,90.32,0.54,0.54,0.26,0.12,0.16,0.00,0.00,0.00,0.00,0.00,0.00,0.00,0.00,0.03,10.30,83.32,89.94,-179.72,0.00,24.43,849.61,346.10,0.05,0.60,400.25
7.64,1584.30,199.82,-15.56,199.82,15.56,-0.82,0.00,0.82,-179.92,0.21,0.02,28.61,-80.60,9.78,0.00,0.00,0.00,-0.01,15503.00,0.00,11.63,0.03,190.80,147.31,4.22,0.58,27544254.00,0.00,89.52,0.54,0.54,0.26,0.12,0.16,0.00,0.00,0.00,0.00,0.00,0.00,0.00,0.00,0.03,10.30,83.32,89.94,-179.68,0.00,24.33,848.63,346.04,0.05,0.60,396.82
7.69,1594.20,199.05,-15.51,199.05,15.51,-0.83,0.00,0.83,-179.92,0.21,0.02,28.61,-80.60,9.78,0.00,0.00,0.00,-0.01,15503.00,0.00,11.63,0.03,190.79,147.31,4.22,0.58,27421951.00,0.00,88.72,0.54,0.54,0.26,0.12,0.16,0.00,0.00,0.00,0.00,0.00,0.00,0.00,0.00,0.03,10.30,83.32,89.94,-179.66,0.00,24.23,847.66,345.98,0.05,0.60,393.42
7.74,1604.20,198.27,-15.46,198.27,15.46,-0.85,0.00,0.85,-179.92,0.21,0.02,28.61,-80.60,9.78,0.00,0.00,0.01,0.00,15503.00,0.00,11.63,0.03,190.78,147.31,4.22,0.57,27300000.00,0.00,87.92,0.54,0.54,0.26,0.12,0.16,0.00,0.00,0.00,0.00,0.00,0.00,0.00,0.00,0.03,10.30,83.32,89.94,-179.69,0.00,24.13,846.68,345.92,0.05,0.61,390.05
7.79,1614.10,197.50,-15.40,197.50,15.40,-0.86,0.00,0.86,-179.92,0.21,0.02,28.61,-80.60,9.78,0.00,0.00,0.01,0.00,15503.00,0.00,11.63,0.03,190.77,147.31,4.22,0.57,27178869.00,0.00,87.14,0.54,0.54,0.26,0.12,0.16,0.00,0.00,0.00,0.00,0.00,0.00,0.00,0.00,0.03,10.30,83.32,89.94,-179.74,0.00,24.04,845.71,345.86,0.05,0.61,386.70
7.84,1623.90,196.73,-15.35,196.73,15.35,-0.87,0.00,0.87,-179.92,0.22,0.02,28.61,-80.60,9.78,0.00,0.00,0.01,0.00,15503.00,0.00,11.63,0.03,190.76,147.31,4.22,0.57,27058081.00,0.00,86.36,0.54,0.54,0.26,0.12,0.16,0.00,0.00,0.00,0.00,0.00,0.00,0.00,0.00,0.03,10.30,83.32,89.94,-179.83,0.00,23.94,844.74,345.81,0.05,0.61,383.38
7.89,1633.70,195.97,-15.30,195.97,15.30,-0.88,0.00,0.88,-179.92,0.22,0.02,28.61,-80.60,9.78,0.00,0.00,0.01,0.00,15503.00,0.00,11.63,0.03,190.75,147.31,4.22,0.57,26937789.00,0.00,85.59,0.54,0.54,0.26,0.12,0.16,0.00,0.00,0.00,0.00,0.00,0.00,0.00,0.00,0.03,10.30,83.32,89.94,-179.96,0.00,23.84,843.78,345.75,0.05,0.61,380.09
7.94,1643.50,195.20,-15.26,195.20,15.26,-0.89,0.00,0.89,-179.92,0.22,0.02,28.61,-80.60,9.78,0.00,0.00,0.01,0.01,15503.00,0.00,11.63,0.03,190.74,147.31,4.22,0.56,26817990.00,0.00,84.83,0.54,0.54,0.26,0.12,0.16,0.00,0.00,0.00,0.00,0.00,0.00,0.00,0.00,0.02,10.30,83.32,89.94,179.91,0.00,23.75,842.82,345.69,0.05,0.62,376.83
7.99,1653.30,194.44,-15.21,194.44,15.21,-0.90,0.00,0.90,-179.92,0.22,0.02,28.61,-80.60,9.78,0.00,0.00,0.01,0.01,15503.00,0.00,11.63,0.03,190.73,147.31,4.22,0.56,26698679.00,0.00,84.07,0.54,0.54,0.26,0.12,0.16,0.00,0.00,0.00,0.00,0.00,0.00,0.00,0.00,0.02,10.30,83.32,89.94,179.78,0.00,23.65,841.87,345.63,0.05,0.62,373.59
8.04,1663.00,193.68,-15.16,193.68,15.16,-0.91,0.00,0.91,-179.92,0.22,0.02,28.61,-80.60,9.78,0.00,0.00,0.00,0.01,15503.00,0.00,11.63,0.03,190.72,147.31,4.22,0.56,26600000.00,0.00,83.32,0.54,0.54,0.26,0.12,0.16,0.00,0.00,0.00,0.00,0.00,0.00,0.00,0.00,0.02,10.30,83.32,89.94,179.68,0.00,23.55,840.92,345.57,0.05,0.62,370.38
8.09,1672.60,192.92,-15.11,192.93,15.11,-0.92,0.00,0.92,-179.92,0.22,0.02,28.61,-80.60,9.78,0.00,0.00,0.00,0.01,15503.00,0.00,11.63,0.03,190.72,147.31,4.21,0.56,26461506.00,0.00,82.58,0.54,0.54,0.26,0.12,0.16,0.00,0.00,0.00,0.00,0.00,0.00,0.00,0.00,0.02,10.30,83.32,89.94,179.65,0.00,23.46,839.97,345.51,0.05,0.62,367.20
8.14,1682.30,192.17,-15.06,192.17,15.06,-0.93,0.00,0.93,-179.92,0.22,0.02,28.61,-80.60,9.78,0.00,0.00,0.00,0.01,15503.00,0.00,11.63,0.03,190.71,147.31,4.21,0.56,26343636.00,0.00,81.84,0.54,0.54,0.26,0.12,0.16,0.00,0.00,0.00,0.00,0.00,0.00,0.00,0.00,0.02,10.30,83.32,89.93,179.70,0.00,23.36,839.02,345.46,0.05,0.63,364.04
8.19,1691.80,191.42,-15.02,191.42,15.02,-0.94,0.00,0.94,-179.92,0.22,0.02,28.61,-80.60,9.78,0.00,0.00,0.00,0.01,15503.00,0.00,11.63,0.03,190.70,147.31,4.21,0.55,26226239.00,0.00,81.11,0.54,0.54,0.26,0.12,0.16,0.00,0.00,0.00,0.00,0.00,0.00,0.00,0.00,0.02,10.30,83.32,89.93,179.77,0.00,23.27,838.08,345.40,0.05,0.63,360.91
8.24,1701.40,190.67,-14.97,190.67,14.97,-0.95,0.00,0.95,-179.92,0.22,0.02,28.61,-80.60,9.78,0.00,0.00,0.00,0.00,15503.00,0.00,11.63,0.03,190.69,147.31,4.21,0.55,26109311.00,0.00,80.39,0.54,0.54,0.26,0.12,0.16,0.00,0.00,0.00,0.00,0.00,0.00,0.00,0.00,0.02,10.30,83.32,89.93,179.86,0.00,23.17,837.15,345.34,0.05,0.63,357.80
8.29,1710.90,189.92,-14.92,189.92,14.92,-0.97,0.00,0.97,-179.92,0.22,0.02,28.61,-80.60,9.78,0.00,0.00,0.00,0.00,15503.00,0.00,11.63,0.03,190.68,147.31,4.21,0.55,25992848.00,0.00,79.67,0.54,0.54,0.26,0.12,0.16,0.00,0.00,0.00,0.00,0.00,0.00,0.00,0.00,0.02,10.30,83.32,89.93,179.95,0.00,23.08,836.22,345.28,0.05,0.64,354.72
